,relative_path,altitude [m],roll [deg],pitch [deg],northing [m],easting [m],depth [m],heading [deg],timestamp [s],latitude [deg],longitude [deg],recon_loss,latent_0,latent_1,latent_2,latent_3,latent_4,latent_5,latent_6,latent_7
0,sampled_images/20181121_depthmap_1783_0037_01_004.png,6,0,0,-32171.46636,26006.537587,-1241.00949829459,0,1,22.9394266802431,153.487139569821,6.76968629704788E-05,-3.45538902282715,-0.711369276046753,0.480737537145615,1.46801424026489,0.103099755942822,-1.11782109737396,0.285933256149292,-6.14933013916016
1,sampled_images/20181121_depthmap_0895_0298_01_004.png,6,0,0,-26843.50636,27572.377587,-1295.61440690983,0,1,22.9875118413552,153.502500853325,0.000526201154571,2.40049624443054,-0.233881816267967,1.74442744255066,-0.551646888256073,5.0814380645752,-0.68822169303894,2.41081690788269,-2.38267683982849
2,sampled_images/20181121_depthmap_1820_0027_01_004.png,6,0,0,-32393.30636,25946.397587,-1241.56948312119,0,1,22.9374244415595,153.486549512482,5.12499027536251E-05,-2.40617418289185,0.624054491519928,-3.42488121986389,0.902409672737122,-1.38611829280853,0.542013704776764,0.960021734237671,-6.01401901245117
3,sampled_images/20181121_depthmap_1844_0020_01_004.png,6,0,0,-32537.32636,25904.717587,-1241.53613334789,0,1,22.936124614294,153.486140746742,2.08463770832168E-05,-1.55728137493134,-0.252337008714676,-2.68838787078857,0.160837963223457,2.37318205833435,2.98596930503845,-1.23166382312775,-5.52615070343018
4,sampled_images/20181121_depthmap_1065_0246_01_004.png,6,0,0,-27863.60636,27260.697587,-1293.87645085976,0,1,22.9783057171179,153.499443028856,3.14127537421882E-05,-2.59938430786133,-0.646131098270416,-2.5144317150116,1.22610521316528,-0.536324977874756,1.25293743610382,0.487479120492935,-5.97294282913208
5,sampled_images/20181121_depthmap_1629_0082_01_004.png,6,0,0,-31247.38636,26276.417587,-1244.90818527723,0,1,22.9477667194779,153.489786472246,3.18224010698032E-05,-1.37940669059753,-0.331906229257584,-2.38860201835632,0.550106704235077,0.442267507314682,2.0938241481781,-0.282577574253082,-6.47441911697388
6,sampled_images/20181121_depthmap_0882_0301_01_004.png,6,0,0,-26765.28636,27590.357587,-1296.82413457363,0,1,22.9882178505273,153.502677610579,2.83898607449373E-05,-2.46508121490479,-0.490944057703018,-2.19860577583313,1.51026260852814,-0.753271222114563,0.361058831214905,0.827399611473084,-6.40663480758667
7,sampled_images/20181121_depthmap_1392_0151_01_004.png,6,0,0,-29825.54636,26690.717587,-1271.14688336112,0,1,22.9605990658603,153.493850500195,0.000125687423861,-3.69480967521667,-1.31692516803741,1.39475286006928,1.4892361164093,0.217793107032776,-1.42840337753296,0.472860246896744,-5.55415534973145
8,sampled_images/20181121_depthmap_0667_0364_01_004.png,6,0,0,-25475.46636,27968.637587,-1322.5028612894,0,1,22.9998582787568,153.506390371777,2.61548848357052E-05,-2.11263966560364,-0.443521082401276,-1.99022245407105,1.02183353900909,-0.5936039686203,0.820042192935944,0.433562099933624,-6.74570989608765
9,sampled_images/20181121_depthmap_0055_0548_01_004.png,6,0,0,-21803.66636,29072.357587,-1388.02730470388,0,1,23.0329946386452,153.517225187329,8.9385051978752E-05,-2.76750159263611,-1.44206082820892,2.32307314872742,0.087548725306988,2.84805512428284,0.703220188617706,-4.06260871887207,-3.92381882667542
10,sampled_images/20181121_depthmap_1722_0056_01_004.png,6,0,0,-31805.38636,26120.377587,-1242.60932899331,0,1,22.9427305366424,153.488255637808,2.66423703578766E-05,-2.02198505401611,0.906330823898315,-3.23755812644958,0.810158729553223,-0.350184798240662,1.29027235507965,-0.275130391120911,-5.72519636154175
11,sampled_images/20181121_depthmap_0414_0440_01_004.png,6,0,0,-23957.36636,28424.557587,-1370.87166520089,0,1,23.013558575232,153.510865345052,0.000139282041346,-2.54561066627502,-0.291669398546219,3.96836829185486,0.943605124950409,0.772788405418396,-5.58948040008545,1.70385146141052,-2.57491064071655
12,sampled_images/20181121_depthmap_0201_0504_01_004.png,6,0,0,-22679.48636,28808.557587,-1373.44828635208,0,1,23.025090847073,153.514635103279,2.75444217550103E-05,-2.24394488334656,0.793602228164673,-3.65525579452515,0.290225356817245,0.693083047866821,3.08411192893982,-0.050418093800545,-5.98356580734253
13,sampled_images/20181121_depthmap_0019_0558_01_004.png,6,0,0,-21587.44636,29132.717587,-1399.38152536404,0,1,23.0349459800206,153.517818166521,0.000918653851841,-3.24957203865051,1.21628427505493,-1.11704206466675,-0.993695318698883,3.84977054595947,0.124985985457897,5.22635459899902,-0.602090001106262
14,sampled_images/20181121_depthmap_1522_0113_01_004.png,6,0,0,-30605.40636,26462.397587,-1252.95296613969,0,1,22.9535607309984,153.491610788862,0.0009175032028,-1.82010173797607,-2.83926129341125,-2.86137413978577,-2.7619001865387,5.93787431716919,-1.85809659957886,-0.172336831688881,-2.52478384971619
15,sampled_images/20181121_depthmap_1200_0207_01_004.png,6,0,0,-28673.54636,27026.377587,-1288.48009668062,0,1,22.9709959640906,153.497143690008,2.05656488105888E-05,-1.11510384082794,-0.074173584580422,-2.443110704422,0.287380486726761,2.13447165489197,2.77491569519043,-1.31604588031769,-5.95340299606323
16,sampled_images/20181121_depthmap_0554_0399_01_004.png,6,0,0,-24797.28636,28178.457587,-1337.55837100111,0,1,23.0059785204388,153.508449321273,6.06113353569526E-05,-1.0289751291275,-1.33987164497375,-0.86487227678299,0.285248965024948,1.47457027435303,1.73751616477966,-0.229749441146851,-6.43003606796265
17,sampled_images/20181121_depthmap_1376_0155_01_004.png,6,0,0,-29729.28636,26714.677587,-1272.17106429099,0,1,22.9614678893549,153.494085799538,3.87838299502619E-05,-2.13469219207764,1.58887588977814,-3.52173781394958,0.830996572971344,-0.566240727901459,1.60830461978912,-0.642784655094147,-5.47152471542358
18,sampled_images/20181121_depthmap_1842_0021_01_004.png,6,0,0,-32525.44636,25910.377587,-1241.36825269831,0,1,22.9362318007316,153.486196126648,0.000134805639391,-3.17129993438721,-3.7520592212677,1.90243721008301,2.67120599746704,-2.14683818817139,-1.80817496776581,-2.6747362613678,-0.845911622047424
19,sampled_images/20181121_depthmap_1791_0035_01_004.png,6,0,0,-32219.62636,25994.537587,-1241.37731276206,0,1,22.9389919912422,153.487021766192,3.37066194333602E-05,-2.94271516799927,0.96437406539917,-3.95507979393005,1.68307256698608,-2.05572557449341,-3.04025220870972,-2.29479265213013,-3.27417659759521
20,sampled_images/20181121_depthmap_1093_0238_01_004.png,6,0,0,-28031.36636,27212.697587,-1292.72892954923,0,1,22.97679166866,153.498971960727,7.36693982616998E-05,-1.81453347206116,-1.31723380088806,-1.18365859985352,0.305095821619034,1.06720244884491,1.69864773750305,-0.038643639534712,-6.36098718643189
21,sampled_images/20181121_depthmap_0585_0389_01_004.png,6,0,0,-24983.42636,28118.377587,-1333.71047012011,0,1,23.0042987436776,153.507859887932,7.50771359889768E-05,-1.97441756725311,-1.40164923667908,-1.74951779842377,-0.009222784079611,2.60910487174988,2.67333483695984,-1.03500461578369,-5.86564350128174
22,sampled_images/20181121_depthmap_1866_0006_01_004.png,6,0,0,-32669.32636,25820.597587,-1241.33338163492,0,1,22.9349339807963,153.48531843419,2.96191301458748E-05,-2.70166707038879,1.47869169712067,-4.98563480377197,1.61629414558411,-0.879388272762299,-2.03512239456177,-4.17484760284424,-2.43988227844238
23,sampled_images/20181121_depthmap_0144_0521_01_004.png,6,0,0,-22337.28636,28910.597587,-1384.62254795237,0,1,23.0281790372762,153.515636996961,6.74323746352456E-05,-2.18492436408997,0.022880686447024,-2.57103252410889,0.447447389364243,1.06422889232636,2.47494387626648,-0.718299686908722,-6.1075382232666
24,sampled_images/20181121_depthmap_1185_0211_01_004.png,6,0,0,-28583.54636,27050.437587,-1289.80949797384,0,1,22.9718082532183,153.497379894541,5.96497156948317E-05,-0.993504345417023,-1.61182498931885,-1.9070987701416,-0.04448077827692,1.99750506877899,2.83467054367065,-0.60498458147049,-6.15766143798828
25,sampled_images/20181121_depthmap_0100_0533_01_004.png,6,0,0,-22073.36636,28982.597587,-1378.88325009827,0,1,23.0305608994956,153.516344389802,0.001138210529462,2.37957620620728,0.338578134775162,-1.33549451828003,3.3121292591095,0.162956118583679,-4.69447803497314,-0.672991871833801,0.077116720378399
26,sampled_images/20181121_depthmap_0145_0520_01_004.png,6,0,0,-22343.34636,28904.677587,-1384.56677210322,0,1,23.0281244202729,153.515579128441,3.76077005057596E-05,-1.49048709869385,0.650143146514893,-3.30766105651855,-0.148783311247826,1.21722662448883,3.3719756603241,-0.405842989683151,-6.2873010635376
27,sampled_images/20181121_depthmap_1177_0213_01_004.png,6,0,0,-28535.46636,27062.617587,-1290.2517909055,0,1,22.9722422068634,153.497499514658,2.56567018368514E-05,-1.32514154911041,-0.031295374035835,-2.63332104682922,-0.118058659136295,1.49288308620453,3.23021674156189,-0.296032220125198,-6.31446218490601
28,sampled_images/20181121_depthmap_1810_0030_01_004.png,6,0,0,-32333.30636,25964.617587,-1241.54007081135,0,1,22.937965947343,153.486728153234,2.85400310531259E-05,-0.753435492515564,0.514193654060364,-2.42389559745789,0.234776332974434,1.12743282318115,2.43592762947083,-0.635346114635468,-6.66494083404541
29,sampled_images/20181121_depthmap_1199_0207_01_004.png,6,0,0,-28667.34636,27026.437587,-1288.54158516643,0,1,22.9710519476972,153.497144383655,6.83787511661649E-05,0.884541571140289,-2.2531590461731,-0.826050579547882,0.495903879404068,1.94244289398193,1.810666680336,-1.18268239498138,-6.24297761917114
30,sampled_images/20181121_depthmap_0155_0518_01_004.png,6,0,0,-22403.46636,28892.537587,-1384.26925564143,0,1,23.027581766181,153.515459563601,5.31939476786647E-05,-2.45903444290161,0.322629779577255,-3.25056791305542,0.139612808823586,0.749351918697357,3.02413988113403,-0.111441321671009,-5.90322160720825
31,sampled_images/20181121_depthmap_1564_0101_01_004.png,6,0,0,-30857.64636,26390.557587,-1248.07148933466,0,1,22.9512841928687,153.490906003922,2.16609205381246E-05,-1.18854284286499,0.403958469629288,-2.75477027893066,-0.346286088228226,1.65229856967926,3.25156569480896,-0.515408992767334,-6.2971396446228
32,sampled_images/20181121_depthmap_1456_0132_01_004.png,6,0,0,-30209.60636,26576.397587,-1268.34116858328,0,1,22.9571329108424,153.492729155964,2.16920579987345E-05,-2.89409875869751,0.31846296787262,-3.47061991691589,1.16061234474182,0.31851914525032,1.99996078014374,-0.16239158809185,-5.42416524887085
33,sampled_images/20181121_depthmap_0239_0493_01_004.png,6,0,0,-22907.30636,28742.677587,-1373.94435326256,0,1,23.0230348413672,153.513988147564,0.000122874116641,-7.65896511077881,-0.331279695034027,0.030663369223476,1.16719043254852,1.73799133300781,1.68838489055634,-1.03736209869385,-3.2071545124054
34,sampled_images/20181121_depthmap_0578_0392_01_004.png,6,0,0,-24941.54636,28136.357587,-1334.75351961692,0,1,23.004676604721,153.508036032252,5.15312349307351E-05,-0.652000308036804,-3.4537615776062,-1.12029135227203,1.56841611862183,3.17886066436768,0.515219211578369,-2.75932836532593,-4.41332864761353
35,sampled_images/20181121_depthmap_0267_0484_01_004.png,6,0,0,-23075.46636,28688.337587,-1379.07527470831,0,1,23.0215173452628,153.513454900248,7.04785124980845E-05,-1.13494920730591,-0.365381687879562,-1.97535419464111,-0.413691312074661,1.62614321708679,3.18944025039673,-0.068539716303349,-6.53203821182251
36,sampled_images/20181121_depthmap_1645_0077_01_004.png,6,0,0,-31343.64636,26246.517587,-1244.33098592123,0,1,22.9468979810542,153.489493309645,5.28736454725731E-05,-1.48413217067719,0.353170156478882,-2.97623419761658,0.343956142663956,0.886987805366516,2.5362765789032,-0.521923184394836,-6.24032163619995
37,sampled_images/20181121_depthmap_1585_0095_01_004.png,6,0,0,-30983.38636,26354.597587,-1246.87526798187,0,1,22.9501493542601,153.490553236904,3.77032265532762E-05,-1.13443720340729,-1.9868597984314,-1.15760898590088,0.349123626947403,2.67722940444946,1.83160197734833,-0.939577221870422,-5.99915218353272
38,sampled_images/20181121_depthmap_1207_0204_01_004.png,6,0,0,-28715.56636,27008.517587,-1287.77315055458,0,1,22.9706168225247,153.49696878832,2.94738074444467E-05,-1.36882758140564,-2.06235337257385,-0.702295064926147,0.728723168373108,1.28679001331329,1.23041677474976,-0.431699335575104,-6.3893895149231
39,sampled_images/20181121_depthmap_0918_0290_01_004.png,6,0,0,-26981.48636,27524.517587,-1290.34548119104,0,1,22.9862667080079,153.502031614969,9.69547327258624E-05,-2.19140124320984,-0.63326632976532,-0.705799639225006,0.583000421524048,0.105361811816692,0.524542629718781,0.520759403705597,-6.77171850204468
40,sampled_images/20181121_depthmap_1592_0093_01_004.png,6,0,0,-31025.44636,26342.697587,-1246.57454540873,0,1,22.9497697487631,153.490436491747,3.32370509568136E-05,-2.48468852043152,-2.26268553733826,-0.972639739513397,1.31899929046631,2.11874771118164,1.36987483501434,-1.73156416416168,-5.32615232467651
41,sampled_images/20181121_depthmap_1745_0049_01_004.png,6,0,0,-31943.28636,26078.617587,-1242.09141586141,0,1,22.9414859786216,153.487846162603,4.32857232226525E-05,-1.93401479721069,0.677927374839783,-3.08602786064148,0.189553752541542,1.2592556476593,2.89567732810974,-0.506276607513428,-5.92630767822266
42,sampled_images/20181121_depthmap_1763_0043_01_004.png,6,0,0,-32051.36636,26042.437587,-1241.61671393475,0,1,22.940510601273,153.487491599772,0.000169000733877,-5.41601610183716,-2.38239431381226,2.76671242713928,2.99003577232361,0.921632885932922,-3.45953464508057,-0.403582394123077,-2.55193114280701
43,sampled_images/20181121_depthmap_0071_0543_01_004.png,6,0,0,-21899.46636,29042.417587,-1383.45563172805,0,1,23.0321301181256,153.516931278093,0.000522883608937,-1.11883068084717,-4.72445964813232,3.85525631904602,0.885207533836365,3.56061601638794,-1.10054039955139,4.06992816925049,1.31947386264801
44,sampled_images/20181121_depthmap_0725_0347_01_004.png,6,0,0,-25823.44636,27866.377587,-1317.47677525186,0,1,22.9967178267451,153.505386654073,7.93404979049228E-05,-3.08764553070068,-2.05441308021545,-0.525851309299469,2.1871497631073,-0.786109328269959,-0.943558812141418,0.399697959423065,-6.34945869445801
45,sampled_images/20181121_depthmap_1833_0023_01_004.png,6,0,0,-32471.54636,25922.477587,-1241.45831448191,0,1,22.9367183201422,153.486314996297,1.98757661564741E-05,-1.8663238286972,-0.341831594705582,-2.69190549850464,0.278560966253281,1.3969589471817,2.56709885597229,-0.369590520858765,-6.006676197052
46,sampled_images/20181121_depthmap_0782_0331_01_004.png,6,0,0,-26165.54636,27770.517587,-1307.97761519706,0,1,22.9936303548488,153.504445511095,8.78343998920172E-05,-2.82980012893677,0.155338108539581,-2.02250814437866,0.737421989440918,1.56524968147278,1.35824537277222,-0.824565649032593,-5.57430648803711
47,sampled_images/20181121_depthmap_0718_0349_01_004.png,6,0,0,-25781.56636,27878.337587,-1317.2826608456,0,1,22.9970957918613,153.50550406459,8.49239149829373E-05,-2.72683548927307,-1.76895904541016,-0.551436305046082,1.24281072616577,-0.076020546257496,0.323196023702621,0.693062007427216,-6.53320121765137
48,sampled_images/20181121_depthmap_0005_0562_01_004.png,6,0,0,-21503.56636,29156.477587,-1405.98260729613,0,1,23.0357029730938,153.518051567171,0.000393691530917,-1.2097088098526,-2.86581063270569,4.73089361190796,-0.521817922592163,-0.041735075414181,-1.62010884284973,2.05568480491638,-0.733873009681702
49,sampled_images/20181121_depthmap_0504_0413_01_004.png,6,0,0,-24497.48636,28262.517587,-1344.61000351304,0,1,23.0086842053744,153.509274764806,9.52990303630941E-05,-3.03904962539673,0.625999271869659,-0.631889879703522,1.11300802230835,-2.07599329948425,-3.71075057983398,2.40041351318359,-4.85856533050537
50,sampled_images/20181121_depthmap_1652_0075_01_004.png,6,0,0,-31385.64636,26234.477587,-1244.05510231733,0,1,22.9465189185586,153.489375206338,5.51764096599072E-05,-2.32283473014832,-0.128663614392281,-3.02245545387268,0.633129060268402,0.545957326889038,2.11879253387451,-0.624241590499878,-5.74040269851685
51,sampled_images/20181121_depthmap_1390_0151_01_004.png,6,0,0,-29813.30636,26690.417587,-1271.25326758222,0,1,22.9607095952293,153.493847786381,6.34895332041196E-05,-2.02503204345703,-0.290959268808365,-2.35256576538086,0.843030393123627,-0.848863840103149,0.67917275428772,0.365767061710358,-6.38581895828247
52,sampled_images/20181121_depthmap_0970_0274_01_004.png,6,0,0,-27293.58636,27428.417587,-1298.37181663442,0,1,22.9834501072747,153.50108881583,3.12681222567335E-05,-2.43727517127991,0.543166279792785,-3.19564318656921,0.65635484457016,0.186989322304726,2.25992250442505,-0.264626860618591,-5.61479377746582
53,sampled_images/20181121_depthmap_1379_0154_01_004.png,6,0,0,-29747.30636,26708.577587,-1272.02372475339,0,1,22.9613052703323,153.494026006323,4.24763493356295E-05,-1.40290236473084,0.153720274567604,-2.6281726360321,-0.036625362932682,1.32589817047119,2.71129751205444,-0.932189404964447,-6.3784499168396
54,sampled_images/20181121_depthmap_1457_0132_01_004.png,6,0,0,-30215.50636,26576.617587,-1268.38885607611,0,1,22.9570796315777,153.492731199645,3.6576599086402E-05,-2.40577816963196,-1.93853402137756,-1.1160694360733,0.332712799310684,1.83473932743073,2.37136626243591,0.128364861011505,-6.3210334777832
55,sampled_images/20181121_depthmap_1574_0098_01_004.png,6,0,0,-30917.34636,26372.517587,-1247.36867436563,0,1,22.950745399099,153.490729088738,2.33850223594345E-05,-1.42349171638489,-0.466548293828964,-2.34119343757629,0.363348811864853,1.0837310552597,2.69323110580444,-0.302584528923035,-6.32676887512207
56,sampled_images/20181121_depthmap_1827_0025_01_004.png,6,0,0,-32435.58636,25934.397587,-1241.10013747379,0,1,22.9370428473038,153.486431811123,9.54762872424908E-05,-2.57688593864441,-1.53041386604309,1.13047301769257,1.70377898216248,1.29722285270691,-0.157647594809532,-2.82242608070374,-5.39427614212036
57,sampled_images/20181121_depthmap_1368_0157_01_004.png,6,0,0,-29681.50636,26726.337587,-1272.50577510572,0,1,22.9618991456286,153.494200323944,2.87337461486459E-05,-2.02995538711548,-0.313978523015976,-2.20994567871094,0.52045863866806,0.181341618299484,1.76429104804993,0.1407810151577,-6.39156007766724
58,sampled_images/20181121_depthmap_0265_0485_01_004.png,6,0,0,-23063.46636,28694.637587,-1378.84082691243,0,1,23.021625592992,153.513516582837,6.32661394774914E-05,-0.204301476478577,-0.985411584377289,-0.235803842544556,1.58644318580627,-2.80696797370911,-4.31902599334717,-0.745004177093506,-4.41173410415649
59,sampled_images/20181121_depthmap_0115_0529_01_004.png,6,0,0,-22163.36636,28958.577587,-1385.82022633843,0,1,23.0297486460583,153.516108356116,6.86277126078494E-05,-2.1136326789856,-0.631119847297668,-1.83385825157166,1.24270820617676,-0.646042406558991,0.815955340862274,0.20728687942028,-6.21943283081055
60,sampled_images/20181121_depthmap_0449_0430_01_004.png,6,0,0,-24167.40636,28364.497587,-1353.49413223413,0,1,23.0116629991601,153.510275602884,0.000991184031591,0.459903687238693,2.26797699928284,1.66055381298065,1.39843451976776,5.78257036209106,-0.7676762342453,2.05965542793274,-1.97659003734589
61,sampled_images/20181121_depthmap_0066_0544_01_004.png,6,0,0,-21869.46636,29048.677587,-1382.60126263425,0,1,23.0324008993262,153.51699291798,4.68240286863875E-05,-3.06572294235229,-0.854056477546692,-1.97823333740234,0.990453541278839,0.273694008588791,1.16745495796204,0.021018829196692,-5.97786712646484
62,sampled_images/20181121_depthmap_0636_0373_01_004.png,6,0,0,-25289.52636,28022.617587,-1326.51369280963,0,1,23.0015363590338,153.506920264346,5.78805738769006E-05,-2.87620902061462,1.2548360824585,-2.50223970413208,1.95218932628632,-1.51454877853394,-2.79449391365051,-1.66629374027252,-4.43854331970215
63,sampled_images/20181121_depthmap_1266_0188_01_004.png,6,0,0,-29069.66636,26912.417587,-1283.03806573301,0,1,22.9674209335586,153.496025473849,8.0231431638822E-05,-2.10277986526489,-0.771283090114594,-1.8564145565033,1.17518544197083,-0.771623373031616,0.679115056991577,0.314897447824478,-6.0531063079834
64,sampled_images/20181121_depthmap_0675_0363_01_004.png,6,0,0,-25523.48636,27962.357587,-1320.53288471564,0,1,22.9994247765384,153.506328246547,0.000153455970576,-2.9100239276886,0.424234718084335,1.93395328521729,0.277398616075516,-1.1273992061615,-4.97238683700562,2.33237671852112,-3.5821533203125
65,sampled_images/20181121_depthmap_0508_0413_01_004.png,6,0,0,-24521.60636,28262.717587,-1344.45411339212,0,1,23.008466405155,153.509276273199,4.26855585828889E-05,-3.79892110824585,0.368731558322906,-2.33247590065002,0.751093149185181,1.71405458450317,2.20010423660278,-0.899223804473877,-5.35448455810547
66,sampled_images/20181121_depthmap_1088_0239_01_004.png,6,0,0,-28001.36636,27218.577587,-1292.79236846845,0,1,22.9770624655312,153.499029832657,5.53353565919679E-05,-2.3658881187439,-0.045843794941902,-2.24522876739502,1.36810302734375,-1.90851247310638,-0.264964193105698,0.646634876728058,-5.95521783828735
67,sampled_images/20181121_depthmap_0787_0329_01_004.png,6,0,0,-26195.48636,27758.657587,-1308.71647907383,0,1,22.993360202157,153.504329296915,0.000104947568616,-2.85208749771118,-1.48329591751099,-1.09154343605042,1.75819444656372,-1.44835925102234,-0.923995494842529,1.03274607658386,-6.41975069046021
68,sampled_images/20181121_depthmap_1653_0075_01_004.png,6,0,0,-31391.58636,26234.557587,-1244.03787685043,0,1,22.9464652802635,153.489375885536,4.62683201476466E-05,-1.67209255695343,0.445477873086929,-2.66991925239563,-0.115551508963108,1.0708783864975,2.91100001335144,-0.286278545856476,-6.22540378570557
69,sampled_images/20181121_depthmap_1372_0156_01_004.png,6,0,0,-29705.34636,26720.457587,-1272.34480191449,0,1,22.961683969796,153.494142574958,5.36298175575212E-05,-2.64874672889709,-1.39825296401978,-1.6614146232605,1.53599667549133,-0.105119623243809,0.535225510597229,-0.501538515090942,-6.06988906860352
70,sampled_images/20181121_depthmap_0401_0444_01_004.png,6,0,0,-23879.42636,28448.337587,-1372.45563194125,0,1,23.0142619445212,153.511098754187,2.66295846813591E-05,-1.62686562538147,0.098829790949822,-2.67750120162964,0.296968787908554,1.59981834888458,2.79840540885925,-0.998681664466858,-5.82930946350098
71,sampled_images/20181121_depthmap_1666_0072_01_004.png,6,0,0,-31469.62636,26216.597587,-1243.51968295344,0,1,22.9457608764655,153.489199451845,5.27122501807753E-05,-1.88097655773163,0.253141403198242,-2.29812836647034,0.179109409451485,0.017163760960102,1.84625542163849,0.411369353532791,-6.61525821685791
72,sampled_images/20181121_depthmap_0949_0281_01_004.png,6,0,0,-27167.28636,27470.637587,-1294.71626880251,0,1,22.9845898695247,153.501502822074,0.000421455391916,-7.11134958267212,0.85707437992096,2.76791024208069,-1.5501914024353,0.596008241176605,-0.9399453997612,2.64596772193909,-1.37668645381928
73,sampled_images/20181121_depthmap_1051_0250_01_004.png,6,0,0,-27779.60636,27284.637587,-1293.67227660906,0,1,22.9790638252302,153.499677983902,2.96403868560446E-05,-2.2562575340271,-1.37611222267151,-1.56954026222229,2.0390830039978,-1.03225672245026,-0.097439914941788,-0.141705214977264,-5.85726547241211
74,sampled_images/20181121_depthmap_1163_0218_01_004.png,6,0,0,-28451.62636,27092.417587,-1290.45760230217,0,1,22.9729987786481,153.49779159143,0.000112891248136,-2.23514556884766,-0.979476630687714,1.25171256065369,1.82371973991394,-0.884845316410065,-2.7077362537384,-1.00458681583405,-4.75606822967529
75,sampled_images/20181121_depthmap_0688_0359_01_004.png,6,0,0,-25601.42636,27938.337587,-1317.14412852425,0,1,22.9987214024434,153.506092547544,0.000148734092363,-0.623345077037811,-2.22900128364563,3.79871988296509,0.469511330127716,1.8341611623764,-1.71711122989655,-3.14624762535095,-4.80397653579712
76,sampled_images/20181121_depthmap_1843_0021_01_004.png,6,0,0,-32531.28636,25910.517587,-1241.38071034826,0,1,22.9361790644209,153.486197393721,0.000200571652385,-3.64506936073303,-1.23202204704285,-0.673338115215302,-1.75455129146576,-2.57937955856323,-5.26160287857056,-0.883737921714783,-0.971772968769074
77,sampled_images/20181121_depthmap_0773_0333_01_004.png,6,0,0,-26111.28636,27782.437587,-1310.81644408234,0,1,22.9941201096979,153.504562749177,4.08758460253011E-05,-3.60744881629944,-1.26011538505554,-1.84963870048523,1.76370882987976,-0.63313752412796,0.288464784622192,1.26115548610687,-6.08148431777954
78,sampled_images/20181121_depthmap_1831_0024_01_004.png,6,0,0,-32459.56636,25928.557587,-1241.4516061202,0,1,22.9368264029684,153.486374472979,5.88992261327803E-05,-2.15139770507812,0.521046936511993,-2.85209989547729,-0.024305202066898,1.07083451747894,3.17501854896545,-0.240777894854546,-6.11440753936768
79,sampled_images/20181121_depthmap_1399_0148_01_004.png,6,0,0,-29867.28636,26672.617587,-1270.40446187567,0,1,22.9602224521351,153.49367328593,1.77477104443824E-05,-2.39552617073059,0.215271100401878,-3.02776432037354,1.31618547439575,-0.549053251743317,0.945211708545685,-0.05581146478653,-5.89095544815064
80,sampled_images/20181121_depthmap_1413_0144_01_004.png,6,0,0,-29951.28636,26648.457587,-1269.17642639855,0,1,22.9594643362286,153.49343625276,3.96212017221842E-05,-2.01545929908752,0.257683783769608,-2.33054780960083,1.58754682540894,-2.40587377548218,-1.06434261798859,0.548383951187134,-5.92764616012573
81,sampled_images/20181121_depthmap_0332_0465_01_004.png,6,0,0,-23465.36636,28574.517587,-1377.44406493757,0,1,23.0179986231159,153.512337306042,8.64287358126603E-05,-1.91906607151032,-0.936095297336578,-1.65138459205627,0.764091968536377,0.199544504284859,1.3374217748642,0.033823661506176,-6.61046695709229
82,sampled_images/20181121_depthmap_1738_0051_01_004.png,6,0,0,-31901.48636,26090.717587,-1242.17867065565,0,1,22.9418632356733,153.487964838757,3.02270964311901E-05,-2.37736368179321,1.59061789512634,-3.67042756080627,0.947779536247253,0.943709671497345,2.54275798797607,-1.71200251579285,-5.18383979797363
83,sampled_images/20181121_depthmap_1090_0239_01_004.png,6,0,0,-28013.64636,27218.597587,-1292.79108196071,0,1,22.9769515797193,153.49902981112,4.43643584731035E-05,-0.685518503189087,0.75624430179596,-2.37788653373718,0.574822068214417,0.06234572082758,1.37375211715698,-0.452589988708496,-6.41987705230713
84,sampled_images/20181121_depthmap_1775_0040_01_004.png,6,0,0,-32123.50636,26024.337587,-1241.47527000544,0,1,22.9398594727759,153.487313918201,2.27316941163735E-05,-1.27722918987274,-0.301455408334732,-2.63258743286133,1.15620446205139,1.16468727588654,2.43930506706238,-1.28138375282288,-5.87493228912354
85,sampled_images/20181121_depthmap_0143_0521_01_004.png,6,0,0,-22331.34636,28910.577587,-1384.7135193763,0,1,23.0282326739929,153.515636913438,3.26206427416764E-05,-3.14054226875305,0.44864222407341,-3.14125967025757,-0.045395411550999,2.13394260406494,2.84142518043518,-0.995192587375641,-5.14260196685791
86,sampled_images/20181121_depthmap_1437_0137_01_004.png,6,0,0,-30095.32636,26606.417587,-1267.61163314991,0,1,22.9581643566539,153.493023842351,2.58598411164712E-05,-1.66016697883606,0.254964292049408,-2.27506065368652,1.70421457290649,-2.4798436164856,-1.58919930458069,1.12343180179596,-6.39786624908447
87,sampled_images/20181121_depthmap_0214_0500_01_004.png,6,0,0,-22757.30636,28784.697587,-1372.88101209259,0,1,23.0243885692712,153.514400878379,4.69778315164149E-05,-2.29929327964783,0.625565588474274,-3.03729271888733,0.443275719881058,0.370287507772446,2.5099561214447,-0.442440986633301,-5.85413980484009
88,sampled_images/20181121_depthmap_0188_0507_01_004.png,6,0,0,-22601.64636,28826.417587,-1374.03550576653,0,1,23.0257934090617,153.514810796882,4.02895639126655E-05,-2.34682083129883,0.50251579284668,-2.45421648025513,1.52887892723084,-2.54190874099731,-1.64790832996368,1.07611668109894,-5.92197561264038
89,sampled_images/20181121_depthmap_0909_0292_01_004.png,6,0,0,-26927.28636,27536.357587,-1289.99559645484,0,1,22.986755924778,153.502148056413,5.10927820869256E-05,-3.83463764190674,0.946957111358643,-2.95977830886841,2.12286424636841,-0.676657736301422,-0.747792959213257,-3.76428365707397,-2.91334819793701
90,sampled_images/20181121_depthmap_0442_0433_01_004.png,6,0,0,-24125.56636,28382.397587,-1357.23371489569,0,1,23.0120404971834,153.51045098258,0.004878792911768,-5.48744440078735,0.942486763000488,2.42290663719177,0.924580276012421,0.686620116233826,-0.502886950969696,0.176787868142128,5.31303977966309
91,sampled_images/20181121_depthmap_0197_0505_01_004.png,6,0,0,-22655.62636,28814.517587,-1373.60099068673,0,1,23.0253061923525,153.514693693579,3.26775443681981E-05,-0.932436227798462,-0.302462309598923,-2.08708333969116,0.214007332921028,0.82968944311142,2.40426588058472,-0.483846366405487,-6.55713748931885
92,sampled_images/20181121_depthmap_0834_0315_01_004.png,6,0,0,-26477.64636,27674.677587,-1297.38061675525,0,1,22.9908137677328,153.503505145079,0.000149667757796,-1.03484106063843,-6.01265478134155,-0.694585859775543,-1.29805326461792,-3.73666048049927,-2.85378122329712,-1.75742518901825,1.06596982479095
93,sampled_images/20181121_depthmap_1160_0219_01_004.png,6,0,0,-28433.56636,27098.337587,-1290.67818943047,0,1,22.9731617600386,153.497849639784,7.17039656592533E-05,-3.23188304901123,0.395267933607101,-2.59489035606384,1.25127243995667,-0.989989101886749,0.422259002923966,1.21886992454529,-5.5019383430481
94,sampled_images/20181121_depthmap_0651_0369_01_004.png,6,0,0,-25379.36636,27998.637587,-1327.60364355613,0,1,23.0007255316135,153.506684732472,7.90584890637547E-05,-1.75521123409271,-0.554242014884949,-1.03150629997253,-0.956546902656555,-2.00512671470642,-5.60130548477173,-0.591015934944153,-3.57676410675049
95,sampled_images/20181121_depthmap_1117_0231_01_004.png,6,0,0,-28175.28636,27170.397587,-1291.92095220349,0,1,22.9754927951084,153.49855690976,2.94697183562675E-05,-1.13527536392212,-1.11258816719055,-2.24662208557129,0.215467408299446,2.88794732093811,3.03384184837341,-1.25970923900604,-5.58811187744141
96,sampled_images/20181121_depthmap_1062_0247_01_004.png,6,0,0,-27845.32636,27266.577587,-1293.97776439119,0,1,22.9784706849567,153.499500695315,2.01198799913982E-05,-2.57527899742126,-0.58342432975769,-3.09329128265381,0.950124442577362,0.889553904533386,2.45400166511536,-0.506946921348572,-5.74913787841797
97,sampled_images/20181121_depthmap_1863_0013_01_004.png,6,0,0,-32651.48636,25862.697587,-1241.50017617836,0,1,22.9350944213842,153.485729173429,3.28911301039625E-05,-0.169312998652458,0.576916635036469,-2.48108530044556,0.126177385449409,2.33058047294617,3.03289771080017,-1.30816197395325,-6.33870458602905
98,sampled_images/20181121_depthmap_0812_0322_01_004.png,6,0,0,-26345.42636,27716.717587,-1308.18832728768,0,1,22.9920069812744,153.503917545481,0.000139051859151,-3.99473524093628,-3.47795128822327,1.85714077949524,1.7308257818222,2.31915950775146,-0.152054980397224,-2.57534337043762,-4.44391679763794
99,sampled_images/20181121_depthmap_1698_0063_01_004.png,6,0,0,-31661.60636,26162.417587,-1242.82313160049,0,1,22.9440281842253,153.48866795006,4.85315067635383E-05,0.250337064266205,-0.42717370390892,-1.94525766372681,0.875458061695099,3.29255485534668,1.17954683303833,-3.66409850120544,-4.26432991027832
100,sampled_images/20181121_depthmap_1862_0012_01_004.png,6,0,0,-32645.30636,25856.457587,-1241.42405074703,0,1,22.9351503222882,153.485668441701,9.03159234439954E-05,-4.66183567047119,-0.644983887672424,-0.728054940700531,1.57008540630341,-0.187025621533394,-0.460872858762741,0.25326806306839,-5.23846387863159
101,sampled_images/20181121_depthmap_0407_0442_01_004.png,6,0,0,-23915.40636,28436.657587,-1372.14807112776,0,1,23.0139372551789,153.510984153036,3.76225179934408E-05,-2.24192547798157,-1.42049717903137,-2.26810312271118,0.334931582212448,3.80713295936584,2.63330364227295,-1.96090161800385,-3.85954689979553
102,sampled_images/20181121_depthmap_1245_0194_01_004.png,6,0,0,-28943.34636,26948.457587,-1284.84416964639,0,1,22.9685609926727,153.496379122988,7.80191840021871E-05,1.2318412065506,-1.30676400661469,0.031778577715159,0.817699432373047,2.07043647766113,0.484139651060104,-2.66422939300537,-5.38357353210449
103,sampled_images/20181121_depthmap_1383_0153_01_004.png,6,0,0,-29771.46636,26702.697587,-1271.83794038508,0,1,22.9610872048842,153.493968252343,8.16017491160892E-05,-1.39692282676697,-0.485923171043396,-1.49800157546997,0.228063836693764,0.240233674645424,1.75334990024567,0.220788687467575,-6.71484851837158
104,sampled_images/20181121_depthmap_1630_0082_01_004.png,6,0,0,-31253.62636,26276.497587,-1244.87855614564,0,1,22.9477103722501,153.489787146183,4.12703266192693E-05,-2.32172322273254,0.050905659794808,-2.77520632743835,0.102157913148403,0.843329787254334,2.58026170730591,-0.243658363819122,-6.23025798797607
105,sampled_images/20181121_depthmap_0823_0318_01_004.png,6,0,0,-26411.32636,27692.577587,-1299.80740209984,0,1,22.9914123227918,153.503680918064,0.000120558470371,-2.57636260986328,0.741349518299103,0.636705160140991,-1.07117462158203,-2.34536480903625,-5.04085445404053,2.02804660797119,-4.25721645355225
106,sampled_images/20181121_depthmap_1313_0173_01_004.png,6,0,0,-29351.62636,26822.497587,-1277.70659010904,0,1,22.9648763462088,153.49514372034,2.53765138040762E-05,-2.17874264717102,0.303227633237839,-3.15538620948791,1.55072700977325,-0.708895206451416,0.68949830532074,-0.991266846656799,-5.59126615524292
107,sampled_images/20181121_depthmap_1170_0216_01_004.png,6,0,0,-28493.48636,27080.517587,-1290.5410798005,0,1,22.9726209858925,153.497674809335,3.80713208869565E-05,-2.54164505004883,1.56988048553467,-4.0214147567749,0.638684332370758,-0.349219501018524,2.33663392066956,-0.463517159223556,-5.72038459777832
108,sampled_images/20181121_depthmap_1527_0111_01_004.png,6,0,0,-30635.34636,26450.457587,-1251.91294430431,0,1,22.9532905682475,153.491493855167,0.000139471230796,-1.5258629322052,-0.579559922218323,3.86942648887634,1.64916944503784,-0.72387170791626,-5.5631890296936,0.651674211025238,-3.12676739692688
109,sampled_images/20181121_depthmap_1790_0035_01_004.png,6,0,0,-32213.58636,25994.397587,-1241.50443829785,0,1,22.9390465335011,153.487020502784,8.64971880218945E-05,-2.72548842430115,-2.09467792510986,-0.702122390270233,0.769860923290253,1.40823638439178,1.27418434619904,-0.353215098381042,-5.89775037765503
110,sampled_images/20181121_depthmap_0653_0368_01_004.png,6,0,0,-25391.38636,27992.517587,-1327.97888534512,0,1,23.0006170971711,153.506624820331,3.12924603349529E-05,-2.6165714263916,1.16210556030273,-3.70619320869446,1.3891499042511,-1.18241107463837,0.543062269687653,-0.839268743991852,-4.94706439971924
111,sampled_images/20181121_depthmap_0986_0270_01_004.png,6,0,0,-27389.32636,27404.437587,-1295.68791932783,0,1,22.9825859931537,153.500853246442,0.001979472814128,-2.73133993148804,2.82005667686462,2.67256331443787,-0.05549269169569,4.4710750579834,-4.182457447052,-4.28513717651367,1.15337932109833
112,sampled_images/20181121_depthmap_1103_0235_01_004.png,6,0,0,-28091.58636,27194.557587,-1292.2642749799,0,1,22.9762481923761,153.498793995027,3.40045480697881E-05,-1.50628161430359,-0.089841291308403,-2.03154373168945,0.413433998823166,-0.242054089903831,1.0522792339325,0.592298448085785,-6.7907395362854
113,sampled_images/20181121_depthmap_1491_0123_01_004.png,6,0,0,-30419.30636,26522.517587,-1265.78741000207,0,1,22.9552402210318,153.492200184435,8.85855333763175E-05,-0.780116260051727,-0.350968450307846,0.461426109075546,-0.322419375181198,-2.57906484603882,-5.3137149810791,1.67400026321411,-4.53844404220581
114,sampled_images/20181121_depthmap_0650_0370_01_004.png,6,0,0,-25373.54636,28004.337587,-1327.6550667418,0,1,23.000777988771,153.506740435417,7.67881138017401E-05,-1.3124737739563,-2.33509278297424,-0.601394414901733,1.26866030693054,1.23845338821411,0.842472493648529,-1.15748715400696,-6.26555156707764
115,sampled_images/20181121_depthmap_0087_0539_01_004.png,6,0,0,-21995.40636,29018.537587,-1385.48405229678,0,1,23.0312642269998,153.51669649188,9.83700156211853E-05,-1.72944724559784,-2.20246624946594,0.874313294887543,2.11701655387878,0.09088047593832,-0.993343710899353,-0.570027589797974,-6.23095989227295
116,sampled_images/20181121_depthmap_0458_0428_01_004.png,6,0,0,-24221.52636,28352.377587,-1349.3719197862,0,1,23.0111745175367,153.510156380018,0.000219538706006,1.69754409790039,-2.02044343948364,3.14914298057556,-0.972432494163513,2.4730396270752,-1.78486883640289,-2.44226121902466,-4.65813302993774
117,sampled_images/20181121_depthmap_0180_0510_01_004.png,6,0,0,-22553.46636,28844.677587,-1374.53162895122,0,1,23.0262281431019,153.51498983875,6.41616497887298E-05,-2.40028691291809,0.353273749351501,-2.61104893684387,0.228559449315071,0.784663140773773,2.64006853103638,-0.36918842792511,-6.00274324417114
118,sampled_images/20181121_depthmap_1874_0003_01_004.png,6,0,0,-32717.56636,25802.497587,-1241.97633796728,0,1,22.9344986619753,153.485141169181,2.10454400075832E-05,-2.08924436569214,0.321582287549973,-3.02146649360657,0.38072481751442,-0.122627176344395,2.00466322898865,0.368505328893661,-6.20426416397095
119,sampled_images/20181121_depthmap_1476_0126_01_004.png,6,0,0,-30329.42636,26540.557587,-1267.95698533333,0,1,22.9560515318565,153.492377629871,5.22115187777672E-05,-2.52253675460815,-1.01430690288544,-0.64597624540329,2.07644009590149,-1.66687142848969,-1.87220788002014,1.32485997676849,-6.45541620254517
120,sampled_images/20181121_depthmap_1250_0192_01_004.png,6,0,0,-28973.40636,26936.457587,-1284.28342974714,0,1,22.9682897515499,153.496261579453,4.12316949223168E-05,-2.13577437400818,0.588261723518372,-3.48591756820679,0.878018617630005,-0.415223807096481,2.12457346916199,-0.213036358356476,-5.65695333480835
121,sampled_images/20181121_depthmap_0704_0354_01_004.png,6,0,0,-25697.34636,27908.717587,-1316.45140703962,0,1,22.9978557671719,153.505801904769,6.99056326993741E-05,-1.33867359161377,-1.26752734184265,0.950742065906525,1.17018902301788,-0.615003705024719,-0.811017632484436,0.253407448530197,-6.97293853759766
122,sampled_images/20181121_depthmap_0864_0306_01_004.png,6,0,0,-26657.48636,27620.537587,-1295.23545784604,0,1,22.9891907570648,153.502973886668,0.004352539312094,-1.667600274086,4.24209547042847,4.68976879119873,-3.21396517753601,4.77793979644775,0.718254625797272,0.142747685313225,2.04240465164185
123,sampled_images/20181121_depthmap_0861_0307_01_004.png,6,0,0,-26639.50636,27626.677587,-1296.87806616111,0,1,22.9893530100725,153.503034092593,0.003435713704675,-6.08552932739258,-1.02620565891266,2.31403160095215,-1.81192362308502,2.37611126899719,-2.28339672088623,-4.24420881271362,3.34647440910339
124,sampled_images/20181121_depthmap_0331_0465_01_004.png,6,0,0,-23459.50636,28574.477587,-1377.55178696733,0,1,23.0180515378796,153.512337024586,8.1170757766813E-05,-2.56848669052124,-0.506542563438416,-1.76276469230652,0.789462506771088,-0.525217235088348,0.653055608272553,1.01580429077148,-6.3879451751709
125,sampled_images/20181121_depthmap_0876_0302_01_004.png,6,0,0,-26729.32636,27596.577587,-1296.90196916004,0,1,22.9885424571984,153.502738917669,4.39047107647639E-05,-3.45993328094482,-1.63857793807983,-1.72475028038025,1.68957257270813,-0.448585748672485,0.38857963681221,0.665243268013001,-5.29495191574097
126,sampled_images/20181121_depthmap_0077_0541_01_004.png,6,0,0,-21935.42636,29030.417587,-1383.6116411764,0,1,23.0318056202078,153.516813525848,0.000118009273137,-5.62798976898193,1.77107536792755,1.21806645393372,0.135888084769249,0.128629922866821,-1.20009565353394,-3.12931704521179,-3.87633776664734
127,sampled_images/20181121_depthmap_1056_0249_01_004.png,6,0,0,-27809.36636,27278.377587,-1293.87118468503,0,1,22.9787952020462,153.499616408146,2.49719178100349E-05,-1.74576187133789,0.595528364181519,-3.36133551597595,0.176588967442512,0.930931210517883,3.17285823822021,-0.145178452134132,-6.16666984558106
128,sampled_images/20181121_depthmap_0405_0443_01_004.png,6,0,0,-23903.42636,28442.517587,-1372.30719070303,0,1,23.0140453309553,153.511041537645,4.95188724016771E-05,-1.71631145477295,0.39810848236084,-3.0704038143158,-0.334047764539719,1.97412753105164,3.36798095703125,-0.602347791194916,-6.03313159942627
129,sampled_images/20181121_depthmap_0779_0332_01_004.png,6,0,0,-26147.62636,27776.337587,-1308.36229090339,0,1,22.9937920707238,153.504502598631,0.000107470295916,-4.10794925689697,-0.664391100406647,-0.322811603546143,2.09629344940186,-1.36900651454926,-2.70200181007385,0.214703947305679,-3.84521746635437
130,sampled_images/20181121_depthmap_0748_0340_01_004.png,6,0,0,-25961.32636,27824.397587,-1314.58570817956,0,1,22.9954735086811,153.504974709096,0.002796784043312,-3.6352527141571,3.45640850067139,3.7503650188446,1.30945265293121,2.21918368339539,-3.73920226097107,-3.58167839050293,2.98210191726685
131,sampled_images/20181121_depthmap_0259_0486_01_004.png,6,0,0,-23027.46636,28700.717587,-1378.1044970989,0,1,23.0219505573057,153.51357656679,6.84118858771399E-05,-2.60229468345642,-1.16685009002686,-1.33623588085175,1.82999181747437,-1.03985476493835,-1.20234203338623,0.289214581251144,-6.1899561882019
132,sampled_images/20181121_depthmap_1441_0137_01_004.png,6,0,0,-30119.34636,26606.417587,-1267.9171065175,0,1,22.9579474611321,153.493023428679,0.000130850137793,-1.50581026077271,-2.90824770927429,1.0079939365387,0.826269745826721,2.59091567993164,0.104541175067425,-4.39894342422485,-3.94454908370972
133,sampled_images/20181121_depthmap_1660_0073_01_004.png,6,0,0,-31433.34636,26222.417587,-1243.71611377494,0,1,22.9460883863776,153.489256812015,6.31416696705855E-05,-1.0582172870636,0.114801630377769,-2.54895281791687,-0.368927717208862,1.80347967147827,3.44741082191467,-0.60634571313858,-6.25541734695435
134,sampled_images/20181121_depthmap_1714_0057_01_004.png,6,0,0,-31757.32636,26126.337587,-1242.53499556453,0,1,22.9431644160108,153.488314558372,6.06375760980882E-05,-3.33263373374939,-0.332309633493423,-2.30906367301941,2.01779437065125,-2.66733884811401,-1.67098295688629,1.15712881088257,-5.16269874572754
135,sampled_images/20181121_depthmap_1104_0235_01_004.png,6,0,0,-28097.44636,27194.357587,-1292.26826998548,0,1,22.9761952812238,153.498791941343,3.3217638701899E-05,-1.99835336208344,0.47218844294548,-3.08519697189331,0.682558476924896,-0.505323469638824,1.69872319698334,0.24252924323082,-6.3962345123291
136,sampled_images/20181121_depthmap_0819_0320_01_004.png,6,0,0,-26387.46636,27704.477587,-1299.59288990168,0,1,22.9916275745544,153.503797410143,0.000187841680599,-3.35108208656311,1.12711024284363,-0.303939074277878,0.528098165988922,-2.00769591331482,-3.4521152973175,2.48415350914001,-4.65799856185913
137,sampled_images/20181121_depthmap_1702_0061_01_004.png,6,0,0,-31685.48636,26150.497587,-1242.62651658191,0,1,22.9438127391776,153.488551328065,4.47934726253152E-05,-1.2094304561615,-0.61701500415802,-2.10621500015259,0.191056802868843,0.827421426773071,2.04804611206055,-0.352773129940033,-6.69554662704468
138,sampled_images/20181121_depthmap_1075_0243_01_004.png,6,0,0,-27923.30636,27242.637587,-1293.5090872984,0,1,22.9777669356712,153.49926584859,5.26683870702982E-05,-3.17607736587524,0.784342765808106,-2.71936941146851,1.95716142654419,-1.1651816368103,-1.61451292037964,-1.64718043804169,-4.91351318359375
139,sampled_images/20181121_depthmap_0441_0432_01_004.png,6,0,0,-24119.32636,28376.597587,-1359.78548697329,0,1,23.0120969415232,153.510394520257,0.001057876390405,-3.24264454841614,1.4518061876297,-2.22890853881836,2.01664233207703,1.62327039241791,-0.030113231390715,4.1435604095459,0.417091906070709
140,sampled_images/20181121_depthmap_1587_0095_01_004.png,6,0,0,-30995.42636,26354.417587,-1246.80768267265,0,1,22.9500406383177,153.490551276556,4.39157156506553E-05,-2.5773434638977,1.55665695667267,-3.67593574523926,0.798214256763458,-0.700853586196899,1.4508935213089,-0.396548628807068,-5.47116231918335
141,sampled_images/20181121_depthmap_1178_0213_01_004.png,6,0,0,-28541.28636,27062.517587,-1290.25458469031,0,1,22.9721896552298,153.497498437442,3.55793781636748E-05,-1.74223136901855,0.378846764564514,-2.83616781234741,0.345379322767258,1.05227661132813,2.82933974266052,-0.968598067760468,-5.76983880996704
142,sampled_images/20181121_depthmap_0390_0448_01_004.png,6,0,0,-23813.34636,28472.377587,-1373.22380489637,0,1,23.0148582165673,153.511334482785,4.11564724345226E-05,-2.26136994361877,2.16044330596924,-3.47160315513611,0.955055117607117,-0.759444415569305,0.666957080364227,-0.916762471199035,-4.78707647323608
143,sampled_images/20181121_depthmap_0039_0552_01_004.png,6,0,0,-21707.44636,29096.357587,-1397.47881720825,0,1,23.0338630549447,153.517461156085,0.006278974935412,-5.27872610092163,1.72606587409973,3.66290330886841,-2.88997673988342,4.97548770904541,2.23841381072998,-1.52913081645966,1.78126466274261
144,sampled_images/20181121_depthmap_0492_0418_01_004.png,6,0,0,-24425.34636,28292.357587,-1346.28950946371,0,1,23.0093351022226,153.509567162882,3.17780941259116E-05,-2.52692914009094,0.415165036916733,-2.57232785224915,0.49065962433815,0.848722338676453,2.28922200202942,-0.606116890907288,-5.68028926849365
145,sampled_images/20181121_depthmap_0614_0381_01_004.png,6,0,0,-25157.40636,28070.417587,-1329.29232358385,0,1,23.0027285613815,153.507388909721,0.000140182310133,-5.07018804550171,-1.33775126934052,3.00967764854431,1.72062647342682,-0.820811033248901,-1.06622183322907,-3.13599324226379,-2.1099100112915
146,sampled_images/20181121_depthmap_1670_0070_01_004.png,6,0,0,-31493.56636,26204.337587,-1243.39298924674,0,1,22.9455448954253,153.489079511501,2.42423593590502E-05,-2.68508505821228,-0.558749973773956,-2.52046537399292,0.891451001167297,0.266661465167999,2.00760746002197,-0.080143578350544,-5.78405904769897
147,sampled_images/20181121_depthmap_0555_0399_01_004.png,6,0,0,-24803.64636,28178.677587,-1337.47997545829,0,1,23.0059210876782,153.508451350897,6.75837436574511E-05,0.035453613847494,-2.36067867279053,-0.716179132461548,0.429340928792954,2.52822923660278,1.49867522716522,-1.30516862869263,-6.18634557723999
148,sampled_images/20181121_depthmap_1102_0235_01_004.png,6,0,0,-28085.54636,27194.437587,-1292.27097583911,0,1,22.9763027341065,153.498792931198,5.50245968042873E-05,-2.33491492271423,-0.7322838306427,-1.81610572338104,1.45156383514404,0.377760410308838,0.694064438343048,-1.27504134178162,-5.78561115264893
149,sampled_images/20181121_depthmap_0350_0459_01_004.png,6,0,0,-23573.40636,28538.577587,-1376.0761139728,0,1,23.0170236705821,153.51198470421,5.73153774894308E-05,-2.35711908340454,-0.433104783296585,-2.62434220314026,0.73011839389801,0.564530074596405,2.04681277275085,-0.590000569820404,-5.98037385940552
150,sampled_images/20181121_depthmap_1800_0033_01_004.png,6,0,0,-32273.58636,25982.337587,-1241.52170227699,0,1,22.9385049323075,153.486901916,4.77761823276524E-05,-1.76779568195343,0.896828055381775,-3.3476927280426,0.203263655304909,1.50595223903656,3.61194133758545,-0.840036451816559,-5.76896619796753
151,sampled_images/20181121_depthmap_1448_0135_01_004.png,6,0,0,-30161.50636,26594.577587,-1268.2223802309,0,1,22.9575669540143,153.492907253054,0.000210635233088,1.53546035289764,-4.85881090164185,1.00329720973969,-1.88309669494629,-0.994370579719543,-3.84117722511292,-2.39659357070923,-1.48664140701294
152,sampled_images/20181121_depthmap_1807_0031_01_004.png,6,0,0,-32315.54636,25970.717587,-1241.53539985524,0,1,22.9381262220133,153.486787922843,5.5731270549586E-05,-1.83108520507813,0.339927792549133,-2.39559412002563,-0.125394389033318,1.27479231357574,2.80724263191223,-0.498742610216141,-6.2229528427124
153,sampled_images/20181121_depthmap_1464_0130_01_004.png,6,0,0,-30257.56636,26564.517587,-1268.52762414524,0,1,22.9567000313088,153.492612492127,3.22747982863802E-05,-1.0428010225296,2.49545907974243,-3.56880950927734,0.111410103738308,1.25540387630463,2.4449999332428,-1.51733887195587,-5.7301287651062
154,sampled_images/20181121_depthmap_1265_0188_01_004.png,6,0,0,-29063.32636,26912.577587,-1283.1599514697,0,1,22.9674781797544,153.496027144592,2.88624305539997E-05,-2.31243658065796,-0.637648344039917,-2.50419807434082,1.27172374725342,-0.306042224168777,1.1910617351532,-0.017962055280805,-6.12693691253662
155,sampled_images/20181121_depthmap_0485_0419_01_004.png,6,0,0,-24383.28636,28298.457587,-1346.87493084996,0,1,23.0097147884299,153.509627438034,7.97841785242781E-05,-1.86343288421631,-2.20686364173889,-0.930239140987396,1.07806921005249,0.322124004364014,1.10432934761047,0.045496147125959,-6.51740121841431
156,sampled_images/20181121_depthmap_0705_0353_01_004.png,6,0,0,-25703.30636,27902.717587,-1316.19841829387,0,1,22.9978020505146,153.505743274755,0.000211792474147,-2.98526549339294,-0.559337735176086,0.675935864448547,-0.59889018535614,-2.55415868759155,-5.43732833862305,3.0423572063446,-0.595381498336792
157,sampled_images/20181121_depthmap_1238_0196_01_004.png,6,0,0,-28901.56636,26960.497587,-1285.57032847824,0,1,22.9689380619962,153.496497261712,5.30754405190237E-05,-1.62635576725006,1.03514075279236,-3.04703998565674,1.49051094055176,-1.82590675354004,-2.40940856933594,-1.66219782829285,-5.20260381698608
158,sampled_images/20181121_depthmap_1316_0173_01_004.png,6,0,0,-29369.54636,26822.397587,-1277.43061492783,0,1,22.9647145341706,153.495142433967,2.90488878817996E-05,-3.44570875167847,-0.504596948623657,-2.46009874343872,1.31561684608459,-0.29370105266571,1.03445875644684,0.656190156936646,-5.56401777267456
159,sampled_images/20181121_depthmap_1171_0215_01_004.png,6,0,0,-28499.40636,27074.717587,-1290.52047214776,0,1,22.9725676238672,153.497618144579,2.99804014503025E-05,-0.689710199832916,-0.703772366046906,-2.32993698120117,0.084233783185482,1.90003645420074,3.2567572593689,-0.77192085981369,-6.35727214813232
160,sampled_images/20181121_depthmap_1646_0077_01_004.png,6,0,0,-31349.34636,26246.677587,-1244.32396373346,0,1,22.9468465086566,153.489494772875,3.20716098940466E-05,-1.26390159130096,0.448919981718063,-2.99893927574158,-0.483304709196091,1.43800437450409,3.53417658805847,-0.268605262041092,-6.29952526092529
161,sampled_images/20181121_depthmap_1572_0099_01_004.png,6,0,0,-30905.48636,26378.457587,-1247.59279567513,0,1,22.9508523986301,153.490787208061,2.16063308471348E-05,-1.88293480873108,-0.935558378696442,-2.14362049102783,0.238830998539925,1.99932992458344,2.20903062820435,-0.758997321128845,-5.54818439483643
162,sampled_images/20181121_depthmap_1873_0003_01_004.png,6,0,0,-32711.66636,25802.377587,-1241.93056046513,0,1,22.9345519397726,153.485140097691,4.01385186705738E-05,-1.88210606575012,1.15811669826508,-3.40477895736694,0.645662426948547,-1.117351770401,1.25133502483368,0.365403264760971,-5.98078584671021
163,sampled_images/20181121_depthmap_1156_0219_01_004.png,6,0,0,-28409.32636,27098.597587,-1290.67122891736,0,1,22.9733806373829,153.497852600828,7.19421659596264E-05,-3.64925360679626,-2.73303008079529,-1.24581801891327,1.18660163879395,1.48637878894806,1.51794576644897,-0.342779576778412,-5.71231412887573
164,sampled_images/20181121_depthmap_1454_0132_01_004.png,6,0,0,-30197.40636,26576.717587,-1268.2757350699,0,1,22.9572430691802,153.492732486076,2.16725329664769E-05,-2.07247447967529,-1.63086771965027,-2.3058807849884,0.661497354507446,2.83176112174988,2.66358375549316,-2.08640742301941,-5.07969617843628
165,sampled_images/20181121_depthmap_1079_0242_01_004.png,6,0,0,-27947.36636,27236.417587,-1293.27652411948,0,1,22.9775497812594,153.49920476495,6.82238969602622E-05,-4.43399286270142,-1.66605257987976,-0.338462382555008,1.98063027858734,1.29656577110291,0.813231706619263,-3.38531041145325,-4.15932750701904
166,sampled_images/20181121_depthmap_0832_0315_01_004.png,6,0,0,-26465.60636,27674.677587,-1297.85066019435,0,1,22.9909224858451,153.503505361153,0.001951524871401,-0.577677845954895,1.68615770339966,-1.02239584922791,-2.2968955039978,4.52675580978394,-5.22538232803345,-2.09261465072632,0.967873990535736
167,sampled_images/20181121_depthmap_1719_0056_01_004.png,6,0,0,-31787.56636,26120.477587,-1242.59091016017,0,1,22.9428914462798,153.488256913816,2.08946385100717E-05,-1.87670350074768,0.541072487831116,-3.06284308433533,0.233287289738655,0.753057837486267,2.87247085571289,-0.206097826361656,-6.03575611114502
168,sampled_images/20181121_depthmap_0002_0563_01_004.png,6,0,0,-21485.44636,29162.697587,-1406.53195334522,0,1,23.0358664817889,153.518112595512,0.000429865467595,-1.86204087734222,-2.12570810317993,0.047564845532179,-4.86545515060425,0.298495411872864,-3.55332803726196,2.48166728019714,-2.37287998199463
169,sampled_images/20181121_depthmap_0192_0507_01_004.png,6,0,0,-22625.44636,28826.437587,-1373.99704406339,0,1,23.0255785019679,153.514810546232,0.000135719805257,0.554911911487579,-3.28686904907227,3.14188289642334,0.33588644862175,0.357000350952148,-3.15660786628723,-2.97960519790649,-3.17327308654785
170,sampled_images/20181121_depthmap_0470_0424_01_004.png,6,0,0,-24293.60636,28328.637587,-1348.55436466715,0,1,23.0105240599418,153.509923479199,3.46812703355681E-05,-2.85119557380676,-0.710925579071045,-2.15135264396667,0.927678227424622,-0.151951462030411,1.28109073638916,0.745958507061005,-6.18554639816284
171,sampled_images/20181121_depthmap_1637_0079_01_004.png,6,0,0,-31295.60636,26258.377587,-1244.57303725357,0,1,22.9473315862812,153.489609761206,2.26244574150769E-05,-1.84309542179108,0.545554995536804,-3.26380681991577,1.18873167037964,-0.432375699281693,1.43447601795197,-0.282297402620316,-6.15495872497559
172,sampled_images/20181121_depthmap_0074_0542_01_004.png,6,0,0,-21917.54636,29036.537587,-1382.85294961332,0,1,23.0319669641153,153.516873570747,0.001315503031947,-4.37752294540405,3.33810424804687,-1.71857511997223,3.20540833473206,2.57676339149475,-3.11759185791016,1.3702894449234,1.04688322544098
173,sampled_images/20181121_depthmap_0218_0499_01_004.png,6,0,0,-22781.50636,28778.417587,-1372.87112246184,0,1,23.0241701592907,153.514339160816,6.49835274089128E-05,-1.51220440864563,1.09032464027405,-2.10206890106201,0.415712803602219,-0.609482824802399,1.50811171531677,0.28028815984726,-6.45571088790894
174,sampled_images/20181121_depthmap_0866_0306_01_004.png,6,0,0,-26669.50636,27620.377587,-1294.30139396579,0,1,22.9890822221718,153.502972110907,0.008704376406968,-4.26810741424561,3.63404893875122,0.986504852771759,-1.27654647827148,6.94365406036377,3.25540971755981,-0.509032011032105,1.90698087215424
175,sampled_images/20181121_depthmap_1424_0141_01_004.png,6,0,0,-30017.60636,26630.477587,-1268.18486749658,0,1,22.9588657678737,153.493259787539,6.44710089545697E-05,-3.42733716964722,-1.07764935493469,-0.672757565975189,2.17354154586792,-1.69751060009003,-1.94380724430084,1.28049993515015,-5.85419750213623
176,sampled_images/20181121_depthmap_1405_0147_01_004.png,6,0,0,-29903.38636,26666.577587,-1269.98536927998,0,1,22.9598965734324,153.493613766719,9.7280579211656E-05,-0.847794651985168,0.236292079091072,0.404139965772629,0.865697503089905,-2.04750752449036,-2.19701600074768,1.62487709522247,-6.93917369842529
177,sampled_images/20181121_depthmap_0147_0520_01_004.png,6,0,0,-22355.54636,28904.617587,-1384.57879043233,0,1,23.0280142590743,153.515578313939,0.000149091792991,-0.889047265052795,-2.43654322624207,-0.552380561828613,0.132291063666344,5.06180572509766,1.62267971038818,-4.06613254547119,-3.17650842666626
178,sampled_images/20181121_depthmap_0299_0474_01_004.png,6,0,0,-23267.38636,28628.597587,-1381.62523473821,0,1,23.0197853941557,153.512868544741,3.33518146362621E-05,-1.62963831424713,0.322451740503311,-2.89533853530884,-0.130663022398949,1.61326515674591,3.42047953605652,-0.755290031433106,-6.00094747543335
179,sampled_images/20181121_depthmap_1502_0119_01_004.png,6,0,0,-30485.44636,26498.417587,-1261.92765249178,0,1,22.9546433734496,153.49196405974,0.001181928208098,-2.92704701423645,-1.47934472560883,-1.8790031671524,-1.39788663387299,7.51630163192749,-2.34921932220459,-0.618743300437927,-2.04719281196594
180,sampled_images/20181121_depthmap_0650_0369_01_004.png,6,0,0,-25373.42636,27998.597587,-1327.52491728243,0,1,23.0007791688818,153.506684450225,8.94429249456152E-05,-3.52466535568237,-1.8098635673523,-0.413293421268463,1.52924382686615,-0.164231657981873,-0.397391527891159,0.403649032115936,-6.09334468841553
181,sampled_images/20181121_depthmap_1429_0140_01_004.png,6,0,0,-30047.58636,26624.677587,-1267.91977443072,0,1,22.958595147417,153.493202715629,3.97106559830718E-05,-2.0096869468689,0.459560602903366,-2.73453402519226,0.816242754459381,-1.51251614093781,0.487364441156387,0.803667306900024,-6.25467920303345
182,sampled_images/20181121_depthmap_0685_0359_01_004.png,6,0,0,-25583.48636,27938.657587,-1317.56405836332,0,1,22.9988833904762,153.506095993916,0.000123232748592,-2.05215406417847,-1.12557232379913,2.31025815010071,2.06128787994385,-1.14195823669434,-3.27014923095703,0.226144209504127,-5.44594144821167
183,sampled_images/20181121_depthmap_0317_0469_01_004.png,6,0,0,-23375.30636,28598.537587,-1379.1201408108,0,1,23.0188114255883,153.512573297052,0.000211873979424,-3.29767680168152,-3.03330516815186,3.27315449714661,1.44882190227509,0.383291631937027,2.07581734657288,-2.95974969863892,-1.39618790149689
184,sampled_images/20181121_depthmap_0031_0555_01_004.png,6,0,0,-21659.66636,29114.537587,-1401.50327412604,0,1,23.0342941748807,153.517639429304,0.000206390337553,-3.68420433998108,-2.56549572944641,0.53986531496048,-2.03337979316711,-2.65654635429382,-4.60079002380371,1.21962380409241,-0.303861081600189
185,sampled_images/20181121_depthmap_0138_0522_01_004.png,6,0,0,-22301.48636,28916.337587,-1385.14822304012,0,1,23.0285022004137,153.515693668309,6.60069345030934E-05,-2.34167337417603,-0.789101779460907,-1.7879890203476,0.445836812257767,0.483962953090668,1.85925078392029,0.206387683749199,-6.36608600616455
186,sampled_images/20181121_depthmap_0131_0525_01_004.png,6,0,0,-22259.58636,28934.397587,-1385.8639985034,0,1,23.0288802302656,153.515870647408,3.09094684780575E-05,-0.756269097328186,-0.807962417602539,-1.87211632728577,0.51884138584137,0.549879312515259,1.87419855594635,-0.457165718078613,-6.76794242858887
187,sampled_images/20181121_depthmap_1804_0031_01_004.png,6,0,0,-32297.54636,25970.657587,-1241.18866110001,0,1,22.9382887596269,153.48678764013,0.000185159777175,-3.33036780357361,-2.05216288566589,4.2556586265564,2.43423795700073,-0.041132934391499,-4.20710563659668,0.132483407855034,-1.40024828910828
188,sampled_images/20181121_depthmap_1509_0117_01_004.png,6,0,0,-30527.66636,26486.557587,-1259.4491666257,0,1,22.9542623238746,153.49184769395,0.000186035846127,-2.66463971138,-0.70224404335022,3.27258515357971,1.12461829185486,-0.707615256309509,-6.28237867355347,2.13449358940125,-1.83324420452118
189,sampled_images/20181121_depthmap_0648_0370_01_004.png,6,0,0,-25361.60636,28004.337587,-1327.5233475931,0,1,23.0008858037445,153.506740652369,4.42100827058312E-05,-1.95810723304749,1.44378006458282,-3.86914610862732,0.139884129166603,0.817760407924652,3.30924129486084,-0.378513991832733,-5.98795795440674
190,sampled_images/20181121_depthmap_1466_0129_01_004.png,6,0,0,-30269.28636,26558.637587,-1268.54438053608,0,1,22.9565942957765,153.49255495628,3.54596122633666E-05,-1.17689621448517,-1.1678626537323,-1.71836411952972,0.052635811269283,1.79477632045746,2.72523546218872,-0.440021693706512,-6.26045894622803
191,sampled_images/20181121_depthmap_1869_0003_01_004.png,6,0,0,-32687.38636,25802.677587,-1241.3367854728,0,1,22.9347711791858,153.485143427428,8.16907559055835E-05,-5.3767409324646,-1.09586656093597,-2.27330183982849,1.02091145515442,2.23386931419373,2.86434316635132,-1.14325594902039,-4.48810768127441
192,sampled_images/20181121_depthmap_1177_0214_01_004.png,6,0,0,-28535.62636,27068.717587,-1290.27888983604,0,1,22.9722406630677,153.497558998175,2.60189008258749E-05,-1.49169564247131,1.193887591362,-3.48475384712219,0.540594100952148,-0.699652433395386,2.24789929389954,-0.231523081660271,-6.22845268249512
193,sampled_images/20181121_depthmap_1756_0045_01_004.png,6,0,0,-32009.50636,26054.557587,-1241.76355480794,0,1,22.9408884001292,153.48761047007,2.83577137452085E-05,-1.84113848209381,-0.213500693440437,-2.5672070980072,0.622958898544312,0.485036492347717,2.18246960639954,-0.463627934455872,-6.20852470397949
