,relative_path,altitude [m],roll [deg],pitch [deg],northing [m],easting [m],depth [m],heading [deg],timestamp [s],latitude [deg],longitude [deg],recon_loss,latent_0,latent_1,latent_2,latent_3,latent_4,latent_5,latent_6,latent_7
0,sampled_images/20181121_depthmap_1783_0037_01_004.png,6,0,0,-32171.46636,26006.537587,-1241.00949829459,0,1,22.9394266802431,153.487139569821,0.000127960200189,2.32401752471924,2.02131795883179,-0.141148179769516,-1.37453603744507,-3.19739723205566,3.14919090270996,1.76993131637573,-1.3221732378006
1,sampled_images/20181121_depthmap_0895_0298_01_004.png,6,0,0,-26843.50636,27572.377587,-1295.61440690983,0,1,22.9875118413552,153.502500853325,0.001741687417962,0.826145470142365,2.80215072631836,3.67831349372864,1.74886476993561,-4.40751075744629,-2.14179825782776,-1.98690283298492,-2.18109536170959
2,sampled_images/20181121_depthmap_1820_0027_01_004.png,6,0,0,-32393.30636,25946.397587,-1241.56948312119,0,1,22.9374244415595,153.486549512482,3.88913649658207E-05,-3.47948718070984,-2.14357423782349,0.840875387191772,-3.72139406204224,3.67604517936707,3.48959589004517,4.31902170181274,-3.74290800094604
3,sampled_images/20181121_depthmap_1844_0020_01_004.png,6,0,0,-32537.32636,25904.717587,-1241.53613334789,0,1,22.936124614294,153.486140746742,1.47619157360168E-05,-2.48316884040833,-1.65511763095856,-1.72994422912598,4.24999856948853,7.03618431091309,2.64468622207642,4.91012096405029,-3.06927418708801
4,sampled_images/20181121_depthmap_1065_0246_01_004.png,6,0,0,-27863.60636,27260.697587,-1293.87645085976,0,1,22.9783057171179,153.499443028856,2.95658464892767E-05,-2.20939707756042,-2.0026490688324,1.52247798442841,-1.30243217945099,4.42267274856567,3.74746513366699,5.43594408035278,-4.57565450668335
5,sampled_images/20181121_depthmap_1629_0082_01_004.png,6,0,0,-31247.38636,26276.417587,-1244.90818527723,0,1,22.9477667194779,153.489786472246,2.78672523563728E-05,-3.32160878181458,-1.27610468864441,0.934203922748566,-0.002856833860278,4.32476282119751,4.54071569442749,4.50216007232666,-5.59017944335938
6,sampled_images/20181121_depthmap_0882_0301_01_004.png,6,0,0,-26765.28636,27590.357587,-1296.82413457363,0,1,22.9882178505273,153.502677610579,4.70600389235187E-05,0.974864959716797,-1.7036520242691,-0.795292854309082,-4.1122317314148,2.87296342849731,0.801811754703522,5.70314073562622,-3.29102373123169
7,sampled_images/20181121_depthmap_1392_0151_01_004.png,6,0,0,-29825.54636,26690.717587,-1271.14688336112,0,1,22.9605990658603,153.493850500195,0.000200219932594,1.73057413101196,2.99190068244934,0.837393403053284,0.145059272646904,-1.19302678108215,1.62792587280273,6.10401678085327,1.61012041568756
8,sampled_images/20181121_depthmap_0667_0364_01_004.png,6,0,0,-25475.46636,27968.637587,-1322.5028612894,0,1,22.9998582787568,153.506390371777,4.42663003923371E-05,-2.99176073074341,-3.17018842697144,1.8824907541275,-0.506968796253204,2.12944531440735,5.1238317489624,2.63402581214905,-5.88856792449951
9,sampled_images/20181121_depthmap_0055_0548_01_004.png,6,0,0,-21803.66636,29072.357587,-1388.02730470388,0,1,23.0329946386452,153.517225187329,0.000244945375016,0.867538094520569,1.87802147865295,-2.81239867210388,3.45457768440247,0.014183390885592,-2.44513535499573,2.51621031761169,1.90510451793671
10,sampled_images/20181121_depthmap_1722_0056_01_004.png,6,0,0,-31805.38636,26120.377587,-1242.60932899331,0,1,22.9427305366424,153.488255637808,3.39123798767105E-05,-4.8485894203186,-1.0154105424881,0.205170810222626,0.513418018817902,2.33233785629272,4.10335206985474,4.70740509033203,-4.11489152908325
11,sampled_images/20181121_depthmap_0414_0440_01_004.png,6,0,0,-23957.36636,28424.557587,-1370.87166520089,0,1,23.013558575232,153.510865345052,0.000330608745571,-4.83288335800171,5.49931621551514,3.16329908370972,0.488796025514603,0.879370391368866,0.552629888057709,1.36970055103302,-4.04718208312988
12,sampled_images/20181121_depthmap_0201_0504_01_004.png,6,0,0,-22679.48636,28808.557587,-1373.44828635208,0,1,23.025090847073,153.514635103279,1.32725217554253E-05,-4.5355978012085,0.257667571306229,-1.19794523715973,0.598843514919281,6.6244421005249,3.83919525146484,3.7237012386322,-4.22969150543213
13,sampled_images/20181121_depthmap_0019_0558_01_004.png,6,0,0,-21587.44636,29132.717587,-1399.38152536404,0,1,23.0349459800206,153.517818166521,0.002606682479382,2.92690992355347,2.17634415626526,0.997663736343384,-3.33124399185181,-4.04002475738525,-4.61930513381958,0.264452815055847,-2.10413026809692
14,sampled_images/20181121_depthmap_1522_0113_01_004.png,6,0,0,-30605.40636,26462.397587,-1252.95296613969,0,1,22.9535607309984,153.491610788862,0.002476120833308,-0.126699730753899,2.14402556419373,6.16092395782471,-1.92319142818451,-5.21148538589478,0.219981104135513,-1.24362897872925,1.86198687553406
15,sampled_images/20181121_depthmap_1200_0207_01_004.png,6,0,0,-28673.54636,27026.377587,-1288.48009668062,0,1,22.9709959640906,153.497143690008,1.77983783942182E-05,-3.30726003646851,-0.552386403083801,-1.0778021812439,3.72182059288025,5.07012939453125,3.24408078193665,5.5122389793396,-3.88041830062866
16,sampled_images/20181121_depthmap_0554_0399_01_004.png,6,0,0,-24797.28636,28178.457587,-1337.55837100111,0,1,23.0059785204388,153.508449321273,7.81284834374674E-05,1.08633375167847,0.165937006473541,-3.01497030258179,0.09602265059948,-0.707461178302765,-0.462486743927002,6.65296649932861,-2.65728259086609
17,sampled_images/20181121_depthmap_1376_0155_01_004.png,6,0,0,-29729.28636,26714.677587,-1272.17106429099,0,1,22.9614678893549,153.494085799538,1.18383886729134E-05,-6.68006420135498,-2.31171798706055,-1.16399276256561,0.466718226671219,4.31259965896606,3.60423731803894,3.94320368766785,-1.42724883556366
18,sampled_images/20181121_depthmap_1842_0021_01_004.png,6,0,0,-32525.44636,25910.377587,-1241.36825269831,0,1,22.9362318007316,153.486196126648,0.000520220259205,0.583940982818604,-3.88942432403564,1.24624288082123,1.73493206501007,3.67266917228699,-0.144006416201592,-2.95819234848022,-1.6905745267868
19,sampled_images/20181121_depthmap_1791_0035_01_004.png,6,0,0,-32219.62636,25994.537587,-1241.37731276206,0,1,22.9389919912422,153.487021766192,8.67506460053846E-05,-0.208112925291061,-4.09686231613159,-3.85372686386108,-3.4085590839386,0.502522885799408,2.00472283363342,-1.43038690090179,0.956549525260925
20,sampled_images/20181121_depthmap_1093_0238_01_004.png,6,0,0,-28031.36636,27212.697587,-1292.72892954923,0,1,22.97679166866,153.498971960727,6.32648152532056E-05,-2.11738419532776,0.356558471918106,-0.607020378112793,1.91898834705353,-0.084916114807129,2.17651677131653,7.59462356567383,-4.59144163131714
21,sampled_images/20181121_depthmap_0585_0389_01_004.png,6,0,0,-24983.42636,28118.377587,-1333.71047012011,0,1,23.0042987436776,153.507859887932,6.1445971368812E-05,0.648364841938019,-2.13705968856812,-1.58697712421417,2.07423448562622,4.83127737045288,0.480338394641876,5.5378475189209,-4.58152770996094
22,sampled_images/20181121_depthmap_1866_0006_01_004.png,6,0,0,-32669.32636,25820.597587,-1241.33338163492,0,1,22.9349339807963,153.48531843419,5.70252741454169E-05,-3.43464732170105,-4.25969314575195,-4.34233999252319,1.93129146099091,1.77830958366394,3.00024080276489,-0.870755434036255,-0.61679619550705
23,sampled_images/20181121_depthmap_0144_0521_01_004.png,6,0,0,-22337.28636,28910.597587,-1384.62254795237,0,1,23.0281790372762,153.515636996961,5.37070736754686E-05,-2.09780979156494,0.042243905365467,-2.97945761680603,-0.75862729549408,3.01318120956421,0.907497942447662,6.01528692245483,-3.26854419708252
24,sampled_images/20181121_depthmap_1185_0211_01_004.png,6,0,0,-28583.54636,27050.437587,-1289.80949797384,0,1,22.9718082532183,153.497379894541,4.1209212213289E-05,-2.66956758499145,-0.624687790870667,-1.2841637134552,4.14724922180176,3.17998170852661,1.70262515544891,6.54458427429199,-2.97464179992676
25,sampled_images/20181121_depthmap_0100_0533_01_004.png,6,0,0,-22073.36636,28982.597587,-1378.88325009827,0,1,23.0305608994956,153.516344389802,0.003650476690382,2.16756439208984,1.6564404964447,3.56958484649658,0.369048655033112,0.10135954618454,-2.85720992088318,-3.7863495349884,2.56411957740784
26,sampled_images/20181121_depthmap_0145_0520_01_004.png,6,0,0,-22343.34636,28904.677587,-1384.56677210322,0,1,23.0281244202729,153.515579128441,8.90775481821038E-06,-5.79557418823242,0.16985459625721,-2.37043237686157,4.19070529937744,6.68105411529541,3.59233903884888,3.82571983337402,-1.47586405277252
27,sampled_images/20181121_depthmap_1177_0213_01_004.png,6,0,0,-28535.46636,27062.617587,-1290.2517909055,0,1,22.9722422068634,153.497499514658,1.47124101204099E-05,-3.52148938179016,0.192426741123199,-1.27227663993835,3.42322683334351,6.8057975769043,3.4502968788147,3.79901909828186,-4.45317363739014
28,sampled_images/20181121_depthmap_1810_0030_01_004.png,6,0,0,-32333.30636,25964.617587,-1241.54007081135,0,1,22.937965947343,153.486728153234,2.48184769588988E-05,-4.64918231964111,-1.22466850280762,-0.769535839557648,3.38335204124451,3.46371006965637,4.03754138946533,4.00494575500488,-3.41659092903137
29,sampled_images/20181121_depthmap_1199_0207_01_004.png,6,0,0,-28667.34636,27026.437587,-1288.54158516643,0,1,22.9710519476972,153.497144383655,5.30390134372283E-05,-4.44698524475098,-1.86662876605988,-1.44711589813232,3.91059422492981,-2.18787717819214,2.20276546478271,4.49767446517944,-2.24326157569885
30,sampled_images/20181121_depthmap_0155_0518_01_004.png,6,0,0,-22403.46636,28892.537587,-1384.26925564143,0,1,23.027581766181,153.515459563601,3.00206575047923E-05,-4.26906204223633,0.11568333953619,-0.172064989805222,0.781454384326935,6.8549542427063,4.04760599136353,5.62274980545044,-4.28434276580811
31,sampled_images/20181121_depthmap_1564_0101_01_004.png,6,0,0,-30857.64636,26390.557587,-1248.07148933466,0,1,22.9512841928687,153.490906003922,1.41767241075286E-05,-5.10732269287109,0.102748386561871,-1.31006741523743,3.12216067314148,6.58670330047607,3.85848307609558,4.89426326751709,-2.71071481704712
32,sampled_images/20181121_depthmap_1456_0132_01_004.png,6,0,0,-30209.60636,26576.397587,-1268.34116858328,0,1,22.9571329108424,153.492729155964,2.34237559197936E-05,-3.20042109489441,0.487205564975738,-0.169635638594627,0.449193030595779,6.13425493240356,3.63403534889221,5.55203151702881,-5.4794340133667
33,sampled_images/20181121_depthmap_0239_0493_01_004.png,6,0,0,-22907.30636,28742.677587,-1373.94435326256,0,1,23.0230348413672,153.513988147564,0.000440281204646,4.11246967315674,0.365871071815491,-1.89366471767426,-3.20010566711426,3.49532461166382,-1.52896738052368,-0.655577957630158,-2.2165002822876
34,sampled_images/20181121_depthmap_0578_0392_01_004.png,6,0,0,-24941.54636,28136.357587,-1334.75351961692,0,1,23.004676604721,153.508036032252,7.76160813984461E-05,2.38915348052979,-2.8939037322998,-1.6772552728653,4.85835075378418,-1.52733075618744,0.888017773628235,1.92844021320343,0.265228539705276
35,sampled_images/20181121_depthmap_0267_0484_01_004.png,6,0,0,-23075.46636,28688.337587,-1379.07527470831,0,1,23.0215173452628,153.513454900248,3.26754015986808E-05,-3.64603424072266,0.493203073740006,-1.54119646549225,2.795325756073,5.96805906295776,2.74392318725586,5.83190441131592,-4.32353115081787
36,sampled_images/20181121_depthmap_1645_0077_01_004.png,6,0,0,-31343.64636,26246.517587,-1244.33098592123,0,1,22.9468979810542,153.489493309645,2.76110076811165E-05,-4.25949907302856,-2.36661839485168,-0.81870424747467,2.10493230819702,6.50119829177856,3.41876935958862,4.49415588378906,-3.05454206466675
37,sampled_images/20181121_depthmap_1585_0095_01_004.png,6,0,0,-30983.38636,26354.597587,-1246.87526798187,0,1,22.9501493542601,153.490553236904,5.06676224176772E-05,-1.00213181972504,-0.215902850031853,-1.15864419937134,3.65946292877197,-1.49927806854248,2.02164745330811,3.70427536964416,-5.71163606643677
38,sampled_images/20181121_depthmap_1207_0204_01_004.png,6,0,0,-28715.56636,27008.517587,-1287.77315055458,0,1,22.9706168225247,153.49696878832,5.57535568077583E-05,0.612567067146301,-2.67146420478821,1.31844055652618,3.19319677352905,0.869876027107239,3.52845525741577,5.1227297782898,-4.9596152305603
39,sampled_images/20181121_depthmap_0918_0290_01_004.png,6,0,0,-26981.48636,27524.517587,-1290.34548119104,0,1,22.9862667080079,153.502031614969,0.000118665295304,-1.56938016414642,1.2275642156601,-1.31952571868896,-2.67392230033875,-2.07809638977051,1.31729137897491,6.89926910400391,-1.68772673606873
40,sampled_images/20181121_depthmap_1592_0093_01_004.png,6,0,0,-31025.44636,26342.697587,-1246.57454540873,0,1,22.9497697487631,153.490436491747,6.34363168501295E-05,4.11526107788086,-3.32594799995422,-2.82190895080566,0.585796594619751,1.76708292961121,-0.672334432601929,5.26936674118042,-0.695534884929657
41,sampled_images/20181121_depthmap_1745_0049_01_004.png,6,0,0,-31943.28636,26078.617587,-1242.09141586141,0,1,22.9414859786216,153.487846162603,1.54187000589445E-05,-4.2929310798645,0.568462491035461,-1.91046142578125,3.41797709465027,4.99072885513306,3.25327944755554,5.25664949417114,-3.64789915084839
42,sampled_images/20181121_depthmap_1763_0043_01_004.png,6,0,0,-32051.36636,26042.437587,-1241.61671393475,0,1,22.940510601273,153.487491599772,0.000438914634287,0.718693673610687,0.530371904373169,3.54172873497009,1.13744640350342,6.54868412017822,1.19922697544098,2.12487363815308,-2.43245768547058
43,sampled_images/20181121_depthmap_0071_0543_01_004.png,6,0,0,-21899.46636,29042.417587,-1383.45563172805,0,1,23.0321301181256,153.516931278093,0.001260250224732,-0.92038482427597,-2.48319149017334,4.51272916793823,0.645886063575745,-2.94880723953247,-2.58507013320923,1.61578822135925,-5.5367546081543
44,sampled_images/20181121_depthmap_0725_0347_01_004.png,6,0,0,-25823.44636,27866.377587,-1317.47677525186,0,1,22.9967178267451,153.505386654073,9.79632386588492E-05,3.55138063430786,-1.35588014125824,4.07812023162842,-0.670106709003449,-0.935564458370209,2.88253021240234,6.70619440078735,0.020694524049759
45,sampled_images/20181121_depthmap_1833_0023_01_004.png,6,0,0,-32471.54636,25922.477587,-1241.45831448191,0,1,22.9367183201422,153.486314996297,2.74715112027479E-05,-1.97692382335663,-1.17327034473419,0.604264676570892,1.94357454776764,5.30876636505127,3.508873462677,6.01546001434326,-5.27060699462891
46,sampled_images/20181121_depthmap_0782_0331_01_004.png,6,0,0,-26165.54636,27770.517587,-1307.97761519706,0,1,22.9936303548488,153.504445511095,8.973204967333E-05,2.55582737922668,0.771559298038483,-3.84750270843506,-1.1105660200119,0.421575129032135,0.163450330495834,2.20730447769165,-5.85458278656006
47,sampled_images/20181121_depthmap_0718_0349_01_004.png,6,0,0,-25781.56636,27878.337587,-1317.2826608456,0,1,22.9970957918613,153.50550406459,9.38111115829088E-05,2.94399881362915,-0.012117512524128,2.48343920707703,-2.19218850135803,-0.239653691649437,2.94828057289124,6.91224670410156,-3.43779730796814
48,sampled_images/20181121_depthmap_0005_0562_01_004.png,6,0,0,-21503.56636,29156.477587,-1405.98260729613,0,1,23.0357029730938,153.518051567171,0.00086503388593,-1.46762919425964,2.76643490791321,-2.31023097038269,1.13783431053162,1.43532085418701,-5.12665796279907,1.62403345108032,-2.40374183654785
49,sampled_images/20181121_depthmap_0504_0413_01_004.png,6,0,0,-24497.48636,28262.517587,-1344.61000351304,0,1,23.0086842053744,153.509274764806,0.000183259922778,0.583790063858032,1.20870292186737,1.94466245174408,-4.93827629089356,1.05674850940704,3.42831420898437,0.114673100411892,0.993988931179047
50,sampled_images/20181121_depthmap_1652_0075_01_004.png,6,0,0,-31385.64636,26234.477587,-1244.05510231733,0,1,22.9465189185586,153.489375206338,2.85721398540772E-05,-3.83203530311584,-1.13337016105652,-0.031941842287779,2.59499621391296,5.66604328155518,4.55888748168945,4.18931150436401,-5.50504875183106
51,sampled_images/20181121_depthmap_1390_0151_01_004.png,6,0,0,-29813.30636,26690.417587,-1271.25326758222,0,1,22.9607095952293,153.493847786381,5.15597057528794E-05,-3.69241881370544,-1.61186373233795,2.07678866386414,-1.56532776355743,2.53651022911072,4.37662267684937,5.3306827545166,-4.74770450592041
52,sampled_images/20181121_depthmap_0970_0274_01_004.png,6,0,0,-27293.58636,27428.417587,-1298.37181663442,0,1,22.9834501072747,153.50108881583,1.16726223495789E-05,-5.61320686340332,-1.63612389564514,-0.757981300354004,2.11716103553772,6.63589191436768,3.76637721061707,4.66550827026367,-2.39471054077148
53,sampled_images/20181121_depthmap_1379_0154_01_004.png,6,0,0,-29747.30636,26708.577587,-1272.02372475339,0,1,22.9613052703323,153.494026006323,1.44772329804255E-05,-4.6171145439148,-1.06323957443237,-1.31026744842529,3.56237506866455,4.78375482559204,2.61476421356201,5.40105772018433,-2.08887267112732
54,sampled_images/20181121_depthmap_1457_0132_01_004.png,6,0,0,-30215.50636,26576.617587,-1268.38885607611,0,1,22.9570796315777,153.492731199645,5.64654073968995E-05,-0.977211892604828,0.691805124282837,-0.211011037230492,1.22273850440979,0.359844118356705,2.60958051681519,6.62763643264771,-5.89738655090332
55,sampled_images/20181121_depthmap_1574_0098_01_004.png,6,0,0,-30917.34636,26372.517587,-1247.36867436563,0,1,22.950745399099,153.490729088738,2.19906432903372E-05,-3.51471972465515,-0.181765601038933,0.135092601180077,3.06059074401855,4.46019506454468,3.90795350074768,5.91897821426392,-4.39170837402344
56,sampled_images/20181121_depthmap_1827_0025_01_004.png,6,0,0,-32435.58636,25934.397587,-1241.10013747379,0,1,22.9370428473038,153.486431811123,0.000145607322338,3.98983073234558,1.6953889131546,-0.189493387937546,2.01064467430115,-1.27800714969635,3.09067821502686,-0.302485018968582,-2.67500495910645
57,sampled_images/20181121_depthmap_1368_0157_01_004.png,6,0,0,-29681.50636,26726.337587,-1272.50577510572,0,1,22.9618991456286,153.494200323944,4.04310922021978E-05,-2.88018989562988,-0.798632979393005,0.461576014757156,0.358410149812698,3.71218228340149,3.52876687049866,6.72993516921997,-5.00169706344605
58,sampled_images/20181121_depthmap_0265_0485_01_004.png,6,0,0,-23063.46636,28694.637587,-1378.84082691243,0,1,23.021625592992,153.513516582837,0.000128032814246,-3.60536050796509,-2.91712546348572,3.36043286323547,1.02789604663849,-3.05456614494324,5.0941801071167,-0.505717992782593,0.418369263410568
59,sampled_images/20181121_depthmap_0115_0529_01_004.png,6,0,0,-22163.36636,28958.577587,-1385.82022633843,0,1,23.0297486460583,153.516108356116,4.89932208438404E-05,-2.77175235748291,-3.34837865829468,1.52690827846527,-0.110413618385792,3.16453742980957,2.68504548072815,7.9282660484314,-1.49361968040466
60,sampled_images/20181121_depthmap_0449_0430_01_004.png,6,0,0,-24167.40636,28364.497587,-1353.49413223413,0,1,23.0116629991601,153.510275602884,0.002868321491405,3.22375273704529,3.83471870422363,4.73698854446411,1.46246564388275,-1.50468945503235,-3.19160008430481,-1.22491860389709,-2.154221534729
61,sampled_images/20181121_depthmap_0066_0544_01_004.png,6,0,0,-21869.46636,29048.677587,-1382.60126263425,0,1,23.0324008993262,153.51699291798,7.41517142159864E-05,-0.876119434833527,0.089012794196606,-1.8724958896637,-0.546563923358917,2.41182422637939,2.31282520294189,3.07722473144531,-6.92874431610107
62,sampled_images/20181121_depthmap_0636_0373_01_004.png,6,0,0,-25289.52636,28022.617587,-1326.51369280963,0,1,23.0015363590338,153.506920264346,0.000105187529698,0.027054365724325,-0.648514151573181,-3.23039603233337,-1.06606340408325,-2.26762366294861,3.27204775810242,-1.45564103126526,-1.57132196426392
63,sampled_images/20181121_depthmap_1266_0188_01_004.png,6,0,0,-29069.66636,26912.417587,-1283.03806573301,0,1,22.9674209335586,153.496025473849,5.6789445807226E-05,-2.88314986228943,-2.58381915092468,1.1758394241333,-0.163011610507965,1.64726424217224,3.44554162025452,7.21316528320313,-2.62033104896545
64,sampled_images/20181121_depthmap_0675_0363_01_004.png,6,0,0,-25523.48636,27962.357587,-1320.53288471564,0,1,22.9994247765384,153.506328246547,0.000308970338665,-1.87450647354126,2.86272764205933,0.78084123134613,-2.46730542182922,0.086012080311775,2.54246830940247,-4.25549554824829,-3.33699727058411
65,sampled_images/20181121_depthmap_0508_0413_01_004.png,6,0,0,-24521.60636,28262.717587,-1344.45411339212,0,1,23.008466405155,153.509276273199,5.80291598453186E-05,1.32100784778595,-2.49320530891418,-1.48616981506348,-1.32476437091827,4.02080965042114,1.80648005008698,2.23813343048096,-6.27258157730103
66,sampled_images/20181121_depthmap_1088_0239_01_004.png,6,0,0,-28001.36636,27218.577587,-1292.79236846845,0,1,22.9770624655312,153.499029832657,3.98276824853383E-05,-2.86232590675354,-4.48628902435303,1.79474437236786,-2.36486148834229,2.07078170776367,4.00953388214111,5.11750078201294,-2.64037489891052
67,sampled_images/20181121_depthmap_0787_0329_01_004.png,6,0,0,-26195.48636,27758.657587,-1308.71647907383,0,1,22.993360202157,153.504329296915,9.39692399697378E-05,-0.095796316862106,-0.982000529766083,3.96938705444336,-3.25878405570984,-1.26563036441803,3.59996771812439,7.84533977508545,-2.03806447982788
68,sampled_images/20181121_depthmap_1653_0075_01_004.png,6,0,0,-31391.58636,26234.557587,-1244.03787685043,0,1,22.9464652802635,153.489375885536,1.61228308570571E-05,-4.88961219787598,0.207489252090454,-1.54104125499725,2.20177531242371,5.93957376480103,3.48885679244995,5.07230091094971,-2.9929039478302
69,sampled_images/20181121_depthmap_1372_0156_01_004.png,6,0,0,-29705.34636,26720.457587,-1272.34480191449,0,1,22.961683969796,153.494142574958,5.89872397540603E-05,-1.3740668296814,-4.02361536026001,2.1807017326355,0.016974994912744,2.10937190055847,4.47672510147095,3.82766389846802,-5.4637246131897
70,sampled_images/20181121_depthmap_0401_0444_01_004.png,6,0,0,-23879.42636,28448.337587,-1372.45563194125,0,1,23.0142619445212,153.511098754187,8.46037983137649E-06,-5.12753915786743,-0.692610144615173,-0.474592953920364,4.55514669418335,6.37402963638306,4.1181116104126,4.59866189956665,-3.53264737129211
71,sampled_images/20181121_depthmap_1666_0072_01_004.png,6,0,0,-31469.62636,26216.597587,-1243.51968295344,0,1,22.9457608764655,153.489199451845,2.92112599709071E-05,-4.55243492126465,0.852787017822266,-0.07400756329298,-0.893254637718201,2.08853244781494,4.11706733703613,4.98057079315186,-5.16912269592285
72,sampled_images/20181121_depthmap_0949_0281_01_004.png,6,0,0,-27167.28636,27470.637587,-1294.71626880251,0,1,22.9845898695247,153.501502822074,0.00095996982418,0.737549662590027,1.94951355457306,-1.57060694694519,-3.55832195281982,1.22623550891876,-5.38263034820557,0.053655162453652,-4.0636043548584
73,sampled_images/20181121_depthmap_1051_0250_01_004.png,6,0,0,-27779.60636,27284.637587,-1293.67227660906,0,1,22.9790638252302,153.499677983902,3.49815454683267E-05,-1.37080025672913,-4.71882915496826,2.18237590789795,0.76728367805481,1.18923830986023,4.08845567703247,5.24188899993897,-2.84078621864319
74,sampled_images/20181121_depthmap_1163_0218_01_004.png,6,0,0,-28451.62636,27092.417587,-1290.45760230217,0,1,22.9729987786481,153.49779159143,0.00019709469052,-1.21132242679596,3.2864248752594,-1.40046048164368,1.45277106761932,-2.66534876823425,2.96720743179321,-1.25209593772888,-0.120165251195431
75,sampled_images/20181121_depthmap_0688_0359_01_004.png,6,0,0,-25601.42636,27938.337587,-1317.14412852425,0,1,22.9987214024434,153.506092547544,0.000249565433478,-0.514503121376038,1.94286239147186,0.719158530235291,6.4670934677124,0.364040166139603,0.817909777164459,3.18453550338745,1.71720433235168
76,sampled_images/20181121_depthmap_1843_0021_01_004.png,6,0,0,-32531.28636,25910.517587,-1241.38071034826,0,1,22.9361790644209,153.486197393721,0.000538729946129,-3.69245290756226,-0.703838765621185,-0.646670401096344,-2.5563178062439,4.45393371582031,-2.23294472694397,0.363381236791611,3.96179699897766
77,sampled_images/20181121_depthmap_0773_0333_01_004.png,6,0,0,-26111.28636,27782.437587,-1310.81644408234,0,1,22.9941201096979,153.504562749177,6.09847120358609E-05,0.418878972530365,-1.32576203346252,0.565260291099548,-6.44380760192871,0.731620788574219,1.92560851573944,4.1650824546814,-2.59880661964416
78,sampled_images/20181121_depthmap_1831_0024_01_004.png,6,0,0,-32459.56636,25928.557587,-1241.4516061202,0,1,22.9368264029684,153.486374472979,2.3135326046031E-05,-4.05590105056763,0.222956597805023,-2.51930284500122,0.116082936525345,5.03392028808594,2.13930654525757,4.66981649398804,-2.59667706489563
79,sampled_images/20181121_depthmap_1399_0148_01_004.png,6,0,0,-29867.28636,26672.617587,-1270.40446187567,0,1,22.9602224521351,153.49367328593,2.23469305637991E-05,-2.39398741722107,-3.11457133293152,-0.246616497635841,-1.65040028095245,5.28286123275757,3.44764161109924,3.45876741409302,-4.41065263748169
80,sampled_images/20181121_depthmap_1413_0144_01_004.png,6,0,0,-29951.28636,26648.457587,-1269.17642639855,0,1,22.9594643362286,153.49343625276,2.66028928308515E-05,-3.16637659072876,-6.07564544677734,2.28615927696228,-1.39621758460999,0.927504599094391,4.03275871276856,5.93209409713745,-0.163687601685524
81,sampled_images/20181121_depthmap_0332_0465_01_004.png,6,0,0,-23465.36636,28574.517587,-1377.44406493757,0,1,23.0179986231159,153.512337306042,6.15378157817759E-05,-1.74135875701904,-0.014752931892872,0.05658932030201,-2.442631483078,3.04683303833008,2.33034300804138,7.48016834259033,-4.32966709136963
82,sampled_images/20181121_depthmap_1738_0051_01_004.png,6,0,0,-31901.48636,26090.717587,-1242.17867065565,0,1,22.9418632356733,153.487964838757,1.10788332676748E-05,-6.1439733505249,-0.893579602241516,-2.85923433303833,3.43340492248535,5.00791692733765,3.92799830436707,2.14974617958069,-1.66059458255768
83,sampled_images/20181121_depthmap_1090_0239_01_004.png,6,0,0,-28013.64636,27218.597587,-1292.79108196071,0,1,22.9769515797193,153.49902981112,2.54850929195527E-05,-3.43035674095154,-2.44732141494751,-0.541275978088379,1.13871085643768,1.85968208312988,1.79386627674103,6.49802970886231,-1.02173471450806
84,sampled_images/20181121_depthmap_1775_0040_01_004.png,6,0,0,-32123.50636,26024.337587,-1241.47527000544,0,1,22.9398594727759,153.487313918201,1.04281925814576E-05,-4.84222412109375,-2.42780447006226,0.431168764829636,3.22047114372253,3.65049839019775,4.80754327774048,2.685298204422,-4.8254542350769
85,sampled_images/20181121_depthmap_0143_0521_01_004.png,6,0,0,-22331.34636,28910.577587,-1384.7135193763,0,1,23.0282326739929,153.515636913438,2.43951963057043E-05,-0.94319623708725,-1.38605964183807,-3.00658297538757,3.30342650413513,4.18830442428589,0.236349657177925,4.73937654495239,-3.06920862197876
86,sampled_images/20181121_depthmap_1437_0137_01_004.png,6,0,0,-30095.32636,26606.417587,-1267.61163314991,0,1,22.9581643566539,153.493023842351,7.34865170670673E-05,-0.475523144006729,-4.91316318511963,1.6998393535614,-5.85194063186646,1.35427451133728,2.87391901016235,4.44891691207886,-5.70937336306088E-05
87,sampled_images/20181121_depthmap_0214_0500_01_004.png,6,0,0,-22757.30636,28784.697587,-1372.88101209259,0,1,23.0243885692712,153.514400878379,1.89040511031635E-05,-5.03057765960693,0.043684236705303,-0.553208410739899,2.54777908325195,5.26000595092773,4.38739156723022,5.03856229782105,-4.04496192932129
88,sampled_images/20181121_depthmap_0188_0507_01_004.png,6,0,0,-22601.64636,28826.417587,-1374.03550576653,0,1,23.0257934090617,153.514810796882,4.38793940702453E-05,-1.73815155029297,-5.39202213287354,2.24673819541931,-4.99880695343018,1.35885977745056,3.62331557273865,1.05629253387451,-2.02029490470886
89,sampled_images/20181121_depthmap_0909_0292_01_004.png,6,0,0,-26927.28636,27536.357587,-1289.99559645484,0,1,22.986755924778,153.502148056413,0.000109920219984,1.02472329139709,-2.5132257938385,-5.74034214019775,1.129998087883,2.4909188747406,-2.22922253608704,3.02136325836182,-2.32610821723938
90,sampled_images/20181121_depthmap_0442_0433_01_004.png,6,0,0,-24125.56636,28382.397587,-1357.23371489569,0,1,23.0120404971834,153.51045098258,0.01418096292764,-1.87630534172058,4.36561822891235,3.40030574798584,-2.42937541007996,1.45905756950378,-5.7291693687439,-2.00370454788208,6.04483413696289
91,sampled_images/20181121_depthmap_0197_0505_01_004.png,6,0,0,-22655.62636,28814.517587,-1373.60099068673,0,1,23.0253061923525,153.514693693579,2.57419396803016E-05,-4.15083503723145,0.115903101861477,-0.624314665794373,1.12462604045868,3.84155082702637,3.06731557846069,6.36482334136963,-3.54166531562805
92,sampled_images/20181121_depthmap_0834_0315_01_004.png,6,0,0,-26477.64636,27674.677587,-1297.38061675525,0,1,22.9908137677328,153.503505145079,0.000582624285016,-1.26668226718903,-3.92258358001709,-1.81619691848755,1.50290215015411,-0.136012136936188,-4.02121543884277,-1.98901045322418,1.18965482711792
93,sampled_images/20181121_depthmap_1160_0219_01_004.png,6,0,0,-28433.56636,27098.337587,-1290.67818943047,0,1,22.9731617600386,153.497849639784,6.57643104204908E-05,-2.3870689868927,-1.78573203086853,-0.286905199289322,-3.54999446868896,1.72317588329315,3.66079878807068,0.254205048084259,-5.52438831329346
94,sampled_images/20181121_depthmap_0651_0369_01_004.png,6,0,0,-25379.36636,27998.637587,-1327.60364355613,0,1,23.0007255316135,153.506684732472,0.000218925109948,-4.54464101791382,0.042407535016537,-0.627291083335876,-0.241583436727524,-1.67504835128784,2.01451730728149,-0.380564570426941,3.76560258865356
95,sampled_images/20181121_depthmap_1117_0231_01_004.png,6,0,0,-28175.28636,27170.397587,-1291.92095220349,0,1,22.9754927951084,153.49855690976,1.61685493367258E-05,-3.06469392776489,-1.63637673854828,-0.900719702243805,5.48024034500122,3.42773461341858,2.07008266448975,5.41620874404907,-3.07387638092041
96,sampled_images/20181121_depthmap_1062_0247_01_004.png,6,0,0,-27845.32636,27266.577587,-1293.97776439119,0,1,22.9784706849567,153.499500695315,1.85294175025774E-05,-2.50523853302002,-1.96158719062805,0.435087531805038,2.32553482055664,5.66447639465332,3.92629432678223,4.87209606170654,-4.99817991256714
97,sampled_images/20181121_depthmap_1863_0013_01_004.png,6,0,0,-32651.48636,25862.697587,-1241.50017617836,0,1,22.9350944213842,153.485729173429,3.29580798279494E-05,-3.86622333526611,0.102687649428844,-4.7196683883667,2.76795029640198,3.87595891952515,2.05700254440308,2.87349534034729,-3.43643355369568
98,sampled_images/20181121_depthmap_0812_0322_01_004.png,6,0,0,-26345.42636,27716.717587,-1308.18832728768,0,1,22.9920069812744,153.503917545481,0.000297680759104,2.28643536567688,4.44229793548584,-0.287231147289276,3.22320699691772,3.44615817070007,-0.978266298770904,2.81199550628662,-1.87733209133148
99,sampled_images/20181121_depthmap_1698_0063_01_004.png,6,0,0,-31661.60636,26162.417587,-1242.82313160049,0,1,22.9440281842253,153.48866795006,7.30984174879268E-05,-1.38853681087494,-2.31357407569885,-3.19320154190063,3.83159995079041,-0.694916009902954,0.469455510377884,0.330115020275116,-2.38252782821655
100,sampled_images/20181121_depthmap_1862_0012_01_004.png,6,0,0,-32645.30636,25856.457587,-1241.42405074703,0,1,22.9351503222882,153.485668441701,0.000158640643349,3.63791823387146,1.20804810523987,-1.520880818367,-2.87658929824829,-0.87492573261261,2.12576127052307,2.04947257041931,-2.7496235370636
101,sampled_images/20181121_depthmap_0407_0442_01_004.png,6,0,0,-23915.40636,28436.657587,-1372.14807112776,0,1,23.0139372551789,153.510984153036,4.4438464101404E-05,-0.310814917087555,-3.41485714912415,-1.97945082187653,3.53246355056763,0.060510043054819,0.965990602970123,-0.593719899654388,-4.65207672119141
102,sampled_images/20181121_depthmap_1245_0194_01_004.png,6,0,0,-28943.34636,26948.457587,-1284.84416964639,0,1,22.9685609926727,153.496379122988,0.000106300525658,-0.76222550868988,-0.25652602314949,-1.81270730495453,2.75521063804626,-4.22957181930542,1.8452639579773,2.24551749229431,-1.66714429855347
103,sampled_images/20181121_depthmap_1383_0153_01_004.png,6,0,0,-29771.46636,26702.697587,-1271.83794038508,0,1,22.9610872048842,153.493968252343,5.26783769601025E-05,-3.10224199295044,-0.369929492473602,0.500856339931488,0.59797078371048,0.906342804431915,4.17934656143189,5.91156578063965,-5.83732748031616
104,sampled_images/20181121_depthmap_1630_0082_01_004.png,6,0,0,-31253.62636,26276.497587,-1244.87855614564,0,1,22.9477103722501,153.489787146183,2.98567047138931E-05,-3.92374849319458,0.559108674526215,0.017558414489031,0.237308591604233,5.38308048248291,4.56267404556274,4.43858671188355,-5.45896863937378
105,sampled_images/20181121_depthmap_0823_0318_01_004.png,6,0,0,-26411.32636,27692.577587,-1299.80740209984,0,1,22.9914123227918,153.503680918064,0.000266911200015,-3.55696511268616,2.41902828216553,0.958042621612549,-3.3336181640625,2.07930541038513,1.71673655509949,0.385677874088287,2.64335608482361
106,sampled_images/20181121_depthmap_1313_0173_01_004.png,6,0,0,-29351.62636,26822.497587,-1277.70659010904,0,1,22.9648763462088,153.49514372034,2.52991758316057E-05,-2.40900683403015,-4.49042129516602,-2.02391386032104,1.22807192802429,4.19247627258301,3.21216082572937,1.99982309341431,-2.65553593635559
107,sampled_images/20181121_depthmap_1170_0216_01_004.png,6,0,0,-28493.48636,27080.517587,-1290.5410798005,0,1,22.9726209858925,153.497674809335,1.14651220428641E-05,-6.47056531906128,-0.579744338989258,-1.92106544971466,2.58226680755615,6.4136815071106,4.29267978668213,2.71356892585754,-2.05023384094238
108,sampled_images/20181121_depthmap_1527_0111_01_004.png,6,0,0,-30635.34636,26450.457587,-1251.91294430431,0,1,22.9532905682475,153.491493855167,0.000315789016895,-3.95991849899292,0.79321563243866,4.33393812179565,0.771463930606842,3.4199001789093,2.6456937789917,-1.03546977043152,-1.55247259140015
109,sampled_images/20181121_depthmap_1790_0035_01_004.png,6,0,0,-32213.58636,25994.397587,-1241.50443829785,0,1,22.9390465335011,153.487020502784,9.74054128164426E-05,2.71395349502563,0.156254753470421,0.040131885558367,1.34646010398865,-1.4458122253418,2.00586342811584,5.63020420074463,-4.3926362991333
110,sampled_images/20181121_depthmap_0653_0368_01_004.png,6,0,0,-25391.38636,27992.517587,-1327.97888534512,0,1,23.0006170971711,153.506624820331,1.9052224160987E-05,-5.45503759384155,-3.5961287021637,-0.467299729585648,1.46210360527039,5.56176805496216,3.57318139076233,2.37896871566772,-1.39297723770142
111,sampled_images/20181121_depthmap_0986_0270_01_004.png,6,0,0,-27389.32636,27404.437587,-1295.68791932783,0,1,22.9825859931537,153.500853246442,0.006841609254479,0.172702789306641,5.15345907211304,4.97828483581543,-2.04178929328918,1.53510069847107,-4.55989980697632,-1.04666435718536,3.81434178352356
112,sampled_images/20181121_depthmap_1103_0235_01_004.png,6,0,0,-28091.58636,27194.557587,-1292.2642749799,0,1,22.9762481923761,153.498793995027,4.89308076794259E-05,-3.12484669685364,0.148057505488396,-0.230892866849899,-2.28460288047791,1.31303548812866,2.71192407608032,5.49658870697022,-3.88094687461853
113,sampled_images/20181121_depthmap_1491_0123_01_004.png,6,0,0,-30419.30636,26522.517587,-1265.78741000207,0,1,22.9552402210318,153.492200184435,0.000236839405261,-3.75343060493469,0.713276028633118,0.507720112800598,-1.46040987968445,-3.59272813796997,3.48185896873474,-2.06047081947327,-3.06814312934875
114,sampled_images/20181121_depthmap_0650_0370_01_004.png,6,0,0,-25373.54636,28004.337587,-1327.6550667418,0,1,23.000777988771,153.506740435417,7.06285136402585E-05,0.005424414295703,-3.15435481071472,0.855284452438355,3.40461158752441,-2.14944195747375,2.907231092453,2.87607526779175,-3.95621538162231
115,sampled_images/20181121_depthmap_0087_0539_01_004.png,6,0,0,-21995.40636,29018.537587,-1385.48405229678,0,1,23.0312642269998,153.51669649188,0.000115231370728,1.6278954744339,-0.092055045068264,1.73026251792908,1.70448982715607,-3.03383207321167,3.80304455757141,2.08785796165466,-2.66438317298889
116,sampled_images/20181121_depthmap_0458_0428_01_004.png,6,0,0,-24221.52636,28352.377587,-1349.3719197862,0,1,23.0111745175367,153.510156380018,0.000312338670483,-1.22434270381928,-1.81881284713745,2.19241690635681,5.17231941223145,-0.622217774391174,0.57460480928421,-2.91474413871765,-0.62420117855072
117,sampled_images/20181121_depthmap_0180_0510_01_004.png,6,0,0,-22553.46636,28844.677587,-1374.53162895122,0,1,23.0262281431019,153.51498983875,3.27289417327847E-05,-2.79855036735535,0.88528311252594,-1.24454367160797,1.036168217659,6.69997358322144,2.68735575675964,5.71980428695679,-5.03953170776367
118,sampled_images/20181121_depthmap_1874_0003_01_004.png,6,0,0,-32717.56636,25802.497587,-1241.97633796728,0,1,22.9344986619753,153.485141169181,1.87118876056047E-05,-5.08738803863525,-0.352474749088287,-0.321333706378937,0.340282261371613,5.28957033157349,4.28194665908814,4.31852912902832,-4.11851739883423
119,sampled_images/20181121_depthmap_1476_0126_01_004.png,6,0,0,-30329.42636,26540.557587,-1267.95698533333,0,1,22.9560515318565,153.492377629871,9.20661987038329E-05,2.29918432235718,-1.55403411388397,3.98239135742187,-4.08735752105713,-0.515520632266998,3.06308817863464,5.96309995651245,0.764849305152893
120,sampled_images/20181121_depthmap_1250_0192_01_004.png,6,0,0,-28973.40636,26936.457587,-1284.28342974714,0,1,22.9682897515499,153.496261579453,1.62575724971248E-05,-5.11451101303101,-1.34564459323883,0.187341511249542,-0.058715909719467,6.28328990936279,4.31968879699707,3.511634349823,-3.9224112033844
121,sampled_images/20181121_depthmap_0704_0354_01_004.png,6,0,0,-25697.34636,27908.717587,-1316.45140703962,0,1,22.9978557671719,153.505801904769,0.000105184670247,2.06732153892517,2.3002336025238,2.90498566627502,-2.23326015472412,-3.53306555747986,3.4830014705658,4.89794874191284,-1.45423519611359
122,sampled_images/20181121_depthmap_0864_0306_01_004.png,6,0,0,-26657.48636,27620.537587,-1295.23545784604,0,1,22.9891907570648,153.502973886668,0.02020325511694,-3.71235513687134,5.84377145767212,3.49297261238098,-3.38836431503296,2.76689529418945,-7.25932550430298,-0.961578369140625,6.79914093017578
123,sampled_images/20181121_depthmap_0861_0307_01_004.png,6,0,0,-26639.50636,27626.677587,-1296.87806616111,0,1,22.9893530100725,153.503034092593,0.009479947388172,-1.20284843444824,5.43646907806397,4.2178807258606,-3.2350013256073,0.999892175197601,-5.19109773635864,-0.545492827892303,5.96115112304688
124,sampled_images/20181121_depthmap_0331_0465_01_004.png,6,0,0,-23459.50636,28574.477587,-1377.55178696733,0,1,23.0180515378796,153.512337024586,8.28271367936395E-05,-0.018885258585215,0.255945324897766,0.99964851140976,-2.03167390823364,1.46571016311646,3.01449251174927,6.51315355300903,-6.10450172424316
125,sampled_images/20181121_depthmap_0876_0302_01_004.png,6,0,0,-26729.32636,27596.577587,-1296.90196916004,0,1,22.9885424571984,153.502738917669,6.18736448814161E-05,-0.254268199205399,-3.36176133155823,2.09776568412781,-1.31093490123749,1.2852942943573,4.63966369628906,1.43182229995728,-6.20632219314575
126,sampled_images/20181121_depthmap_0077_0541_01_004.png,6,0,0,-21935.42636,29030.417587,-1383.6116411764,0,1,23.0318056202078,153.516813525848,0.000247217190918,1.82632124423981,2.3227698802948,-4.77194023132324,0.599694192409515,0.276328951120377,-1.04198622703552,0.568645358085632,2.3646092414856
127,sampled_images/20181121_depthmap_1056_0249_01_004.png,6,0,0,-27809.36636,27278.377587,-1293.87118468503,0,1,22.9787952020462,153.499616408146,1.54517329065129E-05,-5.32110738754272,-0.064513079822064,-1.8110808134079,2.645183801651,7.77622556686401,3.36974811553955,4.42636251449585,-2.31876754760742
128,sampled_images/20181121_depthmap_0405_0443_01_004.png,6,0,0,-23903.42636,28442.517587,-1372.30719070303,0,1,23.0140453309553,153.511041537645,1.4667317373096E-05,-4.5672345161438,-0.110248573124409,-2.09124612808228,4.02136516571045,7.86698389053345,2.61879086494446,4.65374565124512,-2.13568997383118
129,sampled_images/20181121_depthmap_0779_0332_01_004.png,6,0,0,-26147.62636,27776.337587,-1308.36229090339,0,1,22.9937920707238,153.504502598631,0.000168547456269,-1.26470565795898,3.4338231086731,-1.73507964611053,-1.44517910480499,-3.9179093837738,3.05279064178467,-0.045369006693363,0.206187859177589
130,sampled_images/20181121_depthmap_0748_0340_01_004.png,6,0,0,-25961.32636,27824.397587,-1314.58570817956,0,1,22.9954735086811,153.504974709096,0.006587979849428,-0.81080436706543,5.46592426300049,4.92871999740601,-1.8065242767334,2.364177942276,-5.38930559158325,-1.1928551197052,4.52753686904907
131,sampled_images/20181121_depthmap_0259_0486_01_004.png,6,0,0,-23027.46636,28700.717587,-1378.1044970989,0,1,23.0219505573057,153.51357656679,8.20163986645639E-05,1.69456517696381,-4.78511524200439,2.53515076637268,-1.73471808433533,0.790980041027069,3.89682126045227,3.63913083076477,-3.32214188575745
132,sampled_images/20181121_depthmap_1441_0137_01_004.png,6,0,0,-30119.34636,26606.417587,-1267.9171065175,0,1,22.9579474611321,153.493023428679,0.000304993620375,3.56454253196716,-1.42982256412506,-0.846419513225555,5.33293294906616,1.85498893260956,-0.688557267189026,3.24435973167419,1.45291113853455
133,sampled_images/20181121_depthmap_1660_0073_01_004.png,6,0,0,-31433.34636,26222.417587,-1243.71611377494,0,1,22.9460883863776,153.489256812015,1.88653229997726E-05,-3.82619762420654,-0.171274185180664,-2.46564555168152,3.99515843391418,5.73318243026733,2.90925645828247,4.49032306671143,-3.40692543983459
134,sampled_images/20181121_depthmap_1714_0057_01_004.png,6,0,0,-31757.32636,26126.337587,-1242.53499556453,0,1,22.9431644160108,153.488314558372,8.3919359894935E-05,0.909640669822693,-7.30255699157715,1.30536639690399,-2.90230107307434,1.38566184043884,3.18287801742554,1.25329327583313,-1.26259958744049
135,sampled_images/20181121_depthmap_1104_0235_01_004.png,6,0,0,-28097.44636,27194.357587,-1292.26826998548,0,1,22.9761952812238,153.498791941343,2.5995173928095E-05,-5.42628860473633,-1.02511715888977,0.71769255399704,-0.623176515102387,3.97281932830811,4.74764823913574,3.21795845031738,-5.03400754928589
136,sampled_images/20181121_depthmap_0819_0320_01_004.png,6,0,0,-26387.46636,27704.477587,-1299.59288990168,0,1,22.9916275745544,153.503797410143,0.000301351101371,-0.561187326908112,3.00170469284058,-0.86687296628952,-4.13086938858032,-1.86324870586395,2.45194482803345,-1.66565597057343,-4.10718536376953
137,sampled_images/20181121_depthmap_1702_0061_01_004.png,6,0,0,-31685.48636,26150.497587,-1242.62651658191,0,1,22.9438127391776,153.488551328065,2.73459172603907E-05,-5.23497772216797,0.655341804027557,-0.348010063171387,2.02902555465698,3.87060189247131,3.8299515247345,6.31940507888794,-3.54320073127747
138,sampled_images/20181121_depthmap_1075_0243_01_004.png,6,0,0,-27923.30636,27242.637587,-1293.5090872984,0,1,22.9777669356712,153.49926584859,8.02307695266791E-05,1.19065499305725,-4.84982395172119,-2.31672692298889,0.032742813229561,1.7657413482666,1.92469465732574,2.41631484031677,-1.09890961647034
139,sampled_images/20181121_depthmap_0441_0432_01_004.png,6,0,0,-24119.32636,28376.597587,-1359.78548697329,0,1,23.0120969415232,153.510394520257,0.003333865432069,3.480224609375,2.67018461227417,1.24382066726685,-2.54794311523437,-2.34286952018738,-3.27946591377258,-1.91628015041351,0.482315510511398
140,sampled_images/20181121_depthmap_1587_0095_01_004.png,6,0,0,-30995.42636,26354.417587,-1246.80768267265,0,1,22.9500406383177,153.490551276556,1.81894320121501E-05,-5.96819543838501,-1.03837215900421,-2.36042237281799,0.227273017168045,4.51256561279297,3.82298874855042,1.83490979671478,-2.36380672454834
141,sampled_images/20181121_depthmap_1178_0213_01_004.png,6,0,0,-28541.28636,27062.517587,-1290.25458469031,0,1,22.9721896552298,153.497498437442,8.23305344965775E-06,-6.15898656845093,-0.276896059513092,-1.67963850498199,3.72191786766052,5.4817910194397,4.01936388015747,4.33677530288696,-2.29044651985168
142,sampled_images/20181121_depthmap_0390_0448_01_004.png,6,0,0,-23813.34636,28472.377587,-1373.22380489637,0,1,23.0148582165673,153.511334482785,4.40348230767995E-05,-6.46831893920898,-1.62273561954498,-2.6692361831665,-0.699524164199829,2.00674653053284,2.99533104896545,1.72170853614807,-1.89022576808929
143,sampled_images/20181121_depthmap_0039_0552_01_004.png,6,0,0,-21707.44636,29096.357587,-1397.47881720825,0,1,23.0338630549447,153.517461156085,0.029096655547619,-4.01711130142212,6.90144014358521,3.98278498649597,-3.98466658592224,3.12646818161011,-7.71429252624512,-1.01638329029083,7.87890005111694
144,sampled_images/20181121_depthmap_0492_0418_01_004.png,6,0,0,-24425.34636,28292.357587,-1346.28950946371,0,1,23.0093351022226,153.509567162882,1.97256049432326E-05,-3.51880955696106,-1.36804223060608,-1.16484940052032,-0.414597094058991,5.82433223724365,4.04804277420044,4.31072807312012,-4.01856470108032
145,sampled_images/20181121_depthmap_0614_0381_01_004.png,6,0,0,-25157.40636,28070.417587,-1329.29232358385,0,1,23.0027285613815,153.507388909721,0.000361144746421,1.22578597068787,1.79105198383331,-1.53089940547943,2.03254318237305,4.35523653030396,-0.815926909446716,-0.365144193172455,0.326069563627243
146,sampled_images/20181121_depthmap_1670_0070_01_004.png,6,0,0,-31493.56636,26204.337587,-1243.39298924674,0,1,22.9455448954253,153.489079511501,3.26863701047841E-05,-2.16597056388855,-0.763300538063049,0.512298047542572,0.860716581344605,4.84499454498291,3.23757982254028,7.12913084030151,-4.50345277786255
147,sampled_images/20181121_depthmap_0555_0399_01_004.png,6,0,0,-24803.64636,28178.677587,-1337.47997545829,0,1,23.0059210876782,153.508451350897,4.50873740192037E-05,-1.27811348438263,-1.88274300098419,-0.552115619182587,4.06833648681641,-2.47133755683899,3.23766589164734,1.59904074668884,-5.85185146331787
148,sampled_images/20181121_depthmap_1102_0235_01_004.png,6,0,0,-28085.54636,27194.437587,-1292.27097583911,0,1,22.9763027341065,153.498792931198,6.82585960021242E-05,1.00462520122528,-3.92448830604553,1.26066327095032,1.43195521831512,1.01488149166107,2.11376214027405,7.27416944503784,-2.14756512641907
149,sampled_images/20181121_depthmap_0350_0459_01_004.png,6,0,0,-23573.40636,28538.577587,-1376.0761139728,0,1,23.0170236705821,153.51198470421,3.48954599758145E-05,-3.98567342758179,-1.43340647220612,0.391872078180313,2.31486177444458,4.12859058380127,4.41659259796143,3.57383465766907,-5.2005615234375
150,sampled_images/20181121_depthmap_1800_0033_01_004.png,6,0,0,-32273.58636,25982.337587,-1241.52170227699,0,1,22.9385049323075,153.486901916,1.42856742968434E-05,-5.01373386383057,-0.194849982857704,-2.36599969863892,3.37885046005249,6.16627740859985,3.51830220222473,3.34019637107849,-3.00094532966614
151,sampled_images/20181121_depthmap_1448_0135_01_004.png,6,0,0,-30161.50636,26594.577587,-1268.2223802309,0,1,22.9575669540143,153.492907253054,0.000549637246877,-2.33231067657471,-3.05427551269531,2.94726181030273,4.62479734420776,-0.531279921531677,1.11623060703278,-1.7023469209671,0.665398299694061
152,sampled_images/20181121_depthmap_1807_0031_01_004.png,6,0,0,-32315.54636,25970.717587,-1241.53539985524,0,1,22.9381262220133,153.486787922843,2.57877691183239E-05,-3.85780715942383,1.05605041980743,-1.482386469841,1.43795573711395,4.3442268371582,2.95759963989258,5.56615591049194,-4.77488327026367
153,sampled_images/20181121_depthmap_1464_0130_01_004.png,6,0,0,-30257.56636,26564.517587,-1268.52762414524,0,1,22.9567000313088,153.492612492127,2.39974961004918E-05,-4.29207038879395,-0.403148621320725,-4.96359920501709,-0.791680574417114,4.62422561645508,1.338658452034,3.79814100265503,-1.91931593418121
154,sampled_images/20181121_depthmap_1265_0188_01_004.png,6,0,0,-29063.32636,26912.577587,-1283.1599514697,0,1,22.9674781797544,153.496027144592,3.66511012543924E-05,-3.15967035293579,-0.837273597717285,-0.089590542018414,0.119267620146275,2.84045791625977,3.41888332366943,5.79200458526611,-4.36077213287354
155,sampled_images/20181121_depthmap_0485_0419_01_004.png,6,0,0,-24383.28636,28298.457587,-1346.87493084996,0,1,23.0097147884299,153.509627438034,7.82106508268043E-05,0.580405175685883,-0.753723859786987,1.98018395900726,1.51876711845398,-0.406940788030624,4.13818168640137,5.29393577575684,-6.64791774749756
156,sampled_images/20181121_depthmap_0705_0353_01_004.png,6,0,0,-25703.30636,27902.717587,-1316.19841829387,0,1,22.9978020505146,153.505743274755,0.00045364163816,-4.02743101119995,0.116226807236671,2.07672953605652,-3.56938552856445,3.05343842506409,-2.09473085403442,1.79653477668762,2.80690145492554
157,sampled_images/20181121_depthmap_1238_0196_01_004.png,6,0,0,-28901.56636,26960.497587,-1285.57032847824,0,1,22.9689380619962,153.496497261712,4.64000258943997E-05,-2.78525876998901,-5.72307443618774,0.328509360551834,-0.087897181510925,-0.32449346780777,4.2993655204773,3.09049129486084,-0.026427283883095
158,sampled_images/20181121_depthmap_1316_0173_01_004.png,6,0,0,-29369.54636,26822.397587,-1277.43061492783,0,1,22.9647145341706,153.495142433967,5.5459255236201E-05,0.012500640004873,-1.51301920413971,-0.813101649284363,-4.62065315246582,3.48773145675659,1.13986670970917,5.53018522262573,-3.61637949943542
159,sampled_images/20181121_depthmap_1171_0215_01_004.png,6,0,0,-28499.40636,27074.717587,-1290.52047214776,0,1,22.9725676238672,153.497618144579,1.11412809928879E-05,-4.5057110786438,-0.816102385520935,-0.442620992660522,4.53319501876831,4.94254684448242,3.23935174942017,5.63617277145386,-2.52537393569946
160,sampled_images/20181121_depthmap_1646_0077_01_004.png,6,0,0,-31349.34636,26246.677587,-1244.32396373346,0,1,22.9468465086566,153.489494772875,1.24750495160697E-05,-5.70851182937622,-0.007316746283323,-2.05896878242493,3.77543163299561,6.6981897354126,3.19744467735291,4.91834306716919,-1.70537090301514
161,sampled_images/20181121_depthmap_1572_0099_01_004.png,6,0,0,-30905.48636,26378.457587,-1247.59279567513,0,1,22.9508523986301,153.490787208061,2.29037250392139E-05,-0.808963239192963,-0.61779260635376,-1.38814687728882,2.37986207008362,3.86777091026306,1.39937269687653,6.40955924987793,-4.13142824172974
162,sampled_images/20181121_depthmap_1873_0003_01_004.png,6,0,0,-32711.66636,25802.377587,-1241.93056046513,0,1,22.9345519397726,153.485140097691,2.13342864299193E-05,-6.04078722000122,-0.374461442232132,-1.7717958688736,-2.227205991745,2.85380983352661,3.98018383979797,2.28583908081055,-3.57641053199768
163,sampled_images/20181121_depthmap_1156_0219_01_004.png,6,0,0,-28409.32636,27098.597587,-1290.67122891736,0,1,22.9733806373829,153.497852600828,9.23412226256914E-05,2.15732049942017,-3.40801429748535,-0.568541586399078,0.400666534900665,2.95403718948364,-0.044918317347765,6.30397796630859,-1.12786221504211
164,sampled_images/20181121_depthmap_1454_0132_01_004.png,6,0,0,-30197.40636,26576.717587,-1268.2757350699,0,1,22.9572430691802,153.492732486076,2.94798246613936E-05,0.930188536643982,-4.31050252914429,-1.6152982711792,4.2046012878418,3.42304277420044,-0.337794959545135,4.11982727050781,-2.56141805648804
165,sampled_images/20181121_depthmap_1079_0242_01_004.png,6,0,0,-27947.36636,27236.417587,-1293.27652411948,0,1,22.9775497812594,153.49920476495,0.000155034285854,4.76680088043213,0.375482261180878,-3.16951751708984,1.19819045066834,0.521037399768829,0.856816291809082,0.848036170005798,-0.461318671703339
166,sampled_images/20181121_depthmap_0832_0315_01_004.png,6,0,0,-26465.60636,27674.677587,-1297.85066019435,0,1,22.9909224858451,153.503505361153,0.005595967639238,0.461530774831772,3.626957654953,3.67414903640747,-2.57873320579529,-1.63133466243744,-2.9374315738678,-2.05832409858704,5.17582321166992
167,sampled_images/20181121_depthmap_1719_0056_01_004.png,6,0,0,-31787.56636,26120.477587,-1242.59091016017,0,1,22.9428914462798,153.488256913816,1.36383177959942E-05,-3.86539888381958,0.029445059597492,-0.932758986949921,0.609063565731049,6.78305339813232,3.33251261711121,5.00450229644775,-3.24906158447266
168,sampled_images/20181121_depthmap_0002_0563_01_004.png,6,0,0,-21485.44636,29162.697587,-1406.53195334522,0,1,23.0358664817889,153.518112595512,0.000930106732994,-3.66549444198608,2.25180315971375,1.38297462463379,-3.83422112464905,-3.63958978652954,-2.4238338470459,0.856846690177918,-1.27907717227936
169,sampled_images/20181121_depthmap_0192_0507_01_004.png,6,0,0,-22625.44636,28826.437587,-1373.99704406339,0,1,23.0255785019679,153.514810546232,0.000304461369524,-0.622779667377472,-0.125250056385994,2.04188871383667,7.39022874832153,0.789755523204803,-0.878088295459747,2.26632213592529,2.2116711139679
170,sampled_images/20181121_depthmap_0470_0424_01_004.png,6,0,0,-24293.60636,28328.637587,-1348.55436466715,0,1,23.0105240599418,153.509923479199,4.60971023130696E-05,-2.39294791221619,-0.822337627410889,0.656269609928131,-0.658710598945618,2.46356892585754,2.34757590293884,8.43312931060791,-2.79415011405945
171,sampled_images/20181121_depthmap_1637_0079_01_004.png,6,0,0,-31295.60636,26258.377587,-1244.57303725357,0,1,22.9473315862812,153.489609761206,1.64803568623029E-05,-2.3765287399292,-2.31617212295532,-0.624851703643799,-0.711560428142548,5.86860799789429,2.86916255950928,5.58687543869019,-3.52577352523804
172,sampled_images/20181121_depthmap_0074_0542_01_004.png,6,0,0,-21917.54636,29036.537587,-1382.85294961332,0,1,23.0319669641153,153.516873570747,0.004699911922216,2.26932048797607,5.13478851318359,2.897536277771,-3.19657444953918,-0.673518359661102,-3.89955639839172,-1.95631849765778,0.912953913211822
173,sampled_images/20181121_depthmap_0218_0499_01_004.png,6,0,0,-22781.50636,28778.417587,-1372.87112246184,0,1,23.0241701592907,153.514339160816,7.2637849370949E-05,-4.28457403182983,0.575813293457031,-3.14793276786804,-2.79807996749878,2.22075843811035,1.61874771118164,6.16918230056763,-2.79154086112976
174,sampled_images/20181121_depthmap_0866_0306_01_004.png,6,0,0,-26669.50636,27620.377587,-1294.30139396579,0,1,22.9890822221718,153.502972110907,0.031002994626761,-4.83011054992676,6.86799049377441,3.60845255851746,-4.30187082290649,3.65694332122803,-9.21597003936768,-1.17591917514801,8.77585029602051
175,sampled_images/20181121_depthmap_1424_0141_01_004.png,6,0,0,-30017.60636,26630.477587,-1268.18486749658,0,1,22.9588657678737,153.493259787539,0.000129592532176,3.43507766723633,-1.5906970500946,4.01658344268799,-3.48210477828979,0.772692143917084,2.99830985069275,3.12636542320251,0.331204116344452
176,sampled_images/20181121_depthmap_1405_0147_01_004.png,6,0,0,-29903.38636,26666.577587,-1269.98536927998,0,1,22.9598965734324,153.493613766719,0.000142631979543,-3.46774673461914,1.27497601509094,2.12747359275818,-2.86896920204163,-4.01195669174194,2.5338888168335,6.01101446151733,1.44246625900269
177,sampled_images/20181121_depthmap_0147_0520_01_004.png,6,0,0,-22355.54636,28904.617587,-1384.57879043233,0,1,23.0280142590743,153.515578313939,0.000300372688798,2.86435270309448,-0.423184245824814,-1.72702896595001,5.80219650268555,-0.480006009340286,-1.26598608493805,-0.054879143834114,-0.576732814311981
178,sampled_images/20181121_depthmap_0299_0474_01_004.png,6,0,0,-23267.38636,28628.597587,-1381.62523473821,0,1,23.0197853941557,153.512868544741,1.17616273200838E-05,-6.0920991897583,0.341788768768311,-2.04031300544739,4.12316656112671,7.29971408843994,3.78822207450867,4.33968067169189,-1.85344529151917
179,sampled_images/20181121_depthmap_1502_0119_01_004.png,6,0,0,-30485.44636,26498.417587,-1261.92765249178,0,1,22.9546433734496,153.49196405974,0.003635884961113,0.971109628677368,4.31605386734009,6.49301958084106,-2.85114312171936,-2.99236583709717,-1.28220510482788,0.531605839729309,0.737910151481628
180,sampled_images/20181121_depthmap_0650_0369_01_004.png,6,0,0,-25373.42636,27998.597587,-1327.52491728243,0,1,23.0007791688818,153.506684450225,0.000105529645225,3.3233118057251,-1.41946816444397,2.25358128547668,-0.361023783683777,-0.270381808280945,2.51116967201233,6.96875905990601,-0.936677157878876
181,sampled_images/20181121_depthmap_1429_0140_01_004.png,6,0,0,-30047.58636,26624.677587,-1267.91977443072,0,1,22.958595147417,153.493202715629,3.78393779101316E-05,-3.60230088233948,-0.907191634178162,0.79594486951828,-3.4188973903656,3.34268641471863,3.56598448753357,4.25817489624023,-4.60122966766357
182,sampled_images/20181121_depthmap_0685_0359_01_004.png,6,0,0,-25583.48636,27938.657587,-1317.56405836332,0,1,22.9988833904762,153.506095993916,0.000247928168392,1.61583197116852,4.78000259399414,2.73243379592895,1.12556195259094,-0.764208257198334,3.68537592887878,3.48686099052429,-0.443729072809219
183,sampled_images/20181121_depthmap_0317_0469_01_004.png,6,0,0,-23375.30636,28598.537587,-1379.1201408108,0,1,23.0188114255883,153.512573297052,0.00089394900715,3.2958767414093,-0.77799916267395,2.05613708496094,3.49378061294556,1.79374468326569,-3.06690239906311,-3.14827799797058,-2.7518572807312
184,sampled_images/20181121_depthmap_0031_0555_01_004.png,6,0,0,-21659.66636,29114.537587,-1401.50327412604,0,1,23.0342941748807,153.517639429304,0.000555432168767,-3.27178430557251,-1.52372658252716,-0.123988822102547,-0.280608832836151,1.72971701622009,-2.59029150009155,-3.48385286331177,-0.112234242260456
185,sampled_images/20181121_depthmap_0138_0522_01_004.png,6,0,0,-22301.48636,28916.337587,-1385.14822304012,0,1,23.0285022004137,153.515693668309,4.53127067885362E-05,-1.64843451976776,0.127086624503136,0.770864069461823,0.08798086643219,1.83962225914001,3.91306805610657,5.19482469558716,-7.30565166473389
186,sampled_images/20181121_depthmap_0131_0525_01_004.png,6,0,0,-22259.58636,28934.397587,-1385.8639985034,0,1,23.0288802302656,153.515870647408,2.52768804784864E-05,-3.74254870414734,-0.43533718585968,-0.182168632745743,1.03065240383148,3.02215981483459,3.18689250946045,6.76154041290283,-4.05930042266846
187,sampled_images/20181121_depthmap_1804_0031_01_004.png,6,0,0,-32297.54636,25970.657587,-1241.18866110001,0,1,22.9382887596269,153.48678764013,0.00052018230781,-3.12129473686218,2.32930827140808,1.43581199645996,2.12030267715454,3.53292226791382,-0.981857895851135,-0.463603913784027,-3.8861300945282
188,sampled_images/20181121_depthmap_1509_0117_01_004.png,6,0,0,-30527.66636,26486.557587,-1259.4491666257,0,1,22.9542623238746,153.49184769395,0.000507740944158,-4.07257413864136,0.745608448982239,7.10340309143066,-1.69167160987854,3.36829304695129,0.741604566574097,2.84372997283936,-1.90897762775421
189,sampled_images/20181121_depthmap_0648_0370_01_004.png,6,0,0,-25361.60636,28004.337587,-1327.5233475931,0,1,23.0008858037445,153.506740652369,8.49002026370727E-06,-6.61137342453003,0.46993550658226,-2.67977643013,3.31347727775574,7.48035001754761,3.82405400276184,3.13412499427795,-1.80143082141876
190,sampled_images/20181121_depthmap_1466_0129_01_004.png,6,0,0,-30269.28636,26558.637587,-1268.54438053608,0,1,22.9565942957765,153.49255495628,3.54045587300789E-05,-0.983917891979218,-0.752089381217956,-0.135179609060288,3.09021830558777,3.13770055770874,3.12544417381287,5.27610492706299,-5.99107837677002
191,sampled_images/20181121_depthmap_1869_0003_01_004.png,6,0,0,-32687.38636,25802.677587,-1241.3367854728,0,1,22.9347711791858,153.485143427428,0.000116023787996,3.32115244865417,-1.72826838493347,-1.53941762447357,1.18436276912689,2.64761924743652,0.174342766404152,2.7382287979126,-5.18420648574829
192,sampled_images/20181121_depthmap_1177_0214_01_004.png,6,0,0,-28535.62636,27068.717587,-1290.27888983604,0,1,22.9722406630677,153.497558998175,1.39683597808471E-05,-6.20479011535645,0.014489762485027,-1.42432975769043,0.628606200218201,5.65991067886353,3.63832712173462,4.62626504898071,-1.91091060638428
193,sampled_images/20181121_depthmap_1756_0045_01_004.png,6,0,0,-32009.50636,26054.557587,-1241.76355480794,0,1,22.9408884001292,153.48761047007,2.53062753472477E-05,-2.68283629417419,-1.54401445388794,0.682139813899994,1.26744973659515,4.85445070266724,4.28343343734741,3.94925856590271,-5.69251251220703
194,sampled_images/20181121_depthmap_1413_0145_01_004.png,6,0,0,-29951.38636,26654.657587,-1269.31275951283,0,1,22.9594633341951,153.493496706881,3.49867041222751E-05,-3.72515320777893,-3.72404932975769,-1.981440782547,-1.48685920238495,2.66051888465881,2.50023007392883,3.93103647232056,-0.571033954620361
