,relative_path,altitude [m],roll [deg],pitch [deg],northing [m],easting [m],depth [m],heading [deg],timestamp [s],latitude [deg],longitude [deg],recon_loss,latent_0,latent_1,latent_2,latent_3,latent_4,latent_5,latent_6,latent_7
0,sampled_images/20181129_depthmap_0704_0322_01_004.png,6,0,0,-16463.759096,13732.545887,-1161.50107886144,0,1,23.0814101437695,153.36761363355498,0.0008951132767833769,-6.24977970123291,0.5411127805709839,-1.6087325811386108,0.1768854707479477,4.741931438446045,-0.3278747498989105,2.17950177192688,-1.7966536283493042
1,sampled_images/20181129_depthmap_0963_0151_01_004.png,6,0,0,-18017.499096,12706.725887,-1175.18071723751,0,1,23.0673884720322,153.357588981813,0.0006293462938629091,-4.270820617675781,1.4482946395874023,0.1428595930337906,-3.4391250610351562,1.4759174585342407,2.5434622764587402,-1.8144230842590332,-4.609344959259033
2,sampled_images/20181129_depthmap_0560_0417_01_004.png,6,0,0,-15599.719096,14302.605887,-1177.00544019588,0,1,23.08920735546789,153.373185354368,0.0006167299579828978,-3.4835424423217773,3.5605082511901855,1.4655022621154785,0.30773529410362244,-4.269281387329102,-0.307288259267807,0.26903507113456726,1.6237132549285889
3,sampled_images/20181129_depthmap_0265_0613_01_004.png,6,0,0,-13829.799096,15478.425887,-1210.11490663652,0,1,23.105178625039606,153.384679636444,3.681811358546838e-05,-2.308143138885498,-3.5316433906555176,-1.6068071126937866,2.3114397525787354,-2.3098433017730713,-1.7194104194641113,1.7271610498428345,3.2371203899383545
4,sampled_images/20181129_depthmap_0547_0427_01_004.png,6,0,0,-15521.539096,14362.505887,-1181.52439131691,0,1,23.089912779874602,153.373770731473,0.0007886954117566347,-1.4588782787322998,1.1139118671417236,-1.201128363609314,-3.816481590270996,-0.5989258289337158,1.6763662099838257,-1.9707120656967163,-4.930212020874023
5,sampled_images/20181129_depthmap_0906_0189_01_004.png,6,0,0,-17675.619096000002,12934.345887,-1170.34012587221,0,1,23.0704737986978,153.35981315556,0.0002489892649464309,-2.9058291912078857,2.7292943000793457,-4.470101833343506,-0.2670435607433319,-2.82462739944458,0.7573997378349304,3.3141427040100098,1.3506723642349243
6,sampled_images/20181129_depthmap_0965_0151_01_004.png,6,0,0,-18029.739096,12706.505887,-1175.4660144040402,0,1,23.0672779497509,153.357586733594,9.066242637345567e-05,-0.12644359469413757,-3.5248806476593018,-1.4633734226226807,1.3103537559509277,-0.07350938767194748,-3.886770009994507,3.7033708095550537,2.3309576511383057
7,sampled_images/20181129_depthmap_0329_0570_01_004.png,6,0,0,-14213.719096,15220.345887,-1201.98052530426,0,1,23.101714339754,153.382156575571,0.0010042502544820309,-4.920443534851074,1.6524858474731445,-1.780344009399414,-2.4372854232788086,-0.6471644639968872,-0.2612462341785431,-1.7168080806732178,-2.3441829681396484
8,sampled_images/20181129_depthmap_0159_0683_01_004.png,6,0,0,-13193.599096,15898.405887,-1178.27711896144,0,1,23.1109193280154,153.388785872195,0.0035965717397630215,1.3174042701721191,-0.5895872712135315,1.2156306505203247,6.035984039306641,0.3396182954311371,0.04814603924751282,-3.0839710235595703,-0.3946400284767151
9,sampled_images/20181129_depthmap_0350_0556_01_004.png,6,0,0,-14339.779096,15136.485887,-1202.01580493429,0,1,23.1005768255547,153.38133675219402,1.846653140091803e-05,-0.44411590695381165,-2.176499605178833,2.6259589195251465,-5.252976894378662,-1.614807367324829,3.625676393508911,1.8299089670181274,-0.05013778805732727
10,sampled_images/20181129_depthmap_1017_0117_01_004.png,6,0,0,-18341.739096,12502.585887,-1182.96979090591,0,1,23.0644622203238,153.355594184277,4.220374103169888e-05,-1.0405409336090088,-2.119019031524658,3.2713582515716553,-4.259195327758789,-1.8203282356262207,4.53917932510376,0.4042794704437256,0.33710235357284546
11,sampled_images/20181129_depthmap_0849_0226_01_004.png,6,0,0,-17333.579096,13156.385887,-1168.88684276598,0,1,23.073560581420804,153.361982975858,0.000569850264582783,-5.879605293273926,0.8628557920455933,-0.47449445724487305,-3.976706027984619,-0.2849043607711792,-0.6654426455497742,0.6297339200973511,-4.891070365905762
12,sampled_images/20181129_depthmap_0756_0288_01_004.png,6,0,0,-16775.659096,13528.665887,-1169.65236805556,0,1,23.0785954503464,153.365621057728,0.0004427726089488715,4.249231338500977,-0.04412263259291649,-0.4905461370944977,-3.2731175422668457,2.6712398529052734,0.9358184337615967,4.283233165740967,-2.5254271030426025
13,sampled_images/20181129_depthmap_0930_0174_01_004.png,6,0,0,-17819.839096,12844.545887,-1172.1101981627498,0,1,23.069172228278603,153.358935590513,0.0009058344876393676,-2.723688840866089,2.821028709411621,5.577661514282227,0.3234909176826477,-1.8674324750900269,-1.1620945930480957,2.572845935821533,-1.5730347633361816
14,sampled_images/20181129_depthmap_0918_0181_01_004.png,6,0,0,-17747.539096,12886.705887,-1171.22175028261,0,1,23.069824751065006,153.359347632976,0.000613100768532604,-3.819559335708618,3.081721782684326,0.5826859474182129,-1.8233356475830078,-0.9817172288894653,-0.8130168914794922,-2.2924234867095947,2.7363855838775635
15,sampled_images/20181129_depthmap_0917_0181_01_004.png,6,0,0,-17741.579096,12886.685887,-1171.78124193598,0,1,23.0698785684247,153.35934748782302,0.00307299941778183,-0.22511418163776398,3.9615604877471924,-0.20765715837478638,-0.2946641445159912,3.0764803886413574,-2.9015073776245117,-2.1939823627471924,2.6151018142700195
16,sampled_images/20181129_depthmap_0648_0359_01_004.png,6,0,0,-16127.779096,13954.525887,-1170.84788508712,0,1,23.084442093901306,153.36978316741101,0.001957218861207366,-0.8587020635604858,-2.5906383991241455,5.3706841468811035,3.4135231971740723,1.278743028640747,0.008914882317185402,-0.7346934080123901,-3.211315870285034
17,sampled_images/20181129_depthmap_1092_0068_01_004.png,6,0,0,-18791.739096,12208.685887,-1177.0999276223,0,1,23.060401023898397,153.352722563184,0.0019065644592046738,-2.2872257232666016,-3.1599178314208984,1.977259635925293,-2.4618170261383057,1.8556257486343384,-1.819506049156189,-1.2013462781906128,-5.931070804595947
18,sampled_images/20181129_depthmap_0388_0531_01_004.png,6,0,0,-14567.779096,14986.685887,-1191.97054428601,0,1,23.0985194178687,153.37987229996202,0.004968992434442043,2.881742238998413,2.927567958831787,-0.02250063046813011,5.103278160095215,0.8357230424880981,1.529326319694519,-2.154301166534424,-1.3795660734176636
19,sampled_images/20181129_depthmap_0721_0311_01_004.png,6,0,0,-16565.479096,13666.465887,-1164.95720990063,0,1,23.0804921868493,153.366967800663,0.00036252036807127297,2.4115591049194336,-0.18183459341526031,-1.516667366027832,-1.0832865238189697,0.6458402872085571,5.620147228240967,1.8076778650283813,-3.8997557163238525
20,sampled_images/20181129_depthmap_0160_0683_01_004.png,6,0,0,-13199.799096,15898.425887,-1178.6117747830401,0,1,23.1108633438449,153.388786003083,0.001527902320958674,-2.612416982650757,-0.3768787980079651,2.081305742263794,2.448883056640625,4.908054828643799,-0.13656771183013916,-1.981300950050354,-0.060515791177749634
21,sampled_images/20181129_depthmap_0244_0627_01_004.png,6,0,0,-13703.539096,15562.705887,-1211.77906104944,0,1,23.106317922909106,153.385503617932,7.906191603979096e-05,-0.16305457055568695,0.23941870033740997,0.7196201682090759,0.970954954624176,-1.5330594778060913,2.9259607791900635,2.6549456119537354,5.211855888366699
22,sampled_images/20181129_depthmap_0324_0574_01_004.png,6,0,0,-14183.499096,15244.585887,-1202.6848804998199,0,1,23.101986994025,153.382393488854,0.00011384928075131029,-0.6308729648590088,2.7004787921905518,-1.3021595478057861,2.148908853530884,-0.8275769352912903,2.650261878967285,4.420216083526611,3.0474722385406494
23,sampled_images/20181129_depthmap_0682_0337_01_004.png,6,0,0,-16331.759096000002,13822.725887,-1164.1133947115,0,1,23.0826013169466,153.368494960553,0.009323733858764172,-0.10705825686454773,3.4085044860839844,0.5620078444480896,2.675974130630493,1.1154911518096924,0.17387518286705017,-2.156769037246704,-5.579091548919678
24,sampled_images/20181129_depthmap_0555_0422_01_004.png,6,0,0,-15569.539096,14332.645887,-1180.6120048928199,0,1,23.0894796125078,153.373478837319,0.011552819050848484,-1.761567234992981,5.6554274559021,-1.3151060342788696,1.719123363494873,2.8488173484802246,1.0153334140777588,-2.438459873199463,-5.236880779266357
25,sampled_images/20181129_depthmap_0105_0718_01_004.png,6,0,0,-12869.819096,16108.665887,-1180.2152963156,0,1,23.113840923059502,153.390841816845,0.0012647475814446807,-5.440881252288818,0.8603774309158325,4.8401875495910645,0.9013247489929199,0.6106587648391724,1.5940485000610352,1.2073065042495728,-2.7269465923309326
26,sampled_images/20181129_depthmap_0065_0744_01_004.png,6,0,0,-12629.839096,16264.705887,-1171.0082319570402,0,1,23.116006337294106,153.392367646986,0.0021468892227858305,-5.187551021575928,-1.9935648441314697,3.944674015045166,3.8626186847686768,2.7640960216522217,0.7218296527862549,-0.310396671295166,-3.7895758152008057
27,sampled_images/20181129_depthmap_0079_0736_01_004.png,6,0,0,-12713.539096,16216.505887,-1166.29898093024,0,1,23.115251026971002,153.391896218856,0.0001546097337268293,-1.3584920167922974,-3.065779209136963,-3.3303475379943848,-2.6936628818511963,3.0744423866271973,-0.4633253514766693,-2.2011220455169678,1.0244686603546143
28,sampled_images/20181129_depthmap_1006_0123_01_004.png,6,0,0,-18275.779096,12538.445887,-1182.4827777356402,0,1,23.065057551405395,153.35594466515698,3.253638351452537e-05,1.5948389768600464,-0.0030378298833966255,1.6802144050598145,-0.18326488137245178,-6.2380571365356445,0.224607452750206,1.6598634719848633,-0.5785906314849854
29,sampled_images/20181129_depthmap_1130_0042_01_004.png,6,0,0,-19019.619096,12052.565887,-1177.85703865727,0,1,23.058344465992498,153.351197312712,2.643046718731057e-05,-1.9084761142730713,-2.6124558448791504,0.466743528842926,-2.2974019050598145,0.32758182287216187,-0.02013932354748249,3.8337323665618896,3.5151755809783936
30,sampled_images/20181129_depthmap_0361_0549_01_004.png,6,0,0,-14405.819096,15094.725887,-1199.90483588997,0,1,23.099980885855498,153.380928475443,0.0002320318453712389,-1.1425927877426147,0.5331030488014221,-4.382148742675781,-3.4193103313446045,-0.5748202800750732,-2.8253591060638428,-1.186505913734436,0.056312501430511475
31,sampled_images/20181129_depthmap_0151_0688_01_004.png,6,0,0,-13145.839096,15928.445887,-1176.0076200098802,0,1,23.111350296552402,153.389079616661,0.006909592542797327,2.772068500518799,3.0873866081237793,-0.3291774392127991,3.188876152038574,3.139374017715454,1.8873562812805176,-1.450433611869812,-4.417561054229736
32,sampled_images/20181129_depthmap_0689_0333_01_004.png,6,0,0,-16373.519096,13798.585887,-1166.12477222157,0,1,23.0822244371073,153.368258981593,0.00019204287673346698,-4.396484375,-1.6027519702911377,-2.740713596343994,3.1252996921539307,-1.8226451873779297,-2.936108112335205,1.3560868501663208,1.1152265071868896
33,sampled_images/20181129_depthmap_0813_0251_01_004.png,6,0,0,-17117.679096,13306.725887,-1170.7508778857,0,1,23.075508900085893,153.363452049402,0.0004021590284537524,-0.8644008636474609,2.500011444091797,0.4639069437980652,-2.8865623474121094,0.16893528401851654,5.066262245178223,-2.4668467044830322,-2.2876288890838623
34,sampled_images/20181129_depthmap_1174_0014_01_004.png,6,0,0,-19283.519096,11884.385887,-1175.50397381991,0,1,23.055962727371305,153.349554148769,0.00011862806422868744,2.8400092124938965,-2.939096689224243,-2.396198034286499,-2.146059989929199,-0.9017238616943359,-1.509171485900879,3.1533491611480713,2.8034675121307373
35,sampled_images/20181129_depthmap_0317_0579_01_004.png,6,0,0,-14141.659096,15274.665887,-1203.30099967778,0,1,23.102364519046503,153.382687524837,9.222781955031678e-06,-0.6383500099182129,-2.318145751953125,1.554043173789978,-4.65622091293335,-1.2537606954574585,2.404881477355957,3.8999879360198975,0.16843107342720032
36,sampled_images/20181129_depthmap_0643_0363_01_004.png,6,0,0,-16097.819096,13978.485887,-1172.33246879279,0,1,23.084712422242397,153.37001729018,0.001413299236446619,-2.7927188873291016,0.2565827965736389,6.161839008331299,-2.6081135272979736,0.10878439247608185,-0.8217353820800781,-1.939631700515747,-2.5589747428894043
37,sampled_images/20181129_depthmap_0339_0563_01_004.png,6,0,0,-14273.679096000002,15178.485887,-1201.9482965552,0,1,23.101173303716894,153.381747375841,8.83088941918686e-05,-0.48718559741973877,-4.7986626625061035,0.3643454313278198,0.22770537436008453,-2.917658805847168,-0.08695610612630844,0.7191500663757324,1.5060547590255737
38,sampled_images/20181129_depthmap_0074_0740_01_004.png,6,0,0,-12683.539096,16240.685887,-1169.7687550557598,0,1,23.115521679980997,153.392132587567,0.00034565027453936636,-5.375068664550781,1.6646754741668701,-3.7264442443847656,1.5034189224243164,-3.13454270362854,0.9705578088760376,1.9312351942062378,-0.8648601770401001
39,sampled_images/20181129_depthmap_0444_0495_01_004.png,6,0,0,-14903.539096,14770.605887,-1173.86353046631,0,1,23.095489547935802,153.377759903634,0.0033654188737273216,1.0853257179260254,-1.0301588773727417,0.8412876129150391,5.402919769287109,-0.2897064983844757,-0.9416865706443787,-4.112177848815918,0.7175663709640503
40,sampled_images/20181129_depthmap_0205_0652_01_004.png,6,0,0,-13469.539096,15712.605887,-1193.7202224339098,0,1,23.1084294525381,153.38696927861602,0.006974459160119295,2.359879970550537,5.915870189666748,1.2798378467559814,2.1489343643188477,3.0864949226379395,1.107588529586792,-0.8544468283653259,-2.712293863296509
41,sampled_images/20181129_depthmap_0220_0642_01_004.png,6,0,0,-13559.799096,15652.425887,-1196.47999880926,0,1,23.107615003623,153.38638089538298,0.004034081008285284,3.370321750640869,-0.04582487419247627,-0.2823927402496338,3.10538387298584,4.4685258865356445,-0.7542545199394226,-2.3907034397125244,0.7563623189926147
42,sampled_images/20181129_depthmap_0116_0712_01_004.png,6,0,0,-12935.739096,16072.385887,-1172.7102487096902,0,1,23.113246039765897,153.390486955287,0.019464794546365738,-2.4361140727996826,4.461483001708984,1.8669904470443726,1.0809175968170166,0.6582377552986145,0.535439670085907,-2.949754238128662,-6.996537208557129
43,sampled_images/20181129_depthmap_0902_0191_01_004.png,6,0,0,-17651.539096,12946.465887,-1170.07990158855,0,1,23.0706911401018,153.35993163773998,4.438685209606774e-05,0.06859374046325684,-3.3190410137176514,-0.6709551215171814,1.4853930473327637,-0.23956413567066193,0.31246232986450195,3.555931568145752,4.771279335021973
44,sampled_images/20181129_depthmap_0345_0559_01_004.png,6,0,0,-14309.699096,15154.585887,-1202.06396801019,0,1,23.100848273131103,153.381513726748,5.706167212338187e-05,-0.38435161113739014,-2.295506477355957,2.4763848781585693,-1.8853768110275269,0.7452853322029114,2.519231081008911,0.05490909144282341,4.241893768310547
45,sampled_images/20181129_depthmap_0170_0676_01_004.png,6,0,0,-13259.679096,15856.605887,-1190.3013946764802,0,1,23.1103230479022,153.388377140256,0.00027581097674556077,-0.255666047334671,-4.585323810577393,0.9825872778892517,-4.325056552886963,3.299750328063965,-0.6781859993934631,-1.4472633600234985,-0.22007684409618378
46,sampled_images/20181129_depthmap_0041_0760_01_004.png,6,0,0,-12485.539096,16360.465887,-1182.30444373692,0,1,23.1173083744843,153.393304024389,0.003278606804087758,0.8074501156806946,2.2965309619903564,0.23003268241882324,5.046735763549805,-0.3989091217517853,-0.05647830665111542,-4.197198390960693,0.9791637063026428
47,sampled_images/20181129_depthmap_0902_0192_01_004.png,6,0,0,-17651.599096,12952.725887,-1170.08201389024,0,1,23.070690549460807,153.35999272869,0.0004412476846482605,2.631883144378662,1.975050449371338,-2.742743968963623,1.949122667312622,-0.501903772354126,-3.4918837547302246,3.631951332092285,1.4963641166687012
48,sampled_images/20181129_depthmap_0626_0373_01_004.png,6,0,0,-15995.739096,14038.585887,-1174.19432667056,0,1,23.085633667349402,153.370604801968,3.034275687241461e-05,-2.837883710861206,-3.287752628326416,2.170652151107788,-4.087728023529053,-0.7987359166145325,1.4926724433898926,3.817453145980835,1.5192985534667969
49,sampled_images/20181129_depthmap_0577_0407_01_004.png,6,0,0,-15701.859096,14242.645887,-1178.12321401247,0,1,23.0882855775523,153.37259917526,0.0021462668664753437,1.583587884902954,1.3275424242019653,2.914083957672119,0.15769344568252563,3.805554151535034,0.4161835014820099,0.5485234260559082,3.6256959438323975
50,sampled_images/20181129_depthmap_0245_0626_01_004.png,6,0,0,-13709.719096,15556.505887,-1211.79445598282,0,1,23.1062621777245,153.385443033387,1.2769785826094449e-05,-0.5252977013587952,-1.8134841918945312,0.2611500024795532,-3.5013415813446045,-3.024193525314331,1.1337270736694336,5.155294895172119,0.4870005249977112
51,sampled_images/20181129_depthmap_0758_0286_01_004.png,6,0,0,-16787.639096000006,13516.725887,-1169.8720805037801,0,1,23.078487371647807,153.36550442273997,1.6483847502968274e-05,0.8124462366104126,-2.5101430416107178,1.6580475568771362,-2.9348061084747314,-2.715268135070801,0.8622325658798218,4.12109899520874,1.0778930187225342
52,sampled_images/20181129_depthmap_1105_0059_01_004.png,6,0,0,-18869.639096000006,12154.625887,-1177.43028675534,0,1,23.0596980033956,153.352194414227,0.0011625783517956734,-4.792829513549805,0.7054054737091064,0.9740894436836243,1.881603479385376,-0.41391777992248535,3.747251510620117,1.7039158344268799,-5.47597599029541
53,sampled_images/20181129_depthmap_0985_0137_01_004.png,6,0,0,-18149.759096,12622.625887,-1178.44226424352,0,1,23.066194840889,153.35676718109102,2.1337520593078807e-05,2.6586625576019287,-0.5366390943527222,2.5005416870117188,-1.9074907302856445,-5.1163249015808105,2.1840999126434326,1.7219855785369873,-0.5854781866073608
54,sampled_images/20181129_depthmap_0369_0544_01_004.png,6,0,0,-14453.579096,15064.405887,-1199.33656971473,0,1,23.0995499038068,153.380632048738,1.4682620530948043e-05,-3.9154324531555176,-3.503394365310669,-0.19070810079574585,-2.354931592941284,-0.5576877593994141,0.5104953646659851,5.726665019989014,-0.7537734508514404
55,sampled_images/20181129_depthmap_0407_0519_01_004.png,6,0,0,-14681.479096,14914.385887,-1194.85498119128,0,1,23.0974933941536,153.379165471989,0.0003220477083232254,4.653989315032959,-1.9480235576629639,2.510695695877075,-2.135636329650879,2.4728333950042725,3.9358432292938232,2.8484115600585938,-2.3106045722961426
56,sampled_images/20181129_depthmap_0139_0696_01_004.png,6,0,0,-13073.859096,15976.425887,-1163.0506255901598,0,1,23.111999790188197,153.38954874543998,0.0040754093788564205,2.791376829147339,2.946089267730713,0.16884225606918335,4.649641036987305,0.28751641511917114,1.4239826202392578,-2.149346113204956,-1.3071777820587158
57,sampled_images/20181129_depthmap_0825_0242_01_004.png,6,0,0,-17189.779096000002,13252.505887,-1168.5253205558,0,1,23.0748582909724,153.362922274092,0.0002366505650570616,2.60864520072937,-1.8942005634307861,1.4129014015197754,-0.8846362233161926,1.2407829761505127,6.1786723136901855,-1.7327975034713745,-2.9946558475494385
58,sampled_images/20181129_depthmap_0020_0775_01_004.png,6,0,0,-12359.599096,16450.645887,-1174.94271117925,0,1,23.118444676653,153.394185748086,0.0014105230802670121,-5.680629730224609,0.46205198764801025,1.6774063110351562,-1.7579162120819092,2.3424839973449707,-3.3587398529052734,-2.024202823638916,1.4215912818908691
59,sampled_images/20181129_depthmap_0823_0244_01_004.png,6,0,0,-17177.619096000002,13264.465887,-1169.30091424123,0,1,23.074967996841306,153.363039100624,0.00048656880971975625,-1.01136314868927,4.71091365814209,1.4490679502487183,-0.7975128889083862,-3.9515762329101562,2.3116326332092285,0.7135642766952515,-0.42724066972732544
60,sampled_images/20181129_depthmap_1050_0095_01_004.png,6,0,0,-18539.779096,12370.385887,-1182.37582324319,0,1,23.0626749609772,153.354302506051,0.00211633020080626,-0.5905203223228455,0.6309643387794495,4.481754779815674,1.7912302017211914,4.367389678955078,-0.8042998313903809,0.29562249779701233,2.7356576919555664
61,sampled_images/20181129_depthmap_0999_0128_01_004.png,6,0,0,-18233.499096,12568.365887,-1180.86393881737,0,1,23.065439102444202,153.35623698890498,0.0018993810517713428,-3.3095505237579346,1.6986294984817505,4.8910722732543945,4.370445728302002,0.6770824790000916,1.4950364828109741,-1.295164942741394,1.6392148733139038
62,sampled_images/20181129_depthmap_0063_0746_01_004.png,6,0,0,-12617.839096,16276.605887,-1170.6831843575999,0,1,23.1161145763417,153.39248394563802,0.0022635115310549736,-5.024783134460449,-2.459207534790039,2.532548189163208,0.9699719548225403,0.1245519295334816,-0.20029781758785248,-4.525034427642822,-0.5577602982521057
63,sampled_images/20181129_depthmap_0786_0268_01_004.png,6,0,0,-16955.599096,13408.685887,-1169.73399847697,0,1,23.0769716165857,153.36444853026399,0.0007020265329629183,-2.2367584705352783,2.1019632816314697,1.535374641418457,0.21717867255210876,1.8559129238128662,5.118216514587402,3.6691908836364746,-3.0181691646575928
64,sampled_images/20181129_depthmap_0518_0446_01_004.png,6,0,0,-15347.499096,14476.685887,-1187.1311804311301,0,1,23.091483316122197,153.374886816931,0.00033383077243342996,0.3553162217140198,-0.18204905092716217,-0.4004402160644531,0.9140943884849548,0.7016785740852356,6.764542102813721,1.1804542541503906,-5.657082557678223
65,sampled_images/20181129_depthmap_0763_0284_01_004.png,6,0,0,-16817.679096,13504.565887,-1168.97387462167,0,1,23.0782162179,153.3653854819,0.0012278229696676135,-2.0139882564544678,-0.1884894073009491,4.0306596755981445,0.5909844636917114,5.840756416320801,-0.4593503475189209,2.7910444736480713,-1.036760926246643
66,sampled_images/20181129_depthmap_0977_0142_01_004.png,6,0,0,-18101.499096,12652.585887,-1177.69072594855,0,1,23.06663038785189,153.35705994924498,0.00032881589140743017,4.894222736358643,-0.7885910272598267,1.201917052268982,-4.092000961303711,1.4188766479492188,3.1541879177093506,1.0856475830078125,-0.8870484828948975
67,sampled_images/20181129_depthmap_0218_0644_01_004.png,6,0,0,-13547.799096,15664.605887,-1197.16908521637,0,1,23.107723244615002,153.38649991526398,0.003675188170745969,-2.5242409706115723,-2.225238084793091,-0.8809497356414795,3.073219060897827,1.8711073398590088,-1.4588425159454346,-4.5644731521606445,-2.922691583633423
68,sampled_images/20181129_depthmap_0189_0662_01_004.png,6,0,0,-13373.539096,15772.425887,-1193.79595921525,0,1,23.1092957329081,153.387554213816,3.917779395123944e-05,0.6330236196517944,-1.492231845855713,1.8518908023834229,1.162815809249878,-4.826040267944336,-1.7051374912261963,3.7954635620117188,-0.7152502536773682
69,sampled_images/20181129_depthmap_0378_0538_01_004.png,6,0,0,-14507.779096,15028.465887,-1195.0026662161301,0,1,23.0990608209413,153.380280703617,0.005650061648339033,1.8830444812774658,2.0620362758636475,0.7442752718925476,4.109984397888184,-1.802817940711975,1.1924176216125488,-4.302894592285156,-2.9732115268707275
70,sampled_images/20181129_depthmap_0605_0388_01_004.png,6,0,0,-15869.799096,14128.645887,-1174.4059909254304,0,1,23.086770103931602,153.371484955926,0.0007299531134776771,-3.7746810913085938,3.190477132797241,0.10727813839912415,3.2692806720733643,2.575275421142578,-0.5771674513816833,5.1868510246276855,-0.551395058631897
71,sampled_images/20181129_depthmap_0698_0326_01_004.png,6,0,0,-16427.639096000006,13756.585887,-1165.96736850349,0,1,23.081736097860304,153.367848582737,0.00021068312344141304,-0.244949072599411,-0.8728457689285278,-5.110221862792969,2.900263547897339,-2.215669870376587,0.1588624119758606,-1.332712173461914,-1.272001028060913
72,sampled_images/20181129_depthmap_0614_0381_01_004.png,6,0,0,-15923.499096,14086.545887,-1175.91263532688,0,1,23.086285566796604,153.371073559417,3.26166300510522e-05,2.862757444381714,-2.188502550125122,2.1502795219421387,1.475739598274231,-4.208522319793701,0.6393495202064514,3.354837417602539,-1.066510796546936
73,sampled_images/20181129_depthmap_0828_0241_01_004.png,6,0,0,-17207.859096,13246.445887,-1166.47060417103,0,1,23.0746950819381,153.36286297658899,0.0008375467732548714,-1.1377109289169312,2.462480068206787,1.919575810432434,4.933790683746338,1.907284140586853,4.789125442504883,2.203232765197754,-0.24462829530239105
74,sampled_images/20181129_depthmap_0126_0704_01_004.png,6,0,0,-12995.719096,16024.485887,-1155.45963291899,0,1,23.1127049043528,153.390018724154,0.0004379542951937765,-0.3454459309577942,4.824324131011963,-0.5277134776115417,-0.43507012724876404,-1.436490774154663,0.2955695390701294,3.728088617324829,2.273439645767212
75,sampled_images/20181129_depthmap_0399_0525_01_004.png,6,0,0,-14633.559096,14950.545887,-1191.4676149678696,0,1,23.0979257711852,153.379518895144,0.007406060583889484,-0.28952157497406006,3.188612937927246,0.40458133816719055,1.855023980140686,0.17784397304058075,0.7029836177825928,-4.2711591720581055,-5.8369855880737305
76,sampled_images/20181129_depthmap_0678_0339_01_004.png,6,0,0,-16307.639096,13834.645887,-1167.4687075552804,0,1,23.0828190142503,153.368611515761,0.0003689971927087754,-2.217902421951294,4.333405494689941,-1.6591466665267944,0.16291043162345886,-1.4344563484191895,2.0797882080078125,4.6691789627075195,1.2970243692398071
77,sampled_images/20181129_depthmap_0377_0538_01_004.png,6,0,0,-14501.539096,15028.485887,-1196.59737551036,0,1,23.0991171660317,153.380280960019,0.003906681202352047,0.8372083902359009,2.334352493286133,0.0018342171097174287,4.262077331542969,1.8448290824890137,-1.0620442628860474,-4.229129791259766,1.9997923374176025
78,sampled_images/20181129_depthmap_1085_0072_01_004.png,6,0,0,-18749.519096,12232.425887,-1176.24809768453,0,1,23.0607820849685,153.352954560943,0.00037880169111303985,0.6966549754142761,3.3924076557159424,0.2376023232936859,3.570047378540039,0.9435740113258362,0.8914093971252441,5.5802226066589355,2.075096845626831
79,sampled_images/20181129_depthmap_1076_0078_01_004.png,6,0,0,-18695.859096,12268.445887,-1178.24798979957,0,1,23.061266355235,153.353306483723,0.0002546302566770464,3.0240752696990967,1.80133056640625,-2.21884822845459,-3.9319894313812256,0.7348935604095459,2.5382399559020996,0.21710523962974548,-0.02513069286942482
80,sampled_images/20181129_depthmap_0076_0737_01_004.png,6,0,0,-12695.779096,16222.565887,-1167.67877979018,0,1,23.115411334499196,153.391955566065,0.0006471753586083651,-3.1907458305358887,4.101495265960693,0.8197728395462036,-0.06806284934282303,1.1469231843948364,-2.077874183654785,5.277658939361572,0.7443271279335022
81,sampled_images/20181129_depthmap_0007_0783_01_004.png,6,0,0,-12281.559096,16498.705887,-1172.7457090729902,0,1,23.1191488732044,153.394655772512,0.0003020691510755569,-2.0785410404205322,2.201117515563965,-2.10479736328125,1.6431187391281128,-2.1936330795288086,4.106595993041992,2.386481523513794,1.3884788751602173
82,sampled_images/20181129_depthmap_0822_0245_01_004.png,6,0,0,-17171.579096,13270.465887,-1169.5055574364098,0,1,23.075022488393504,153.363097708802,3.306315920781344e-05,0.7497560977935791,-2.061077833175659,2.049433708190918,0.3303549587726593,-4.156869888305664,-0.6586412191390991,3.6932339668273926,0.28344911336898804
83,sampled_images/20181129_depthmap_0594_0395_01_004.png,6,0,0,-15803.699096,14170.525887,-1178.16661079151,0,1,23.0873666102076,153.37189432270299,0.0053772893734276295,3.022935390472412,2.310906171798706,-0.5290497541427612,2.5876569747924805,4.469186782836914,1.7515610456466675,-1.2033724784851074,-3.332612991333008
84,sampled_images/20181129_depthmap_0237_0631_01_004.png,6,0,0,-13661.499096,15586.525887,-1211.24833872655,0,1,23.1066973066903,153.385736566446,2.183191645599436e-05,2.756843328475952,-1.6656438112258911,2.7652323246002197,-1.9917799234390259,-3.780087947845459,2.001629590988159,3.352140188217163,0.4392949938774109
85,sampled_images/20181129_depthmap_0362_0548_01_004.png,6,0,0,-14411.539096,15088.405887,-1199.36053904915,0,1,23.0999292935956,153.380866728827,0.0002613687247503549,-4.879195213317871,-3.19877552986145,-4.488635063171387,1.789755940437317,2.05690598487854,0.2393595576286316,-0.48006272315979004,-0.6212540864944458
86,sampled_images/20181129_depthmap_0558_0419_01_004.png,6,0,0,-15587.579096,14314.445887,-1177.27097028863,0,1,23.0893168738909,153.373301030218,0.00015473963867407292,-0.4747416079044342,-2.2315449714660645,-2.7175724506378174,-0.6699143052101135,2.063271999359131,3.6455070972442627,-2.1040680408477783,1.398829460144043
87,sampled_images/20181129_depthmap_0121_0707_01_004.png,6,0,0,-12965.479096,16042.685887,-1155.9283444656098,0,1,23.112977785377197,153.390196710027,0.000660351593978703,-3.6204347610473633,4.666240692138672,3.225127696990967,-1.5458736419677734,-2.310850143432617,0.7017925977706909,-0.19945216178894043,0.10804744064807892
88,sampled_images/20181129_depthmap_1056_0091_01_004.png,6,0,0,-18575.639096000006,12346.445887,-1182.86088415758,0,1,23.0623513326574,153.354068600678,0.0014188509667292237,-0.7766741514205933,-1.5289791822433472,3.7296011447906494,0.15572617948055267,6.172640323638916,4.151617527008057,2.7353062629699707,1.078991174697876
89,sampled_images/20181129_depthmap_0699_0325_01_004.png,6,0,0,-16433.619096000002,13750.525887,-1165.8300860753698,0,1,23.0816821504198,153.36778938467899,0.0010528804268687963,2.023345708847046,0.7210204601287842,4.537118911743164,-3.046621799468994,0.7156980037689209,-2.672131299972534,0.15216533839702606,-2.436418294906616
90,sampled_images/20181129_depthmap_0713_0317_01_004.png,6,0,0,-16517.639096000006,13702.445887,-1165.43443046515,0,1,23.080923871624197,153.367319382723,8.152457303367555e-05,3.918919563293457,-1.606264591217041,1.1684826612472534,-0.19313748180866241,0.7613406181335449,1.3667142391204834,4.643155574798584,2.597614288330078
91,sampled_images/20181129_depthmap_0419_0512_01_004.png,6,0,0,-14753.619096,14872.465887,-1183.5658224361,0,1,23.096842368811608,153.378755593257,0.004866615869104862,1.8611968755722046,3.5558021068573,0.1418752372264862,4.230217456817627,1.5515038967132568,0.9359672665596008,-2.3639938831329346,-0.2856494188308716
92,sampled_images/20181129_depthmap_0532_0436_01_004.png,6,0,0,-15431.599096000002,14416.425887,-1185.2898724177699,0,1,23.090724443344893,153.37429785775498,0.003384446259588003,-0.7548987865447998,-2.1718907356262207,3.6054482460021973,2.2764673233032227,-0.7669152617454529,-0.10524342954158783,-4.801691055297852,-2.347390651702881
93,sampled_images/20181129_depthmap_0766_0282_01_004.png,6,0,0,-16835.799096000002,13492.625887,-1169.94536169152,0,1,23.0780526965343,153.365268793443,0.0006056355778127909,-3.994943857192993,0.5206891298294067,-3.8126773834228516,0.22422665357589722,-4.336687088012695,-2.0437026023864746,-0.6206652522087097,-1.2038377523422241
94,sampled_images/20181129_depthmap_0652_0356_01_004.png,6,0,0,-16151.479096,13936.565887,-1171.84778435676,0,1,23.0842282407788,153.369607662375,5.2505794883472845e-05,-0.6965060234069824,-3.374056577682495,2.955620527267456,-3.164855480194092,-3.0948381423950195,1.5952404737472534,1.0312092304229736,1.4491519927978516
95,sampled_images/20181129_depthmap_0352_0555_01_004.png,6,0,0,-14351.779096,15130.465887,-1202.06786376655,0,1,23.100468524274202,153.381277871503,2.891446820285637e-05,-0.27480822801589966,-0.6034135818481445,2.5164613723754883,-5.251575469970703,-0.42449307441711426,4.84591007232666,3.2702348232269287,1.100383996963501
96,sampled_images/20181129_depthmap_0941_0166_01_004.png,6,0,0,-17885.779096000002,12796.585887,-1172.8753262725802,0,1,23.068577178193106,153.358467003639,0.002850100863724947,-1.9538195133209229,-1.4737377166748047,0.9654992818832397,1.274603009223938,7.059454441070557,0.49928489327430725,-1.6653618812561035,-1.0212409496307373
97,sampled_images/20181129_depthmap_0084_0732_01_004.png,6,0,0,-12743.479096,16192.465887,-1166.4627740038302,0,1,23.1149809140033,153.39166121843598,0.00029342278139665723,0.4116780161857605,4.720047950744629,-1.150437355041504,-2.7390315532684326,-1.0421428680419922,2.8711986541748047,4.033168315887451,2.1778805255889893
98,sampled_images/20181129_depthmap_0960_0154_01_004.png,6,0,0,-17999.579096,12724.525887,-1173.0467247082304,0,1,23.067550148502,153.357762836619,0.0031324478331953287,0.6534078121185303,-0.316646009683609,1.5715054273605347,1.8704631328582764,6.372784614562988,4.611294269561768,-1.2162227630615234,0.4120405316352844
99,sampled_images/20181129_depthmap_0338_0565_01_004.png,6,0,0,-14267.639096,15190.685887,-1201.0407657589,0,1,23.1012277312173,153.381866522473,0.0009173238067887723,-2.697075843811035,2.6267640590667725,2.579535484313965,1.5253747701644897,2.5842344760894775,1.7415691614151,5.807536602020264,-0.9300747513771057
100,sampled_images/20181129_depthmap_1180_0009_01_004.png,6,0,0,-19319.739096,11854.525887,-1175.46350176069,0,1,23.055635883221694,153.34926249662598,1.5441826690221205e-05,-0.26576682925224304,-1.9953765869140625,0.60738205909729,-4.285952568054199,-3.6180450916290283,1.8970739841461182,3.8402962684631348,-1.996936559677124
101,sampled_images/20181129_depthmap_0322_0575_01_004.png,6,0,0,-14171.559096,15250.405887,-1202.79701122487,0,1,23.1020947549203,153.38245041825502,0.00012700146180577576,-3.186591863632202,-2.3761160373687744,-3.281508445739746,2.587064504623413,-0.8139593005180359,2.6708929538726807,1.0124644041061401,2.4810492992401123
102,sampled_images/20181129_depthmap_1025_0111_01_004.png,6,0,0,-18389.699096,12466.445887,-1182.65951331808,0,1,23.064029425837802,153.35524112021298,2.4359529561479576e-05,-0.16494427621364594,-0.9290469884872437,0.34009575843811035,-3.6508607864379883,-4.442954063415527,1.5317678451538086,2.9845709800720215,-1.9131919145584106
103,sampled_images/20181129_depthmap_0388_0532_01_004.png,6,0,0,-14567.519096,14992.465887,-1192.11318189331,0,1,23.098521713301,153.379928721197,0.0055219256319105625,2.6470253467559814,-0.32917338609695435,-0.06032821163535118,5.001106262207031,1.024350643157959,1.506349802017212,-2.912874221801758,-2.891213893890381
104,sampled_images/20181129_depthmap_0371_0543_01_004.png,6,0,0,-14465.679096000002,15058.525887,-1199.4773349692,0,1,23.0994406980028,153.380574534632,0.0002906473237089813,1.6356314420700073,2.2401721477508545,-3.352987051010132,-2.238595724105835,1.1020516157150269,2.3183231353759766,4.218268871307373,0.8062015771865845
105,sampled_images/20181129_depthmap_0119_0710_01_004.png,6,0,0,-12953.579096,16060.445887,-1161.27468388007,0,1,23.1130850662955,153.390370208991,0.011144769378006458,-0.10075907409191132,5.603017330169678,1.1886917352676392,2.28536057472229,2.7932369709014893,1.8244600296020508,-1.808064579963684,-5.51802396774292
106,sampled_images/20181129_depthmap_0128_0703_01_004.png,6,0,0,-13007.779096,16018.605887,-1154.81798472581,0,1,23.1125960634084,153.389961197229,0.0024142609909176826,4.9562530517578125,-3.5436627864837646,2.1753382682800293,3.644258975982666,1.766303300857544,-1.5874342918395996,0.3110937476158142,-2.80857253074646
107,sampled_images/20181129_depthmap_1118_0050_01_004.png,6,0,0,-18947.819096,12100.485887,-1177.34696820355,0,1,23.0589924532968,153.351665487906,0.0007502787047997117,-2.0903091430664062,3.395575761795044,0.7788023948669434,-1.2517611980438232,0.44150781631469727,-2.449186086654663,5.231555938720703,-1.1400622129440308
108,sampled_images/20181129_depthmap_1117_0051_01_004.png,6,0,0,-18941.839096,12106.705887,-1177.31835462049,0,1,23.059046405837307,153.3517262309,6.157268217066303e-05,1.62224543094635,-4.331234455108643,-0.8276990056037903,2.3039560317993164,-0.5647856593132019,2.124082565307617,1.069437861442566,0.18530713021755219
109,sampled_images/20181129_depthmap_0515_0448_01_004.png,6,0,0,-15329.619096,14488.565887,-1186.67322440417,0,1,23.0916446633885,153.375002940767,0.0003242256643716246,-3.000044822692871,2.3973028659820557,-4.040070533752441,0.09379131346940994,-2.8257081508636475,-2.897130250930786,1.2178155183792114,0.8631178140640259
110,sampled_images/20181129_depthmap_1011_0120_01_004.png,6,0,0,-18305.479096,12520.465887,-1182.6934183835099,0,1,23.064789503891106,153.355768963142,0.0002365134423598647,-3.372767925262451,-5.8201799392700195,-0.14800357818603516,-1.5210607051849365,0.02501497231423855,-0.15817347168922424,2.874873161315918,-1.4952898025512695
111,sampled_images/20181129_depthmap_0781_0271_01_004.png,6,0,0,-16925.539096,13426.365887,-1165.50845722285,0,1,23.077242907016807,153.364621340677,0.010981484316289425,1.1582268476486206,5.010627746582031,1.3039906024932861,2.4488608837127686,0.772978663444519,0.5346155166625977,-1.612236738204956,-4.672327995300293
112,sampled_images/20181129_depthmap_0188_0664_01_004.png,6,0,0,-13367.479096,15784.385887,-1193.83522618559,0,1,23.1093503387996,153.387671027321,5.355746179702692e-05,-0.7627925276756287,-4.439894676208496,2.3179075717926025,1.118656873703003,-3.4701695442199707,2.8314709663391113,1.4060977697372437,-0.7689074277877808
113,sampled_images/20181129_depthmap_0648_0360_01_004.png,6,0,0,-16127.619096,13960.425887,-1169.90757978931,0,1,23.084443488990804,153.369840752908,0.00027752405731007457,1.4880815744400024,2.687037229537964,-0.43741920590400696,5.107911586761475,-1.445791244506836,-3.0792267322540283,1.0185497999191284,0.8480686545372009
114,sampled_images/20181129_depthmap_0611_0384_01_004.png,6,0,0,-15905.499096,14104.345887,-1176.06356546969,0,1,23.0864479502307,153.37124745541402,0.00011655872367555276,-1.0378469228744507,-3.0309228897094727,0.33749037981033325,-3.065817356109619,4.14760684967041,-0.12042228132486343,-0.2726612985134125,4.084759712219238
115,sampled_images/20181129_depthmap_0576_0407_01_004.png,6,0,0,-15695.619096,14242.645887,-1178.51596285918,0,1,23.0883419229199,153.37259923320698,0.00014035242202226073,3.827572822570801,-1.8421168327331543,-1.5840795040130615,-2.2549023628234863,1.5053017139434814,0.6183468699455261,0.8877171874046326,2.5868287086486816
116,sampled_images/20181129_depthmap_0994_0132_01_004.png,6,0,0,-18203.619096,12592.345887,-1180.33804096889,0,1,23.065708729247,153.356471246132,0.010074970312416553,1.0073832273483276,5.30478048324585,1.5195770263671875,2.534560441970825,2.3196654319763184,0.8841108679771423,-0.6257294416427612,-4.673925399780273
117,sampled_images/20181129_depthmap_0618_0379_01_004.png,6,0,0,-15947.539096,14074.345887,-1175.52169940343,0,1,23.0860685961922,153.370954265133,0.0010066162794828415,-2.6808829307556152,0.04425811395049095,2.5405755043029785,1.5366270542144775,3.7533087730407715,4.13184118270874,3.972769021987915,-3.092280626296997
118,sampled_images/20181129_depthmap_0944_0164_01_004.png,6,0,0,-17903.779096000002,12784.685887,-1174.9885872063498,0,1,23.0684147347039,153.358350723248,0.00097858055960387,-5.541632175445557,0.4202432334423065,0.09638775885105133,-3.168820858001709,0.7732097506523132,2.2816200256347656,-1.4960640668869019,-4.020143032073975
119,sampled_images/20181129_depthmap_0735_0301_01_004.png,6,0,0,-16649.699096,13606.425887,-1167.0832088814698,0,1,23.079732197674797,153.366381080064,0.00025414236006326973,2.5782008171081543,0.15976431965827942,0.6969123482704163,3.9521284103393555,-1.228299617767334,4.7067060470581055,2.902970552444458,-2.486974000930786
120,sampled_images/20181129_depthmap_0559_0419_01_004.png,6,0,0,-15593.699096,14314.645887,-1177.23639249541,0,1,23.0892616103695,153.373302925166,0.00035679797292687,-0.9953250288963318,3.2143404483795166,-2.0218958854675293,-0.0013898831093683839,0.06076435744762421,4.729498863220215,3.1897079944610596,-2.8500847816467285
121,sampled_images/20181129_depthmap_0297_0591_01_004.png,6,0,0,-14021.479096,15346.385887,-1204.06554455853,0,1,23.103449043818607,153.383388808475,0.00040168562554754317,-1.2887190580368042,2.7337558269500732,-2.9501285552978516,-0.8104636073112488,-1.8083105087280273,3.9062306880950928,0.3059208393096924,-4.282759189605713
122,sampled_images/20181129_depthmap_0241_0629_01_004.png,6,0,0,-13685.759096000002,15574.625887,-1211.53561499738,0,1,23.106478358587605,153.385620156706,6.130903784651309e-05,2.9064059257507324,-4.120045185089111,0.7088195085525513,1.9740499258041382,-0.35146409273147583,3.4319536685943604,2.867727041244507,1.0051331520080566
123,sampled_images/20181129_depthmap_1035_0104_01_004.png,6,0,0,-18449.819096,12424.665887,-1182.64117604926,0,1,23.063486871107997,153.354832922048,2.4648177713970654e-05,0.6366346478462219,-1.37031090259552,1.7526392936706543,-2.854928731918335,-5.222945690155029,2.6822662353515625,1.6286171674728394,-0.9301531910896301
124,sampled_images/20181129_depthmap_1093_0066_01_004.png,6,0,0,-18797.779096,12196.505887,-1177.51915857287,0,1,23.060346573769003,153.352603659387,9.167612006422132e-05,0.08988937735557556,-4.489954471588135,0.9880169034004211,-0.016251474618911743,1.2574560642242432,5.479804515838623,-2.839862585067749,0.15707731246948242
125,sampled_images/20181129_depthmap_0713_0316_01_004.png,6,0,0,-16517.599096,13696.725887,-1165.37276286946,0,1,23.080924280064398,153.367263557287,9.754805796546862e-05,1.201131820678711,-6.497583389282227,0.20926330983638763,-0.9660317897796631,-0.0013822527835145593,1.8505470752716064,-0.6579034924507141,-0.6259795427322388
126,sampled_images/20181129_depthmap_0658_0352_01_004.png,6,0,0,-16187.539096,13912.365887,-1171.7841926931098,0,1,23.083902832573,153.369371143552,6.034718899172731e-05,2.566541910171509,-3.4945662021636963,2.3298442363739014,0.36218327283859253,-2.7890331745147705,0.6345367431640625,5.088517665863037,-1.5313146114349365
127,sampled_images/20181129_depthmap_0218_0643_01_004.png,6,0,0,-13547.539096,15658.565887,-1195.73165609575,0,1,23.107725649445896,153.386440957365,0.005673703271895647,2.8959298133850098,3.3625190258026123,-0.4692845940589905,4.038468360900879,0.36629781126976013,0.07664892822504044,-2.46795654296875,-1.5160027742385864
128,sampled_images/20181129_depthmap_0206_0652_01_004.png,6,0,0,-13475.499096,15712.545887,-1195.27515409822,0,1,23.108375636229,153.38696863178498,0.005945152137428522,3.023202657699585,3.65333890914917,-0.3240883946418762,3.810643196105957,0.9255399703979492,0.7361915707588196,-1.4650830030441284,-3.884974956512451
129,sampled_images/20181129_depthmap_0443_0495_01_004.png,6,0,0,-14897.859096,14770.605887,-1173.06208474915,0,1,23.0955408366096,153.377759958357,0.00012164912186563015,-0.41992971301078796,-2.9279351234436035,-1.1254359483718872,3.895902395248413,-2.5254766941070557,2.3967161178588867,-0.40663641691207886,-1.6635921001434326
130,sampled_images/20181129_depthmap_0898_0194_01_004.png,6,0,0,-17627.839096,12964.365887,-1169.7012285714,0,1,23.070905004958806,153.36010652431003,0.00067711848532781,-2.1710848808288574,1.5054430961608887,-3.9684057235717773,-5.232819557189941,-0.5111802220344543,-2.665510654449463,-1.2195138931274414,-0.45084860920906067
131,sampled_images/20181129_depthmap_1069_0083_01_004.png,6,0,0,-18653.599096,12298.665887,-1182.83331203004,0,1,23.0616477285846,153.353601719166,0.0010587479919195175,-2.4923858642578125,0.28150874376296997,5.4437689781188965,2.455876588821411,1.2897305488586426,2.905717372894287,1.2581024169921875,-5.137667179107666
132,sampled_images/20181129_depthmap_0411_0516_01_004.png,6,0,0,-14705.759096000002,14896.545887,-1189.37372133308,0,1,23.0972743136685,153.37899110077498,0.004181429743766785,-0.7044832110404968,-0.4522782266139984,-1.9262547492980957,2.8494184017181396,5.176857948303223,-0.5145576596260071,-3.8060264587402344,-1.2440893650054932
133,sampled_images/20181129_depthmap_0305_0586_01_004.png,6,0,0,-14069.779096,15316.505887,-1203.38894488855,0,1,23.103013186561494,153.383096655865,0.0005407820572145283,-2.331515312194824,1.7829867601394653,-0.13527637720108032,3.386533260345459,1.6916834115982056,5.080789089202881,4.083719253540039,-1.819802165031433
134,sampled_images/20181129_depthmap_1025_0112_01_004.png,6,0,0,-18389.699096,12472.345887,-1182.67930136838,0,1,23.064029381512107,153.35529869559798,7.111882587196305e-05,-0.28504395484924316,-2.749191999435425,0.8974636793136597,-1.9895867109298706,-0.10559023916721344,-0.27478358149528503,1.305770754814148,5.100032329559326
135,sampled_images/20181129_depthmap_0688_0333_01_004.png,6,0,0,-16367.739096,13798.465887,-1166.24515000001,0,1,23.082276629857997,153.368257862395,6.122818012954667e-05,-3.8131144046783447,-6.066139221191406,-0.05246221274137497,0.4052395224571228,-0.5376047492027283,0.9174228310585022,-0.3880201280117035,0.5769168138504028
136,sampled_images/20181129_depthmap_0792_0264_01_004.png,6,0,0,-16991.839096,13384.505887,-1170.30847256094,0,1,23.076644574728302,153.364212230221,0.00010256715904688463,0.7797820568084717,-2.4101545810699463,-0.41654983162879944,0.42455098032951355,-1.4672328233718872,4.095888614654541,-3.1532771587371826,1.9589036703109741
137,sampled_images/20181129_depthmap_0883_0205_01_004.png,6,0,0,-17537.699096,13030.705887,-1169.81524471055,0,1,23.071718425148696,153.36075470373,0.0003928026126231998,0.6884297132492065,1.944809079170227,-2.471343755722046,2.843883752822876,-0.0016214983770623803,-5.569340705871582,3.1675198078155518,-0.4853813052177429
138,sampled_images/20181129_depthmap_0786_0269_01_004.png,6,0,0,-16955.679096,13414.405887,-1168.98814968112,0,1,23.076970847958602,153.364504353732,0.0032223931048065424,0.33319196105003357,1.2289807796478271,-0.15155552327632904,0.31791192293167114,1.9498083591461182,-2.196361541748047,-2.619530200958252,-7.193845272064209
139,sampled_images/20181129_depthmap_0346_0559_01_004.png,6,0,0,-14315.839096000003,15154.465887,-1201.2697115683802,0,1,23.1007928319413,153.381512494695,0.002536064013838768,1.2958308458328247,-2.1391303539276123,4.036722183227539,3.5855906009674072,4.771178245544434,1.02078378200531,-0.028886334970593452,0.31797266006469727
140,sampled_images/20181129_depthmap_0451_0490_01_004.png,6,0,0,-14945.719096,14740.525887,-1178.69245384587,0,1,23.095108943164306,153.377465893174,0.0013940561329945922,0.039047110825777054,-0.6652392148971558,3.7291626930236816,-3.422273874282837,1.2388970851898193,1.8411349058151245,-1.785162091255188,-5.330692291259766
141,sampled_images/20181129_depthmap_0347_0558_01_004.png,6,0,0,-14321.479096,15148.585887,-1201.57652684687,0,1,23.100741958270397,153.381455043194,0.001242685946635902,0.08187457919120789,-2.365201473236084,4.733215808868408,-0.7510156035423279,0.1661904901266098,0.34894677996635437,-1.7722090482711792,-6.089585781097412
142,sampled_images/20181129_depthmap_0297_0592_01_004.png,6,0,0,-14021.559096,15352.545887,-1204.49640450935,0,1,23.103448264367298,153.383448937738,0.00019207134027965367,2.0225188732147217,-0.9994336366653442,-2.5689568519592285,-2.684413194656372,-0.5856598615646362,0.8551552891731262,-2.4095425605773926,1.8051838874816895
143,sampled_images/20181129_depthmap_0278_0603_01_004.png,6,0,0,-13907.739096,15418.725887,-1206.99285608681,0,1,23.1044754083362,153.384096090709,5.530851922230795e-05,-3.4503860473632812,-4.235299110412598,0.3665444254875183,-1.1204512119293213,0.7450551390647888,2.5892887115478516,2.231276512145996,2.1744909286499023
144,sampled_images/20181129_depthmap_0185_0666_01_004.png,6,0,0,-13349.739096,15796.545887,-1191.79472043968,0,1,23.109510409312,153.387789913722,0.0005788450362160802,-1.9106870889663696,0.5933765172958374,-4.52569580078125,-4.883710861206055,2.6224725246429443,0.20591537654399872,0.04513217508792877,-1.7757115364074707
145,sampled_images/20181129_depthmap_0912_0185_01_004.png,6,0,0,-17711.759096,12910.605887,-1170.90984032979,0,1,23.0701476490877,153.359581172914,0.0005385939148254693,-2.0363845825195312,0.6170555353164673,-1.5240148305892944,-3.3805205821990967,-1.5099157094955444,-3.2427499294281006,-1.6244760751724243,-4.393770694732666
146,sampled_images/20181129_depthmap_0123_0707_01_004.png,6,0,0,-12977.619096,16042.625887,-1155.51698400084,0,1,23.112868165752396,153.390195997145,9.376594971399754e-05,-1.7446260452270508,0.785269021987915,-3.2821691036224365,0.3991032838821411,-0.3665239214897156,1.8814584016799927,1.1058650016784668,4.883108139038086
147,sampled_images/20181129_depthmap_0842_0231_01_004.png,6,0,0,-17291.799096000002,13186.625887,-1168.29710174059,0,1,23.07393760331589,153.36227845373898,0.0016695294762030244,0.32103902101516724,-1.717752456665039,6.146307945251465,0.46694692969322205,1.4871506690979004,-3.0005648136138916,1.496325135231018,-2.2023842334747314
148,sampled_images/20181129_depthmap_0574_0408_01_004.png,6,0,0,-15683.859096,14248.665887,-1177.96365797724,0,1,23.088448060534606,153.372658099392,0.0014777578180655837,-4.90554666519165,0.5258595943450928,0.5571078062057495,1.8349307775497437,5.111977577209473,-0.8040665984153748,1.2558696269989014,0.6185460686683655
149,sampled_images/20181129_depthmap_0135_0698_01_004.png,6,0,0,-13049.739096,15988.645887,-1156.0154447811099,0,1,23.1122174679361,153.389668288729,0.0017554626101627946,-3.0124003887176514,1.7017604112625122,1.231091022491455,0.6451516151428223,5.492499351501465,-2.941246271133423,1.2211120128631592,1.1383548974990845
150,sampled_images/20181129_depthmap_0565_0415_01_004.png,6,0,0,-15629.499096,14290.565887,-1177.4677052898,0,1,23.088938554679494,153.373067562267,0.0002075283118756488,-1.4306589365005493,2.4042983055114746,-2.2172300815582275,5.234111309051514,-1.8380695581436157,-3.9882776737213135,2.5654358863830566,0.10170544683933258
151,sampled_images/20181129_depthmap_0909_0188_01_004.png,6,0,0,-17693.839096,12928.385887,-1171.2705494924498,0,1,23.070309323439304,153.359754838472,0.0002334634482394904,-5.679937362670898,-3.1003103256225586,-1.016142725944519,0.07328125089406967,0.23811641335487366,0.9525402188301086,1.6012418270111084,3.8408203125
152,sampled_images/20181129_depthmap_0208_0650_01_004.png,6,0,0,-13487.679096000002,15700.545887,-1194.58308203449,0,1,23.108265768556198,153.386851366217,0.004322654101997614,-2.5302743911743164,1.3449194431304932,-0.7334187030792236,-0.20676186680793762,1.6696696281433105,-1.5145502090454102,-5.070736885070801,-2.863612174987793
153,sampled_images/20181129_depthmap_1061_0087_01_004.png,6,0,0,-18605.699096,12322.605887,-1183.0976720558901,0,1,23.0620800757408,153.353835718796,0.00024711911100894213,-1.6645551919937134,-0.13161125779151917,-3.212362289428711,4.319753170013428,-2.794095754623413,2.787498950958252,1.9409822225570679,-2.007758140563965
154,sampled_images/20181129_depthmap_0824_0243_01_004.png,6,0,0,-17183.719096,13258.425887,-1168.83619282687,0,1,23.074912963803,153.362980101602,9.390521154273301e-05,4.623309135437012,-1.5755670070648193,2.1236023902893066,0.8417172431945801,-1.0973434448242188,4.079031467437744,2.6611597537994385,-0.14778907597064972
155,sampled_images/20181129_depthmap_0399_0524_01_004.png,6,0,0,-14633.519096,14944.645887,-1191.4926739405698,0,1,23.097926185595004,153.379461305772,0.010184475220739841,-1.6792079210281372,6.331028938293457,0.26961004734039307,1.31484854221344,1.9407365322113037,0.30041399598121643,-2.520101308822632,-5.755733489990234
156,sampled_images/20181129_depthmap_1125_0045_01_004.png,6,0,0,-18989.479096,12070.605887,-1177.6359699041,0,1,23.058616491532803,153.351373586214,5.944008444203064e-05,0.1671108901500702,-2.9085965156555176,1.7216423749923706,-2.7500650882720947,-2.906342029571533,1.474151372909546,2.9499311447143555,-0.28362393379211426
157,sampled_images/20181129_depthmap_0358_0552_01_004.png,6,0,0,-14387.639096,15112.545887,-1200.63664408366,0,1,23.100144883168696,153.381102597936,0.0002753696171566844,1.4258992671966553,2.7646141052246094,-0.5732836723327637,0.9231979250907898,-3.1946029663085938,-2.2512364387512207,4.133793354034424,-0.8602556586265564
158,sampled_images/20181129_depthmap_0107_0717_01_004.png,6,0,0,-12881.559096,16102.425887,-1181.70908701508,0,1,23.1137349754325,153.390780777771,0.0014654435217380524,-3.382439374923706,-2.015580415725708,1.8241846561431885,1.8011761903762817,5.19145393371582,-1.5774896144866943,2.0523550510406494,-2.3054141998291016
159,sampled_images/20181129_depthmap_0441_0496_01_004.png,6,0,0,-14885.599096000002,14776.685887,-1172.13222691121,0,1,23.095651486481,153.37781942222,0.0002952893264591694,-2.726915121078491,1.5369443893432617,-1.202293872833252,3.982302665710449,-2.58008074760437,2.1964759826660156,2.415478229522705,-3.380007028579712
160,sampled_images/20181129_depthmap_0830_0240_01_004.png,6,0,0,-17219.519096,13240.365887,-1164.93165847046,0,1,23.074589843875998,153.362803539424,0.0005804310203529894,-1.5134204626083374,3.4417014122009277,-1.0187609195709229,2.727424144744873,2.6362295150756836,-0.39622294902801514,4.207667827606201,2.861943006515503
161,sampled_images/20181129_depthmap_0120_0709_01_004.png,6,0,0,-12959.619096,16054.485887,-1157.6418653418302,0,1,23.1130305848812,153.390311963757,0.020359298214316368,-1.9530904293060303,5.659521102905273,2.900696039199829,1.2969646453857422,2.2699315547943115,0.3498026430606842,-1.5574061870574951,-6.633370876312256
162,sampled_images/20181129_depthmap_0750_0292_01_004.png,6,0,0,-16739.519096,13552.485887,-1169.15902452751,0,1,23.0789215899542,153.36585385025802,5.4641444876324385e-05,1.8858345746994019,-2.395925760269165,0.4421945810317993,1.663041114807129,-0.6251185536384583,0.3824162781238556,4.534708499908447,4.347750186920166
163,sampled_images/20181129_depthmap_0746_0294_01_004.png,6,0,0,-16715.479096,13564.465887,-1167.14849169004,0,1,23.0791385664744,153.365970982891,0.00028758076950907707,3.4122841358184814,4.192398548126221,0.526145875453949,1.9495655298233032,-0.7437741756439209,-0.1314372420310974,3.3325023651123047,3.624466896057129
164,sampled_images/20181129_depthmap_0634_0369_01_004.png,6,0,0,-16043.739096,14014.405887,-1172.6924097073402,0,1,23.0852004458033,153.37036836439302,0.00026310194516554475,-0.5072262287139893,1.9211983680725098,-3.1393115520477295,0.45023226737976074,-1.660451889038086,1.1877696514129639,0.04683795943856239,4.782423973083496
165,sampled_images/20181129_depthmap_1124_0046_01_004.png,6,0,0,-18983.799096,12076.365887,-1177.73023003193,0,1,23.058667738611003,153.351429837814,4.1476978367427364e-05,0.48384079337120056,-2.009579658508301,2.2724311351776123,-3.1271915435791016,-3.6013691425323486,3.3148903846740723,2.508803129196167,-1.140937089920044
166,sampled_images/20181129_depthmap_0071_0741_01_004.png,6,0,0,-12665.559096,16246.445887,-1172.58012790166,0,1,23.1156839768832,153.392189008836,5.6951808801386505e-05,0.13292242586612701,-2.791895627975464,0.7253227233886719,3.711134195327759,-3.507763385772705,0.9201986193656921,2.774714708328247,-0.9294605851173401
167,sampled_images/20181129_depthmap_0029_0768_01_004.png,6,0,0,-12413.719096,16408.485887,-1188.89667338309,0,1,23.117956409700398,153.393773583084,0.0003932642284780741,-4.154425144195557,1.144553780555725,-2.1814956665039062,-0.09158306568861008,-2.3646414279937744,-2.8429155349731445,-0.6287861466407776,-0.7165207862854004
168,sampled_images/20181129_depthmap_0300_0590_01_004.png,6,0,0,-14039.779096,15340.465887,-1203.71693546409,0,1,23.103283855417,153.383330837947,0.0011102885473519564,-2.894613742828369,0.6181321144104004,-1.5827975273132324,-4.2906270027160645,1.1199547052383423,-1.2187550067901611,-1.1119444370269775,-4.408308506011963
169,sampled_images/20181129_depthmap_0522_0442_01_004.png,6,0,0,-15371.659096,14452.725887,-1186.7898425953,0,1,23.091265367609,153.37465272732402,0.0019175378838554025,-1.6574747562408447,-1.7840511798858643,2.301434278488159,-2.3160667419433594,0.17365218698978424,-1.8227657079696655,-3.367894411087036,-6.4636921882629395
170,sampled_images/20181129_depthmap_0271_0608_01_004.png,6,0,0,-13865.859096,15448.585887,-1208.41382240556,0,1,23.10485329325289,153.384387989769,0.0005789343849755824,-1.7028530836105347,1.0759586095809937,-3.0753636360168457,-2.5382239818573,0.31316959857940674,-0.7319458723068237,1.0037517547607422,-5.56461238861084
171,sampled_images/20181129_depthmap_0842_0232_01_004.png,6,0,0,-17291.739096,13192.465887,-1168.1822321433,0,1,23.0739380986684,153.362335448286,0.0027478805277496576,-1.1371461153030396,-3.876600980758667,3.5244691371917725,1.656101107597351,0.09714242070913315,-1.8179584741592407,-2.815772533416748,-4.39977502822876
172,sampled_images/20181129_depthmap_0845_0230_01_004.png,6,0,0,-17309.679096,13180.465887,-1168.23784367136,0,1,23.0737762007554,153.362218183214,0.00042639803723432124,1.3950284719467163,0.03516131266951561,-5.598855495452881,-2.9172611236572266,1.530180811882019,-0.36578619480133057,2.722397565841675,-1.1481531858444214
173,sampled_images/20181129_depthmap_0143_0694_01_004.png,6,0,0,-13097.639096,15964.585887,-1168.44684187905,0,1,23.111785178766894,153.389432915632,0.004360208287835121,0.9194502234458923,1.5531995296478271,-1.4991682767868042,3.670745849609375,4.801602840423584,2.5987889766693115,-2.7475175857543945,-3.6885714530944824
174,sampled_images/20181129_depthmap_0408_0518_01_004.png,6,0,0,-14687.779096,14908.505887,-1195.14618649681,0,1,23.0974365599979,153.379108016359,3.303799530840479e-05,-0.17919118702411652,-2.99674654006958,2.997501850128174,-2.215355396270752,-2.9849460124969482,3.0402050018310547,2.1714093685150146,-0.20308005809783936
175,sampled_images/20181129_depthmap_1162_0021_01_004.png,6,0,0,-19211.539096,11926.725887,-1174.61583456845,0,1,23.0566123852502,153.349967859549,0.00019326515030115843,0.7318023443222046,-2.3396806716918945,-3.109776258468628,3.7252023220062256,-0.01322587113827467,1.0518094301223755,4.169821262359619,-3.0489490032196045
176,sampled_images/20181129_depthmap_1082_0074_01_004.png,6,0,0,-18731.579096,12244.385887,-1177.7224719588698,0,1,23.060943990412802,153.353071413293,0.00047093399916775525,-1.421462059020996,3.4143388271331787,-0.5675030946731567,-1.8428535461425781,0.36916452646255493,3.93441104888916,-3.991694927215576,0.5525838732719421
177,sampled_images/20181129_depthmap_0681_0338_01_004.png,6,0,0,-16325.839096000003,13828.445887,-1165.26275961564,0,1,23.082654725165806,153.368550840395,0.000714627152774483,-0.7987850904464722,-1.0608437061309814,0.6593400239944458,1.3857022523880005,5.794858455657959,1.8702818155288696,4.0709028244018555,-4.769770622253418
178,sampled_images/20181129_depthmap_1026_0110_01_004.png,6,0,0,-18395.479096,12460.585887,-1182.57134775471,0,1,23.0639772779428,153.355183888274,6.281724199652672e-05,1.5677002668380737,-2.9036426544189453,-4.24228572845459,2.2381467819213867,-0.8310064077377319,1.1145421266555786,2.242767572402954,2.081821918487549
179,sampled_images/20181129_depthmap_0206_0651_01_004.png,6,0,0,-13475.619096,15706.685887,-1194.1085534364,0,1,23.1083746082517,153.386911426825,0.001602550153620541,-3.284830331802368,0.5394625663757324,-0.8897004723548889,2.582366466522217,1.3375647068023682,-4.85935640335083,0.17952153086662292,-4.047165393829346
180,sampled_images/20181129_depthmap_0868_0214_01_004.png,6,0,0,-17447.799096000002,13084.365887,-1168.1663431460304,0,1,23.072529775476895,153.361279142878,0.0004897300386801362,-2.76208233833313,-0.8227748870849609,-3.8581488132476807,4.48862886428833,-2.8371963500976562,-3.225337266921997,0.26899176836013794,-0.4613769054412842
181,sampled_images/20181129_depthmap_1057_0091_01_004.png,6,0,0,-18581.519096,12346.365887,-1182.9125330427698,0,1,23.062298238365504,153.354067772739,0.0007869433029554784,-0.6839960217475891,2.138568878173828,-0.18593856692314148,2.703890562057495,5.372436046600342,3.2770707607269287,4.397809028625488,0.9607237577438354
182,sampled_images/20181129_depthmap_0817_0247_01_004.png,6,0,0,-17141.739096,13282.465887,-1170.26531152614,0,1,23.0752918393432,153.36321507899402,3.0766987038077787e-05,1.0564457178115845,-0.8056995272636414,4.0346245765686035,-3.3251397609710693,1.5180222988128662,4.038249492645264,1.2337199449539185,3.8317270278930664
183,sampled_images/20181129_depthmap_0457_0486_01_004.png,6,0,0,-14981.719096,14716.605887,-1178.99872519923,0,1,23.0947840866582,153.377232069895,0.0017579153645783663,0.04941198602318764,-3.8470711708068848,4.296914577484131,0.9944072365760803,1.0391143560409546,-3.0303902626037598,-1.0469452142715454,-2.7940564155578613
