,relative_path,altitude [m],roll [deg],pitch [deg],northing [m],easting [m],depth [m],heading [deg],timestamp [s],latitude [deg],longitude [deg],recon_loss,latent_0,latent_1,latent_2,latent_3,latent_4,latent_5,latent_6,latent_7
0,sampled_images/20181129_depthmap_0704_0322_01_004.png,6,0,0,-16463.759096,13732.545887,-1161.50107886144,0,1,23.0814101437695,153.36761363355498,0.0017154511297121644,1.6793702840805054,-0.038845159113407135,-1.1011158227920532,-2.0148303508758545,-4.064703464508057,-3.6748156547546387,-2.302318811416626,-1.329894781112671
1,sampled_images/20181129_depthmap_0963_0151_01_004.png,6,0,0,-18017.499096,12706.725887,-1175.18071723751,0,1,23.0673884720322,153.357588981813,0.0013348774518817663,1.7216622829437256,0.255228728055954,-0.610785722732544,0.15759508311748505,0.4707288146018982,-6.163144588470459,1.8594623804092407,-2.4662535190582275
2,sampled_images/20181129_depthmap_0560_0417_01_004.png,6,0,0,-15599.719096,14302.605887,-1177.00544019588,0,1,23.08920735546789,153.373185354368,0.0012066810159012675,-0.48582029342651367,-1.4830191135406494,-1.5722986459732056,1.2676632404327393,-2.3867318630218506,-4.47659969329834,-2.4429428577423096,-0.624077320098877
3,sampled_images/20181129_depthmap_0265_0613_01_004.png,6,0,0,-13829.799096,15478.425887,-1210.11490663652,0,1,23.105178625039606,153.384679636444,6.19158599874936e-05,-1.6658483743667603,-2.0926172733306885,-5.49659538269043,0.6563950181007385,2.9279720783233643,0.34008079767227173,1.0169225931167603,-3.0611002445220947
4,sampled_images/20181129_depthmap_0547_0427_01_004.png,6,0,0,-15521.539096,14362.505887,-1181.52439131691,0,1,23.089912779874602,153.373770731473,0.0013744679745286703,-0.46822646260261536,-0.19814693927764893,-2.214118242263794,-0.10749413818120956,-0.29588577151298523,-6.5009870529174805,0.2339400202035904,-1.5124571323394775
5,sampled_images/20181129_depthmap_0906_0189_01_004.png,6,0,0,-17675.619096000002,12934.345887,-1170.34012587221,0,1,23.0704737986978,153.35981315556,0.0005004214472137392,-0.7078590989112854,1.098321795463562,-4.364993095397949,-0.6465163826942444,-0.20533724129199982,-2.727797031402588,-3.820871353149414,-1.3323262929916382
6,sampled_images/20181129_depthmap_0965_0151_01_004.png,6,0,0,-18029.739096,12706.505887,-1175.4660144040402,0,1,23.0672779497509,153.357586733594,0.00013357691932469606,0.24636827409267426,-5.516714572906494,-4.794929504394531,1.2888675928115845,1.5446817874908447,1.8231018781661987,0.4109291434288025,0.2474939525127411
7,sampled_images/20181129_depthmap_0329_0570_01_004.png,6,0,0,-14213.719096,15220.345887,-1201.98052530426,0,1,23.101714339754,153.382156575571,0.0016725464956834912,3.019705057144165,0.33943480253219604,0.3151266276836395,0.22725333273410797,-0.04075060412287712,-4.7264251708984375,-2.3607072830200195,-3.261535406112671
8,sampled_images/20181129_depthmap_0159_0683_01_004.png,6,0,0,-13193.599096,15898.405887,-1178.27711896144,0,1,23.1109193280154,153.388785872195,0.009581778198480606,-1.1555018424987793,5.852791786193848,4.257713317871094,-2.313659191131592,1.625492811203003,-5.603684425354004,-1.2611401081085205,5.068567752838135
9,sampled_images/20181129_depthmap_0350_0556_01_004.png,6,0,0,-14339.779096,15136.485887,-1202.01580493429,0,1,23.1005768255547,153.38133675219402,1.521372269053245e-05,-3.4821581840515137,-1.0200276374816895,-0.35270270705223083,4.409933567047119,5.66264533996582,3.3070218563079834,3.301989793777466,-4.441549777984619
10,sampled_images/20181129_depthmap_1017_0117_01_004.png,6,0,0,-18341.739096,12502.585887,-1182.96979090591,0,1,23.0644622203238,153.355594184277,3.7064397474750876e-05,-1.8369208574295044,-1.6988575458526611,-0.3934810757637024,4.92784309387207,3.657865047454834,1.4103432893753052,6.412967205047607,-2.818542718887329
11,sampled_images/20181129_depthmap_0849_0226_01_004.png,6,0,0,-17333.579096,13156.385887,-1168.88684276598,0,1,23.073560581420804,153.361982975858,0.0012584259966388345,2.157010793685913,-1.0600409507751465,-1.3781753778457642,1.1824337244033813,-1.6121138334274292,-5.490804672241211,-1.7633334398269653,-1.458636999130249
12,sampled_images/20181129_depthmap_0756_0288_01_004.png,6,0,0,-16775.659096,13528.665887,-1169.65236805556,0,1,23.0785954503464,153.365621057728,0.0007178200758062303,0.1928279846906662,-2.109462022781372,1.2706867456436157,2.8239054679870605,4.927367687225342,-2.379913330078125,1.4210069179534912,-0.7782813906669617
13,sampled_images/20181129_depthmap_0930_0174_01_004.png,6,0,0,-17819.839096,12844.545887,-1172.1101981627498,0,1,23.069172228278603,153.358935590513,0.001898809103295207,3.465827703475952,-2.323505163192749,2.3360822200775146,-0.6079870462417603,-2.447388172149658,-2.910067319869995,-1.0134663581848145,-0.48171761631965637
14,sampled_images/20181129_depthmap_0918_0181_01_004.png,6,0,0,-17747.539096,12886.705887,-1171.22175028261,0,1,23.069824751065006,153.359347632976,0.0013819659361615777,1.9569040536880493,1.0174343585968018,0.3665189743041992,2.130326986312866,-1.2751922607421875,-5.12127161026001,-3.319077968597412,-0.7358778715133667
15,sampled_images/20181129_depthmap_0917_0181_01_004.png,6,0,0,-17741.579096,12886.685887,-1171.78124193598,0,1,23.0698785684247,153.35934748782302,0.0065331426449120045,-0.8935770392417908,3.4637043476104736,3.494462728500366,-1.4093397855758667,-0.11375495791435242,-3.9924731254577637,-2.7283401489257812,5.924802303314209
16,sampled_images/20181129_depthmap_0648_0359_01_004.png,6,0,0,-16127.779096,13954.525887,-1170.84788508712,0,1,23.084442093901306,153.36978316741101,0.0040149567648768425,2.3751220703125,4.662264823913574,4.8425774574279785,-2.019282102584839,0.4976207911968231,-3.992219924926758,-0.0721069946885109,0.2938940227031708
17,sampled_images/20181129_depthmap_1092_0068_01_004.png,6,0,0,-18791.739096,12208.685887,-1177.0999276223,0,1,23.060401023898397,153.352722563184,0.003721334272995591,3.4613213539123535,3.007436990737915,3.385098695755005,-1.7032315731048584,1.5358154773712158,-3.447263479232788,-2.1390693187713623,0.4784964621067047
18,sampled_images/20181129_depthmap_0388_0531_01_004.png,6,0,0,-14567.779096,14986.685887,-1191.97054428601,0,1,23.0985194178687,153.37987229996202,0.013764802366495132,-2.4576799869537354,5.8670430183410645,3.7411251068115234,-3.1617634296417236,1.6984483003616333,-6.214377403259277,-0.8121208548545837,6.216991424560547
19,sampled_images/20181129_depthmap_0721_0311_01_004.png,6,0,0,-16565.479096,13666.465887,-1164.95720990063,0,1,23.0804921868493,153.366967800663,0.0006020204164087772,-1.907163381576538,2.1150715351104736,1.9638264179229736,2.015543222427368,4.343471050262451,-1.0579410791397095,1.6653907299041748,-3.9548630714416504
20,sampled_images/20181129_depthmap_0160_0683_01_004.png,6,0,0,-13199.799096,15898.425887,-1178.6117747830401,0,1,23.1108633438449,153.388786003083,0.003424660535529256,0.7277101278305054,3.557443380355835,3.5353140830993652,-1.63103187084198,-2.323516368865967,-2.894716739654541,-2.3172922134399414,3.72890043258667
21,sampled_images/20181129_depthmap_0244_0627_01_004.png,6,0,0,-13703.539096,15562.705887,-1211.77906104944,0,1,23.106317922909106,153.385503617932,8.604760660091415e-05,-4.105127811431885,-1.112548589706421,-3.136357545852661,1.5615547895431519,-2.0519628524780273,0.5490543842315674,4.381239414215088,0.2161291241645813
22,sampled_images/20181129_depthmap_0324_0574_01_004.png,6,0,0,-14183.499096,15244.585887,-1202.6848804998199,0,1,23.101986994025,153.382393488854,0.0002640665043145418,-3.5791687965393066,1.1026076078414917,-3.5377018451690674,-0.6430431604385376,-2.329406976699829,-0.03719810023903847,-3.5804808139801025,-0.2675354778766632
23,sampled_images/20181129_depthmap_0682_0337_01_004.png,6,0,0,-16331.759096000002,13822.725887,-1164.1133947115,0,1,23.0826013169466,153.368494960553,0.02550709992647171,-4.514594078063965,5.864464282989502,3.2300121784210205,-3.635162115097046,3.9191136360168457,-8.332776069641113,-1.3066028356552124,7.620744705200195
24,sampled_images/20181129_depthmap_0555_0422_01_004.png,6,0,0,-15569.539096,14332.645887,-1180.6120048928199,0,1,23.0894796125078,153.373478837319,0.021677762269973755,-3.193080186843872,6.212831020355225,3.1516335010528564,-3.7265496253967285,2.4970741271972656,-8.038217544555664,-2.0470681190490723,8.081223487854004
25,sampled_images/20181129_depthmap_0105_0718_01_004.png,6,0,0,-12869.819096,16108.665887,-1180.2152963156,0,1,23.113840923059502,153.390841816845,0.0022918700706213713,2.600025177001953,2.292696237564087,2.0252437591552734,-1.974729061126709,-3.2249867916107178,-3.7264456748962402,-1.2349809408187866,-3.22969651222229
26,sampled_images/20181129_depthmap_0065_0744_01_004.png,6,0,0,-12629.839096,16264.705887,-1171.0082319570402,0,1,23.116006337294106,153.392367646986,0.00404123030602932,2.640516757965088,4.030998229980469,3.9725685119628906,-0.4265276789665222,-3.146545171737671,-3.546234369277954,-2.577822685241699,0.12446878850460052
27,sampled_images/20181129_depthmap_0079_0736_01_004.png,6,0,0,-12713.539096,16216.505887,-1166.29898093024,0,1,23.115251026971002,153.391896218856,0.0005361069343052804,3.4828994274139404,-1.3587161302566528,-3.125887632369995,1.5588380098342896,3.1409051418304443,-2.5223114490509033,-2.3569393157958984,-2.0424139499664307
28,sampled_images/20181129_depthmap_1006_0123_01_004.png,6,0,0,-18275.779096,12538.445887,-1182.4827777356402,0,1,23.065057551405395,153.35594466515698,2.8413234758772887e-05,-4.447585582733154,-2.340696334838867,-1.2952035665512085,0.09822576493024826,2.2038073539733887,3.8950164318084717,3.095264196395874,-3.917426109313965
29,sampled_images/20181129_depthmap_1130_0042_01_004.png,6,0,0,-19019.619096,12052.565887,-1177.85703865727,0,1,23.058344465992498,153.351197312712,2.5385637854924425e-05,-2.6070632934570312,-3.3237764835357666,-3.4751250743865967,3.043303966522217,4.810650825500488,2.1668970584869385,2.459482192993164,-2.301358699798584
30,sampled_images/20181129_depthmap_0361_0549_01_004.png,6,0,0,-14405.819096,15094.725887,-1199.90483588997,0,1,23.099980885855498,153.380928475443,0.00047819630708545446,1.0323463678359985,-1.0187216997146606,-2.7714121341705322,2.4318816661834717,2.393402099609375,-3.014394998550415,-2.234002113342285,1.1124402284622192
31,sampled_images/20181129_depthmap_0151_0688_01_004.png,6,0,0,-13145.839096,15928.445887,-1176.0076200098802,0,1,23.111350296552402,153.389079616661,0.020257258787751198,-2.614455461502075,6.264547348022461,4.086945533752441,-3.7143020629882812,2.1965737342834473,-6.9072651863098145,-0.9998570680618286,7.010272979736328
32,sampled_images/20181129_depthmap_0689_0333_01_004.png,6,0,0,-16373.519096,13798.585887,-1166.12477222157,0,1,23.0822244371073,153.368258981593,0.0004571709723677486,0.042880475521087646,-0.9284053444862366,-5.96564245223999,-0.28869688510894775,0.12431065738201141,-0.7834962606430054,-1.4816638231277466,0.1303630918264389
33,sampled_images/20181129_depthmap_0813_0251_01_004.png,6,0,0,-17117.679096,13306.725887,-1170.7508778857,0,1,23.075508900085893,153.363452049402,0.000841607223264873,1.313668131828308,0.46918120980262756,-0.37842831015586853,2.4233875274658203,1.208404541015625,-4.54704475402832,-2.1679649353027344,-3.9638054370880127
34,sampled_images/20181129_depthmap_1174_0014_01_004.png,6,0,0,-19283.519096,11884.385887,-1175.50397381991,0,1,23.055962727371305,153.349554148769,0.0002102331636706367,0.29098576307296753,-2.9044268131256104,-3.034461498260498,3.5300683975219727,1.0250000953674316,1.6560410261154175,-2.3181209564208984,2.7704596519470215
35,sampled_images/20181129_depthmap_0317_0579_01_004.png,6,0,0,-14141.659096,15274.665887,-1203.30099967778,0,1,23.102364519046503,153.382687524837,1.6265030353679322e-05,-5.152159214019775,-1.0155208110809326,-0.6622467041015625,3.610572099685669,6.208950519561768,4.049862861633301,3.903773546218872,-3.31545090675354
36,sampled_images/20181129_depthmap_0643_0363_01_004.png,6,0,0,-16097.819096,13978.485887,-1172.33246879279,0,1,23.084712422242397,153.37001729018,0.002751909662038088,2.938382625579834,1.9970271587371826,4.080953598022461,0.022496933117508888,-1.066527247428894,-2.9394314289093018,-2.052934169769287,-0.4088148772716522
37,sampled_images/20181129_depthmap_0339_0563_01_004.png,6,0,0,-14273.679096000002,15178.485887,-1201.9482965552,0,1,23.101173303716894,153.381747375841,0.0001057525587384589,0.3243039548397064,-4.483180046081543,-2.1912410259246826,0.8859022259712219,3.7209503650665283,1.4752027988433838,1.8986737728118896,-3.73624849319458
38,sampled_images/20181129_depthmap_0074_0740_01_004.png,6,0,0,-12683.539096,16240.685887,-1169.7687550557598,0,1,23.115521679980997,153.392132587567,0.0006304458365775645,1.155175805091858,0.4906013011932373,-2.5953826904296875,-0.10527415573596954,-0.8427134156227112,-2.8936874866485596,-3.7959136962890625,-2.0302131175994873
39,sampled_images/20181129_depthmap_0444_0495_01_004.png,6,0,0,-14903.539096,14770.605887,-1173.86353046631,0,1,23.095489547935802,153.377759903634,0.006788814440369606,-0.41811755299568176,5.623900890350342,4.388190269470215,-1.7445049285888672,1.6215133666992188,-5.0788373947143555,-1.965815544128418,4.314334392547607
40,sampled_images/20181129_depthmap_0205_0652_01_004.png,6,0,0,-13469.539096,15712.605887,-1193.7202224339098,0,1,23.1084294525381,153.38696927861602,0.021614188328385353,-3.4275667667388916,5.711163520812988,4.282591342926025,-3.574777603149414,2.2460122108459473,-6.6572089195251465,-1.2113670110702515,7.6707611083984375
41,sampled_images/20181129_depthmap_0220_0642_01_004.png,6,0,0,-13559.799096,15652.425887,-1196.47999880926,0,1,23.107615003623,153.38638089538298,0.00745968846604228,-0.7781814932823181,4.6167826652526855,3.671095848083496,-2.981490135192871,0.588965654373169,-5.307576656341553,-1.3210198879241943,5.89774751663208
42,sampled_images/20181129_depthmap_0116_0712_01_004.png,6,0,0,-12935.739096,16072.385887,-1172.7102487096902,0,1,23.113246039765897,153.390486955287,0.060278914868831635,-7.097901344299316,6.774886131286621,3.2987213134765625,-4.30040168762207,5.252199649810791,-10.081661224365234,-1.951053261756897,10.319796562194824
43,sampled_images/20181129_depthmap_0902_0191_01_004.png,6,0,0,-17651.539096,12946.465887,-1170.07990158855,0,1,23.0706911401018,153.35993163773998,4.7429111873498186e-05,0.49068373441696167,-4.196615219116211,-2.056023120880127,1.1217824220657349,2.769575357437134,1.9752753973007202,1.8479868173599243,-4.540910720825195
44,sampled_images/20181129_depthmap_0345_0559_01_004.png,6,0,0,-14309.699096,15154.585887,-1202.06396801019,0,1,23.100848273131103,153.381513726748,5.893810885027051e-05,1.595363974571228,-4.2417378425598145,-2.341852903366089,3.2242400646209717,3.2562947273254395,-0.08542965352535248,1.350649356842041,-3.6132359504699707
45,sampled_images/20181129_depthmap_0170_0676_01_004.png,6,0,0,-13259.679096,15856.605887,-1190.3013946764802,0,1,23.1103230479022,153.388377140256,0.001208611181937158,3.467461109161377,-3.6948397159576416,-1.3791664838790894,2.2981667518615723,2.754879951477051,-0.8145803809165955,-1.0184893608093262,-0.6807609796524048
46,sampled_images/20181129_depthmap_0041_0760_01_004.png,6,0,0,-12485.539096,16360.465887,-1182.30444373692,0,1,23.1173083744843,153.393304024389,0.008125578984618187,-1.3691754341125488,5.478888034820557,3.997722864151001,-1.9647259712219238,1.4282723665237427,-5.506054401397705,-1.84450101852417,4.878383159637451
47,sampled_images/20181129_depthmap_0902_0192_01_004.png,6,0,0,-17651.599096,12952.725887,-1170.08201389024,0,1,23.070690549460807,153.35999272869,0.0008503077551722527,-0.3974531590938568,-2.4809224605560303,-3.0669074058532715,0.6542737483978271,-2.15006685256958,-3.415984869003296,-1.3925329446792603,1.8629721403121948
48,sampled_images/20181129_depthmap_0626_0373_01_004.png,6,0,0,-15995.739096,14038.585887,-1174.19432667056,0,1,23.085633667349402,153.370604801968,2.355864126002416e-05,-2.146686553955078,-3.049957513809204,-3.8696749210357666,4.304807662963867,5.986141204833984,1.4752289056777954,1.7991942167282104,-2.8369743824005127
49,sampled_images/20181129_depthmap_0577_0407_01_004.png,6,0,0,-15701.859096,14242.645887,-1178.12321401247,0,1,23.0882855775523,153.37259917526,0.0043436079286038876,-0.4766649901866913,1.9356489181518555,4.074002265930176,-0.9852868914604187,-2.7521250247955322,-1.841455340385437,-1.0998603105545044,3.141439914703369
50,sampled_images/20181129_depthmap_0245_0626_01_004.png,6,0,0,-13709.719096,15556.505887,-1211.79445598282,0,1,23.1062621777245,153.385443033387,7.710882528044749e-06,-5.852444171905518,-0.58262038230896,-1.810589075088501,1.9918885231018066,6.919480800628662,3.8550236225128174,4.15089225769043,-2.5392446517944336
51,sampled_images/20181129_depthmap_0758_0286_01_004.png,6,0,0,-16787.639096000006,13516.725887,-1169.8720805037801,0,1,23.078487371647807,153.36550442273997,1.0686315363273025e-05,-3.493466854095459,-2.654409646987915,-0.3521040976047516,1.9626893997192383,5.741344928741455,3.447453737258911,4.459573268890381,-3.1061837673187256
52,sampled_images/20181129_depthmap_1105_0059_01_004.png,6,0,0,-18869.639096000006,12154.625887,-1177.43028675534,0,1,23.0596980033956,153.352194414227,0.0022877478040754795,2.803148031234741,1.3753883838653564,-0.10675349086523056,-2.694746971130371,-2.5467171669006348,-5.071573734283447,-1.8227102756500244,-2.1287004947662354
53,sampled_images/20181129_depthmap_0985_0137_01_004.png,6,0,0,-18149.759096,12622.625887,-1178.44226424352,0,1,23.066194840889,153.35676718109102,2.7802929253084585e-05,-3.120384931564331,-2.276568651199341,1.1580082178115845,0.19806157052516937,4.1959452629089355,3.6485540866851807,6.767989158630371,-3.6832895278930664
54,sampled_images/20181129_depthmap_0369_0544_01_004.png,6,0,0,-14453.579096,15064.405887,-1199.33656971473,0,1,23.0995499038068,153.380632048738,1.2292372957745101e-05,-3.7264745235443115,-1.7709407806396484,-1.8878554105758667,1.579864263534546,7.273723125457764,3.389529228210449,3.1957590579986572,-3.584152936935425
55,sampled_images/20181129_depthmap_0407_0519_01_004.png,6,0,0,-14681.479096,14914.385887,-1194.85498119128,0,1,23.0974933941536,153.379165471989,0.0003987023083027452,1.5199899673461914,-0.26885250210762024,4.204835891723633,3.804929733276367,5.119187355041504,0.9147048592567444,0.8782573342323303,-4.022478103637695
56,sampled_images/20181129_depthmap_0139_0696_01_004.png,6,0,0,-13073.859096,15976.425887,-1163.0506255901598,0,1,23.111999790188197,153.38954874543998,0.01370721310377121,-2.352426290512085,5.7487640380859375,4.4810380935668945,-3.177856206893921,1.9978684186935425,-6.047482967376709,-0.6496155261993408,5.891132831573486
57,sampled_images/20181129_depthmap_0825_0242_01_004.png,6,0,0,-17189.779096000002,13252.505887,-1168.5253205558,0,1,23.0748582909724,153.362922274092,0.0003708821604959667,2.7599518299102783,3.6895387172698975,0.4949452877044678,2.881884813308716,2.417008399963379,0.7011874318122864,-1.4414327144622803,-4.142103672027588
58,sampled_images/20181129_depthmap_0020_0775_01_004.png,6,0,0,-12359.599096,16450.645887,-1174.94271117925,0,1,23.118444676653,153.394185748086,0.0030639113392680883,1.0351433753967285,2.80914044380188,2.18742036819458,-0.5394964218139648,-2.1295292377471924,-2.9066543579101562,-3.0220351219177246,1.8821182250976562
59,sampled_images/20181129_depthmap_0823_0244_01_004.png,6,0,0,-17177.619096000002,13264.465887,-1169.30091424123,0,1,23.074967996841306,153.363039100624,0.0009852034272626042,-1.9412459135055542,1.215661644935608,-0.5440185070037842,3.3086133003234863,-0.3512519598007202,-4.971667289733887,0.7132830023765564,-2.538492441177368
60,sampled_images/20181129_depthmap_1050_0095_01_004.png,6,0,0,-18539.779096,12370.385887,-1182.37582324319,0,1,23.0626749609772,153.354302506051,0.004186129197478294,1.350091576576233,3.869436740875244,4.873656749725342,-0.9144227504730225,-2.21591854095459,-2.8657326698303223,-0.8848157525062561,1.4177730083465576
61,sampled_images/20181129_depthmap_0999_0128_01_004.png,6,0,0,-18233.499096,12568.365887,-1180.86393881737,0,1,23.065439102444202,153.35623698890498,0.0036929426714777946,0.5364392399787903,4.008934497833252,4.11030387878418,0.051346585154533386,-2.604928493499756,-3.24269437789917,-2.4427406787872314,0.8390099406242371
62,sampled_images/20181129_depthmap_0063_0746_01_004.png,6,0,0,-12617.839096,16276.605887,-1170.6831843575999,0,1,23.1161145763417,153.39248394563802,0.004802136681973934,1.0552563667297363,4.381716728210449,2.752006769180298,-1.465412974357605,-0.6818742156028748,-4.19107723236084,-2.38269305229187,1.525776982307434
63,sampled_images/20181129_depthmap_0786_0268_01_004.png,6,0,0,-16955.599096,13408.685887,-1169.73399847697,0,1,23.0769716165857,153.36444853026399,0.0011958301765844226,-2.6602742671966553,-0.8358012437820435,-0.445205956697464,-2.998992443084717,-2.953446388244629,-3.50496506690979,-1.3920540809631348,-2.7876386642456055
64,sampled_images/20181129_depthmap_0518_0446_01_004.png,6,0,0,-15347.499096,14476.685887,-1187.1311804311301,0,1,23.091483316122197,153.374886816931,0.0005184879992157221,-1.9697620868682861,3.4900457859039307,2.8875086307525635,-1.5337114334106445,3.333611011505127,-0.8217684030532837,-0.37979382276535034,-5.8628716468811035
65,sampled_images/20181129_depthmap_0763_0284_01_004.png,6,0,0,-16817.679096,13504.565887,-1168.97387462167,0,1,23.0782162179,153.3653854819,0.002778904978185892,2.3121485710144043,1.6803669929504395,3.4074671268463135,-2.2962827682495117,-4.2994914054870605,-1.3295356035232544,-2.283728837966919,0.5241936445236206
66,sampled_images/20181129_depthmap_0977_0142_01_004.png,6,0,0,-18101.499096,12652.585887,-1177.69072594855,0,1,23.06663038785189,153.35705994924498,0.0005838135257363319,2.132024049758911,-0.7258830070495605,2.260651111602783,4.717938423156738,4.261299133300781,-0.2706345021724701,-1.460999608039856,-2.036201238632202
67,sampled_images/20181129_depthmap_0218_0644_01_004.png,6,0,0,-13547.799096,15664.605887,-1197.16908521637,0,1,23.107723244615002,153.38649991526398,0.006479805801063776,0.5861033797264099,5.105162143707275,3.009690761566162,-1.5727870464324951,0.5532099604606628,-5.363631248474121,-2.7787976264953613,2.8558106422424316
68,sampled_images/20181129_depthmap_0189_0662_01_004.png,6,0,0,-13373.539096,15772.425887,-1193.79595921525,0,1,23.1092957329081,153.387554213816,3.593905421439558e-05,-3.0796661376953125,-5.50638484954834,0.4746457636356354,-0.38382551074028015,1.5206642150878906,4.874227046966553,2.631457567214966,-1.7865535020828247
69,sampled_images/20181129_depthmap_0378_0538_01_004.png,6,0,0,-14507.779096,15028.465887,-1195.0026662161301,0,1,23.0990608209413,153.380280703617,0.011592764407396317,-3.0395050048828125,5.680478096008301,3.7888267040252686,-2.9578535556793213,2.7235212326049805,-7.0037126541137695,-1.2683130502700806,6.066565036773682
70,sampled_images/20181129_depthmap_0605_0388_01_004.png,6,0,0,-15869.799096,14128.645887,-1174.4059909254304,0,1,23.086770103931602,153.371484955926,0.0013994770124554634,1.006567358970642,-2.8685150146484375,-2.2860395908355713,-0.8742955327033997,-2.046233892440796,-3.270317554473877,-3.013873815536499,-0.7774884104728699
71,sampled_images/20181129_depthmap_0698_0326_01_004.png,6,0,0,-16427.639096000006,13756.585887,-1165.96736850349,0,1,23.081736097860304,153.367848582737,0.00035418971674516797,-0.5385670065879822,1.7344497442245483,-5.461531162261963,1.0741223096847534,-0.18727822601795197,-1.6000899076461792,-0.3983018100261688,2.256059408187866
72,sampled_images/20181129_depthmap_0614_0381_01_004.png,6,0,0,-15923.499096,14086.545887,-1175.91263532688,0,1,23.086285566796604,153.371073559417,3.710325472638942e-05,-1.3661839962005615,-5.085601329803467,0.6162269115447998,0.09860969334840775,3.499917507171631,3.2812435626983643,5.885331153869629,-2.2004387378692627
73,sampled_images/20181129_depthmap_0828_0241_01_004.png,6,0,0,-17207.859096,13246.445887,-1166.47060417103,0,1,23.0746950819381,153.36286297658899,0.0015244446694850922,-2.011972188949585,0.4269888401031494,1.0938711166381836,-3.8935678005218506,-4.677216053009033,-3.1526453495025635,0.15191081166267395,0.3914158046245575
74,sampled_images/20181129_depthmap_0126_0704_01_004.png,6,0,0,-12995.719096,16024.485887,-1155.45963291899,0,1,23.1127049043528,153.390018724154,0.0008366751135326922,-2.4986462593078613,-2.7713074684143066,0.869849443435669,3.0174832344055176,-2.1764721870422363,-1.5067343711853027,-1.434868335723877,0.875523567199707
75,sampled_images/20181129_depthmap_0399_0525_01_004.png,6,0,0,-14633.559096,14950.545887,-1191.4676149678696,0,1,23.0979257711852,153.379518895144,0.02501012571156025,-4.072608947753906,5.772812843322754,3.280250072479248,-2.883636236190796,3.2047479152679443,-7.423427581787109,-2.2302801609039307,7.48886251449585
76,sampled_images/20181129_depthmap_0678_0339_01_004.png,6,0,0,-16307.639096,13834.645887,-1167.4687075552804,0,1,23.0828190142503,153.368611515761,0.0007290917565114796,-2.32318377494812,0.8353614807128906,-1.8049722909927368,-1.1842538118362427,-3.057042121887207,-3.1980819702148438,-2.489962339401245,-2.717548131942749
77,sampled_images/20181129_depthmap_0377_0538_01_004.png,6,0,0,-14501.539096,15028.485887,-1196.59737551036,0,1,23.0991171660317,153.380280960019,0.009498671628534794,-1.1004509925842285,5.251791477203369,3.969954252243042,-2.44581937789917,1.1058306694030762,-5.515869617462158,-1.463213562965393,5.678269386291504
78,sampled_images/20181129_depthmap_1085_0072_01_004.png,6,0,0,-18749.519096,12232.425887,-1176.24809768453,0,1,23.0607820849685,153.352954560943,0.000634749187156558,-4.123240947723389,-1.097540020942688,-1.316589117050171,0.14528082311153412,-2.49751877784729,-3.2289721965789795,0.22557225823402405,2.8924903869628906
79,sampled_images/20181129_depthmap_1076_0078_01_004.png,6,0,0,-18695.859096,12268.445887,-1178.24798979957,0,1,23.061266355235,153.353306483723,0.0004902383079752326,1.4689363241195679,0.02969815582036972,-0.7417810559272766,4.472321033477783,2.010828971862793,-1.6025444269180298,-2.453197956085205,-1.2563925981521606
80,sampled_images/20181129_depthmap_0076_0737_01_004.png,6,0,0,-12695.779096,16222.565887,-1167.67877979018,0,1,23.115411334499196,153.391955566065,0.0012623444199562073,-0.4635029137134552,-2.5886905193328857,-1.7804815769195557,-0.04457779973745346,-2.794058084487915,-4.101607322692871,-1.1121398210525513,-0.3194185197353363
81,sampled_images/20181129_depthmap_0007_0783_01_004.png,6,0,0,-12281.559096,16498.705887,-1172.7457090729902,0,1,23.1191488732044,153.394655772512,0.0004639756807591766,-3.4353504180908203,3.1712286472320557,-2.41477632522583,-1.9904025793075562,-2.0324039459228516,-2.060924530029297,-1.477635383605957,-2.3164472579956055
82,sampled_images/20181129_depthmap_0822_0245_01_004.png,6,0,0,-17171.579096,13270.465887,-1169.5055574364098,0,1,23.075022488393504,153.363097708802,3.901528179994784e-05,-4.872136116027832,-3.297600507736206,0.6712995171546936,-3.645972490310669,3.533623456954956,3.102137565612793,4.881083011627197,-1.9490294456481934
83,sampled_images/20181129_depthmap_0594_0395_01_004.png,6,0,0,-15803.699096,14170.525887,-1178.16661079151,0,1,23.0873666102076,153.37189432270299,0.014521166682243347,-2.404606819152832,5.458153247833252,3.9625089168548584,-3.0126192569732666,1.7027493715286255,-5.884955883026123,-0.8321091532707214,6.578293800354004
84,sampled_images/20181129_depthmap_0237_0631_01_004.png,6,0,0,-13661.499096,15586.525887,-1211.24833872655,0,1,23.1066973066903,153.385736566446,3.226564876968041e-05,-3.748790979385376,-0.6965800523757935,1.178641438484192,1.0847227573394775,3.4327597618103027,4.023597717285156,6.7227678298950195,-4.521013259887695
85,sampled_images/20181129_depthmap_0362_0548_01_004.png,6,0,0,-14411.539096,15088.405887,-1199.36053904915,0,1,23.0999292935956,153.380866728827,0.00047467913827858865,1.7344045639038086,-0.5971333980560303,-5.397623062133789,-0.8052003383636475,1.2754076719284058,-3.8092617988586426,-2.0095314979553223,-1.7358694076538086
86,sampled_images/20181129_depthmap_0558_0419_01_004.png,6,0,0,-15587.579096,14314.445887,-1177.27097028863,0,1,23.0893168738909,153.373301030218,0.00033007352612912655,4.217234134674072,0.6908106803894043,-3.5263562202453613,2.7087879180908203,-0.20259924232959747,-1.1757750511169434,0.38670870661735535,-1.2969279289245605
87,sampled_images/20181129_depthmap_0121_0707_01_004.png,6,0,0,-12965.479096,16042.685887,-1155.9283444656098,0,1,23.112977785377197,153.390196710027,0.0010699111735448241,0.3693259060382843,-1.1997077465057373,2.410219669342041,5.208302974700928,-1.9495618343353271,-2.8478002548217773,-0.7770119309425354,-0.2048264592885971
88,sampled_images/20181129_depthmap_1056_0091_01_004.png,6,0,0,-18575.639096000006,12346.445887,-1182.86088415758,0,1,23.0623513326574,153.354068600678,0.002708262763917446,0.15503308176994324,2.0337469577789307,4.742504596710205,-2.5217695236206055,-5.251712322235107,-0.8458186984062195,-1.1674854755401611,2.034902572631836
89,sampled_images/20181129_depthmap_0699_0325_01_004.png,6,0,0,-16433.619096000002,13750.525887,-1165.8300860753698,0,1,23.0816821504198,153.36778938467899,0.0018587212543934584,4.734841823577881,0.33067354559898376,3.8409786224365234,1.4182454347610474,0.749957263469696,-3.440647602081299,-1.434108853340149,-2.0416762828826904
90,sampled_images/20181129_depthmap_0713_0317_01_004.png,6,0,0,-16517.639096000006,13702.445887,-1165.43443046515,0,1,23.080923871624197,153.367319382723,7.996286149136722e-05,0.7414131760597229,-5.398801326751709,1.2966622114181519,3.0593576431274414,-1.5238603353500366,4.298648834228516,0.7401922345161438,1.0034081935882568
91,sampled_images/20181129_depthmap_0419_0512_01_004.png,6,0,0,-14753.619096,14872.465887,-1183.5658224361,0,1,23.096842368811608,153.378755593257,0.014121748507022858,-2.432159423828125,5.147765636444092,3.944629192352295,-2.8060286045074463,1.4102529287338257,-5.892403602600098,-1.4466042518615723,5.628890037536621
92,sampled_images/20181129_depthmap_0532_0436_01_004.png,6,0,0,-15431.599096000002,14416.425887,-1185.2898724177699,0,1,23.090724443344893,153.37429785775498,0.005613289307802916,0.30020153522491455,5.440669059753418,4.842926979064941,-1.2635546922683716,1.752467155456543,-5.10121488571167,-1.9396287202835083,2.0352189540863037
93,sampled_images/20181129_depthmap_0766_0282_01_004.png,6,0,0,-16835.799096000002,13492.625887,-1169.94536169152,0,1,23.0780526965343,153.365268793443,0.0010206453735008836,-1.69637930393219,2.1396572589874268,-3.3774189949035645,-0.0880957841873169,-1.1683545112609863,-4.1463236808776855,-1.3347337245941162,-0.45727601647377014
94,sampled_images/20181129_depthmap_0652_0356_01_004.png,6,0,0,-16151.479096,13936.565887,-1171.84778435676,0,1,23.0842282407788,153.369607662375,4.96372849738691e-05,-0.48529675602912903,-2.8181099891662598,-1.633292317390442,3.174084424972534,3.87105655670166,2.230473041534424,2.7913410663604736,-4.699944496154785
95,sampled_images/20181129_depthmap_0352_0555_01_004.png,6,0,0,-14351.779096,15130.465887,-1202.06786376655,0,1,23.100468524274202,153.381277871503,1.5210772289719898e-05,-5.0197672843933105,-1.1841316223144531,-0.5543848872184753,5.6571736335754395,3.723074436187744,3.2085678577423096,4.427232265472412,-3.0896999835968018
96,sampled_images/20181129_depthmap_0941_0166_01_004.png,6,0,0,-17885.779096000002,12796.585887,-1172.8753262725802,0,1,23.068577178193106,153.358467003639,0.006585049908608198,0.9748048186302185,3.840428590774536,3.7203774452209473,-2.132462739944458,-1.986005425453186,-3.279907464981079,-2.057616710662842,4.60506010055542
97,sampled_images/20181129_depthmap_0084_0732_01_004.png,6,0,0,-12743.479096,16192.465887,-1166.4627740038302,0,1,23.1149809140033,153.39166121843598,0.0004642441344913095,-3.235853672027588,-0.7102749943733215,0.2934911549091339,4.837703227996826,-1.573958158493042,-2.0080177783966064,-0.8227631449699402,0.21766792237758636
98,sampled_images/20181129_depthmap_0960_0154_01_004.png,6,0,0,-17999.579096,12724.525887,-1173.0467247082304,0,1,23.067550148502,153.357762836619,0.00807140115648508,0.5642969012260437,4.485560894012451,4.816986083984375,-2.0850820541381836,-1.9705054759979248,-3.0913586616516113,-1.3236263990402222,3.921295404434204
99,sampled_images/20181129_depthmap_0338_0565_01_004.png,6,0,0,-14267.639096,15190.685887,-1201.0407657589,0,1,23.1012277312173,153.381866522473,0.0015302376123145223,-0.9204137325286865,-2.5342295169830322,0.8598837852478027,-1.9779638051986694,-4.792661666870117,-3.0814874172210693,0.7050727009773254,-1.2732007503509521
100,sampled_images/20181129_depthmap_1180_0009_01_004.png,6,0,0,-19319.739096,11854.525887,-1175.46350176069,0,1,23.055635883221694,153.34926249662598,1.728343340801075e-05,-4.694254398345947,-0.4804033637046814,-0.7208404541015625,1.5611673593521118,7.532376289367676,3.6575849056243896,4.51464319229126,-3.504922866821289
101,sampled_images/20181129_depthmap_0322_0575_01_004.png,6,0,0,-14171.559096,15250.405887,-1202.79701122487,0,1,23.1020947549203,153.38245041825502,0.00018663052469491959,0.8515154719352722,-0.8509684801101685,-5.361675262451172,0.3591919541358948,-0.07752060890197754,-0.28317126631736755,-0.028148075565695763,-2.0218071937561035
102,sampled_images/20181129_depthmap_1025_0111_01_004.png,6,0,0,-18389.699096,12466.445887,-1182.65951331808,0,1,23.064029425837802,153.35524112021298,2.114169910782948e-05,-5.311631202697754,0.0862116739153862,-1.824365496635437,1.45689857006073,6.220973491668701,3.303823232650757,5.14238977432251,-2.247840166091919
103,sampled_images/20181129_depthmap_0388_0532_01_004.png,6,0,0,-14567.519096,14992.465887,-1192.11318189331,0,1,23.098521713301,153.379928721197,0.009330430999398232,-1.533091425895691,5.815678119659424,4.144986629486084,-2.7798476219177246,1.8422331809997559,-6.142620086669922,-1.1260957717895508,5.634181022644043
104,sampled_images/20181129_depthmap_0371_0543_01_004.png,6,0,0,-14465.679096000002,15058.525887,-1199.4773349692,0,1,23.0994406980028,153.380574534632,0.0005557297845371068,-1.6885223388671875,-0.9317532777786255,-3.0644049644470215,1.198681116104126,2.1393914222717285,-3.092576503753662,-1.4154284000396729,2.001680850982666
105,sampled_images/20181129_depthmap_0119_0710_01_004.png,6,0,0,-12953.579096,16060.445887,-1161.27468388007,0,1,23.1130850662955,153.390370208991,0.04234819859266281,-4.052416801452637,6.845983982086182,3.677928924560547,-4.153557777404785,2.4501333236694336,-7.665613174438477,-0.7852411270141602,8.1893949508667
106,sampled_images/20181129_depthmap_0128_0703_01_004.png,6,0,0,-13007.779096,16018.605887,-1154.81798472581,0,1,23.1125960634084,153.389961197229,0.006209061946719885,0.5584167838096619,5.227184295654297,4.403428077697754,-2.4962027072906494,1.325042963027954,-4.5702223777771,-0.9297451972961426,4.401439666748047
107,sampled_images/20181129_depthmap_1118_0050_01_004.png,6,0,0,-18947.819096,12100.485887,-1177.34696820355,0,1,23.0589924532968,153.351665487906,0.00129289913456887,-0.614115297794342,-2.7544665336608887,0.3843114674091339,1.7575275897979736,-3.359921455383301,-3.0865113735198975,-0.638831377029419,-0.019720599055290222
108,sampled_images/20181129_depthmap_1117_0051_01_004.png,6,0,0,-18941.839096,12106.705887,-1177.31835462049,0,1,23.059046405837307,153.3517262309,8.057195373112336e-05,2.053415060043335,-4.221591949462891,-2.158026695251465,-0.018384242430329323,1.3658047914505005,1.2107762098312378,4.192568778991699,-2.1098945140838623
109,sampled_images/20181129_depthmap_0515_0448_01_004.png,6,0,0,-15329.619096,14488.565887,-1186.67322440417,0,1,23.0916446633885,153.375002940767,0.0006132446578703821,-0.2673928141593933,-1.1822534799575806,-4.260668754577637,0.5548386573791504,-1.096989631652832,-2.995743751525879,-2.690412998199463,0.965979278087616
110,sampled_images/20181129_depthmap_1011_0120_01_004.png,6,0,0,-18305.479096,12520.465887,-1182.6934183835099,0,1,23.064789503891106,153.355768963142,0.0003216964832972735,0.5836319327354431,-4.470895290374756,-3.443826675415039,0.3962487280368805,5.482419013977051,0.4726465344429016,2.556103467941284,-3.160822629928589
111,sampled_images/20181129_depthmap_0781_0271_01_004.png,6,0,0,-16925.539096,13426.365887,-1165.50845722285,0,1,23.077242907016807,153.364621340677,0.026992032304406166,-4.583310604095459,5.97967004776001,3.786560535430908,-3.8978710174560547,3.7168428897857666,-8.099297523498535,-1.4762955904006958,8.019021034240723
112,sampled_images/20181129_depthmap_0188_0664_01_004.png,6,0,0,-13367.479096,15784.385887,-1193.83522618559,0,1,23.1093503387996,153.387671027321,5.783178494311869e-05,-2.5768299102783203,-0.8703792691230774,0.050489842891693115,-0.6666992902755737,1.433067798614502,3.291574716567993,6.221059322357178,-4.2086334228515625
113,sampled_images/20181129_depthmap_0648_0360_01_004.png,6,0,0,-16127.619096,13960.425887,-1169.90757978931,0,1,23.084443488990804,153.369840752908,0.000540430482942611,-1.361315369606018,-1.744659185409546,-1.9653911590576172,0.28094810247421265,-0.2843610346317291,-3.6150903701782227,-0.059614114463329315,3.5245039463043213
114,sampled_images/20181129_depthmap_0611_0384_01_004.png,6,0,0,-15905.499096,14104.345887,-1176.06356546969,0,1,23.0864479502307,153.37124745541402,0.00028980241040699184,2.466953754425049,-4.433778762817383,-3.0337202548980713,2.8113784790039062,2.077158212661743,-1.9946321249008179,2.3229870796203613,-1.9209119081497192
115,sampled_images/20181129_depthmap_0576_0407_01_004.png,6,0,0,-15695.619096,14242.645887,-1178.51596285918,0,1,23.0883419229199,153.37259923320698,0.0002731813583523035,2.4891793727874756,-2.02960467338562,-1.6569693088531494,4.0113935470581055,2.1284072399139404,1.3309111595153809,-1.2826749086380005,1.4867950677871704
116,sampled_images/20181129_depthmap_0994_0132_01_004.png,6,0,0,-18203.619096,12592.345887,-1180.33804096889,0,1,23.065708729247,153.356471246132,0.0237412229180336,-4.556984901428223,6.428450107574463,3.597160577774048,-4.070141315460205,3.441652536392212,-8.658795356750488,-1.192024827003479,8.530592918395996
117,sampled_images/20181129_depthmap_0618_0379_01_004.png,6,0,0,-15947.539096,14074.345887,-1175.52169940343,0,1,23.0860685961922,153.370954265133,0.0017523856367915869,1.4922938346862793,-0.2831491529941559,1.6457175016403198,-3.8250720500946045,-4.87797737121582,-2.3552029132843018,-0.8206658363342285,-1.7862534523010254
118,sampled_images/20181129_depthmap_0944_0164_01_004.png,6,0,0,-17903.779096000002,12784.685887,-1174.9885872063498,0,1,23.0684147347039,153.358350723248,0.0014674477279186249,3.3035571575164795,1.1946433782577515,-0.607979953289032,-1.2434213161468506,0.3830794095993042,-6.260926246643066,0.6165932416915894,-3.322385787963867
119,sampled_images/20181129_depthmap_0735_0301_01_004.png,6,0,0,-16649.699096,13606.425887,-1167.0832088814698,0,1,23.079732197674797,153.366381080064,0.00032640810240991414,-4.787627220153809,3.345205783843994,3.6904568672180176,-3.5156993865966797,-1.7165377140045166,1.7527259588241577,1.8137363195419312,1.168415904045105
120,sampled_images/20181129_depthmap_0559_0419_01_004.png,6,0,0,-15593.699096,14314.645887,-1177.23639249541,0,1,23.0892616103695,153.373302925166,0.0005393666215240955,-3.528512954711914,3.8199877738952637,-2.2854743003845215,-0.4599510431289673,0.4907953143119812,-4.925210475921631,1.2310816049575806,-1.7222932577133179
121,sampled_images/20181129_depthmap_0297_0591_01_004.png,6,0,0,-14021.479096,15346.385887,-1204.06554455853,0,1,23.103449043818607,153.383388808475,0.0007064438541419804,-3.291217565536499,2.1886305809020996,-2.194139242172241,0.17951932549476624,3.2629494667053223,-4.960437774658203,0.8469502925872803,0.03144574165344238
122,sampled_images/20181129_depthmap_0241_0629_01_004.png,6,0,0,-13685.759096000002,15574.625887,-1211.53561499738,0,1,23.106478358587605,153.385620156706,6.210040737641975e-05,2.006403684616089,-2.9499895572662354,2.3933358192443848,0.6707592010498047,-1.6831272840499878,4.661899089813232,2.147256851196289,-4.409080505371094
123,sampled_images/20181129_depthmap_1035_0104_01_004.png,6,0,0,-18449.819096,12424.665887,-1182.64117604926,0,1,23.063486871107997,153.354832922048,1.913405503728427e-05,-2.8287627696990967,-0.5494064092636108,-0.6453495025634766,3.0831401348114014,4.335707187652588,2.9528093338012695,5.219836235046387,-4.57957649230957
124,sampled_images/20181129_depthmap_1093_0066_01_004.png,6,0,0,-18797.779096,12196.505887,-1177.51915857287,0,1,23.060346573769003,153.352603659387,0.00011729293328244239,3.4041874408721924,-0.601149320602417,-3.5795154571533203,2.0310170650482178,0.44752416014671326,-2.956484079360962,5.279491901397705,-0.056713879108428955
125,sampled_images/20181129_depthmap_0713_0316_01_004.png,6,0,0,-16517.599096,13696.725887,-1165.37276286946,0,1,23.080924280064398,153.367263557287,0.0001557677169330418,2.7458410263061523,-4.2833147048950195,-2.946098804473877,1.0490754842758179,3.589968204498291,-0.7785561680793762,4.080891132354736,-1.135311484336853
126,sampled_images/20181129_depthmap_0658_0352_01_004.png,6,0,0,-16187.539096,13912.365887,-1171.7841926931098,0,1,23.083902832573,153.369371143552,5.643976328428835e-05,-0.816927433013916,-5.289649963378906,0.706437349319458,-3.045106887817383,3.7165145874023438,2.6139895915985107,3.83769154548645,-2.482050895690918
127,sampled_images/20181129_depthmap_0218_0643_01_004.png,6,0,0,-13547.539096,15658.565887,-1195.73165609575,0,1,23.107725649445896,153.386440957365,0.011710057966411114,-1.9282044172286987,5.570608615875244,3.8662612438201904,-3.0288946628570557,1.7769056558609009,-6.328537940979004,-1.1160346269607544,6.255408763885498
128,sampled_images/20181129_depthmap_0206_0652_01_004.png,6,0,0,-13475.499096,15712.545887,-1195.27515409822,0,1,23.108375636229,153.38696863178498,0.018719807267189026,-3.074963092803955,5.7886552810668945,3.8560805320739746,-3.6820476055145264,2.483872413635254,-6.832036972045898,-0.834496796131134,7.248764991760254
129,sampled_images/20181129_depthmap_0443_0495_01_004.png,6,0,0,-14897.859096,14770.605887,-1173.06208474915,0,1,23.0955408366096,153.377759958357,0.00022706239542458206,-0.214345321059227,-1.9082194566726685,-4.069273471832275,-4.436718463897705,2.2337498664855957,-1.4682787656784058,3.0205721855163574,-1.1385079622268677
130,sampled_images/20181129_depthmap_0898_0194_01_004.png,6,0,0,-17627.839096,12964.365887,-1169.7012285714,0,1,23.070905004958806,153.36010652431003,0.0012312267208471894,2.777102470397949,-0.9715752601623535,1.1669976711273193,2.003232955932617,2.3503551483154297,-3.7086501121520996,-1.1555132865905762,0.04771130532026291
131,sampled_images/20181129_depthmap_1069_0083_01_004.png,6,0,0,-18653.599096,12298.665887,-1182.83331203004,0,1,23.0616477285846,153.353601719166,0.002237629145383835,1.8693066835403442,2.1872494220733643,4.010049343109131,-2.4429006576538086,-3.5619306564331055,-2.595489025115967,1.7246025800704956,-4.345745086669922
132,sampled_images/20181129_depthmap_0411_0516_01_004.png,6,0,0,-14705.759096000002,14896.545887,-1189.37372133308,0,1,23.0972743136685,153.37899110077498,0.007026042323559523,-0.20526228845119476,4.807735443115234,2.906097650527954,-2.3195173740386963,-0.15483008325099945,-5.477334022521973,-2.577040672302246,4.2079668045043945
133,sampled_images/20181129_depthmap_0305_0586_01_004.png,6,0,0,-14069.779096,15316.505887,-1203.38894488855,0,1,23.103013186561494,153.383096655865,0.0008319696644321084,-4.14470911026001,1.0854270458221436,1.1387826204299927,-3.700536012649536,-3.030423164367676,-3.705561399459839,0.9201549291610718,-1.3208181858062744
134,sampled_images/20181129_depthmap_1025_0112_01_004.png,6,0,0,-18389.699096,12472.345887,-1182.67930136838,0,1,23.064029381512107,153.35529869559798,5.393598257796839e-05,0.1861514300107956,-4.090651988983154,-4.276877403259277,2.974310874938965,3.3266279697418213,0.11552301049232483,0.9403737783432007,-3.109776735305786
135,sampled_images/20181129_depthmap_0688_0333_01_004.png,6,0,0,-16367.739096,13798.465887,-1166.24515000001,0,1,23.082276629857997,153.368257862395,8.690480171935633e-05,1.968630313873291,-2.253199338912964,-4.432352066040039,0.3717811405658722,3.7806949615478516,-1.6392289400100708,3.8966994285583496,-3.263084650039673
136,sampled_images/20181129_depthmap_0792_0264_01_004.png,6,0,0,-16991.839096,13384.505887,-1170.30847256094,0,1,23.076644574728302,153.364212230221,0.00013376832066569477,4.1269378662109375,0.085613913834095,-2.8539986610412598,2.163599729537964,1.1382676362991333,-1.5525978803634644,2.8646717071533203,1.6881873607635498
137,sampled_images/20181129_depthmap_0883_0205_01_004.png,6,0,0,-17537.699096,13030.705887,-1169.81524471055,0,1,23.071718425148696,153.36075470373,0.0008309472468681633,1.3888338804244995,-2.370450496673584,-3.3920114040374756,0.9985963106155396,-1.0345752239227295,-4.1026997566223145,-0.7077887058258057,2.141475200653076
138,sampled_images/20181129_depthmap_0786_0269_01_004.png,6,0,0,-16955.679096,13414.405887,-1168.98814968112,0,1,23.076970847958602,153.364504353732,0.009192666038870811,-1.1021541357040405,4.157016277313232,2.982158899307251,-2.494957685470581,1.659695029258728,-5.007338523864746,-2.351027250289917,6.722344398498535
139,sampled_images/20181129_depthmap_0346_0559_01_004.png,6,0,0,-14315.839096000003,15154.465887,-1201.2697115683802,0,1,23.1007928319413,153.381512494695,0.005138215608894825,0.7458780407905579,4.208418369293213,4.244960784912109,-2.7441587448120117,-1.2206857204437256,-3.210319757461548,-1.494232177734375,3.9904539585113525
140,sampled_images/20181129_depthmap_0451_0490_01_004.png,6,0,0,-14945.719096,14740.525887,-1178.69245384587,0,1,23.095108943164306,153.377465893174,0.0029608195181936026,3.755859375,2.2279908657073975,2.238534927368164,-0.45509374141693115,0.4090130031108856,-4.9130635261535645,1.7031234502792358,-2.677839756011963
141,sampled_images/20181129_depthmap_0347_0558_01_004.png,6,0,0,-14321.479096,15148.585887,-1201.57652684687,0,1,23.100741958270397,153.381455043194,0.002916732570156455,3.580979585647583,4.007528305053711,4.53906774520874,-1.652453064918518,1.621229887008667,-3.940943717956543,-0.08982569724321365,-2.162006378173828
142,sampled_images/20181129_depthmap_0297_0592_01_004.png,6,0,0,-14021.559096,15352.545887,-1204.49640450935,0,1,23.103448264367298,153.383448937738,0.0003092848928645253,2.442051887512207,0.01265491172671318,-1.7727059125900269,3.3253226280212402,2.37211012840271,0.7006534337997437,-3.685972213745117,-1.2455776929855347
143,sampled_images/20181129_depthmap_0278_0603_01_004.png,6,0,0,-13907.739096,15418.725887,-1206.99285608681,0,1,23.1044754083362,153.384096090709,3.9701986679574475e-05,-1.2098758220672607,-2.5257043838500977,-2.5990898609161377,3.617582321166992,1.4474806785583496,1.3802571296691895,1.774256706237793,-5.04556941986084
144,sampled_images/20181129_depthmap_0185_0666_01_004.png,6,0,0,-13349.739096,15796.545887,-1191.79472043968,0,1,23.109510409312,153.387789913722,0.0009370018960908055,2.509097099304199,0.1535245031118393,-0.7715535163879395,1.634042739868164,2.325802803039551,-5.448817253112793,-0.6566251516342163,-0.9340487718582153
145,sampled_images/20181129_depthmap_0912_0185_01_004.png,6,0,0,-17711.759096,12910.605887,-1170.90984032979,0,1,23.0701476490877,153.359581172914,0.0013843465130776167,2.359044075012207,-0.33542391657829285,0.3997754752635956,1.350809931755066,1.9776487350463867,-4.976449489593506,-1.637384295463562,-0.23202836513519287
146,sampled_images/20181129_depthmap_0123_0707_01_004.png,6,0,0,-12977.619096,16042.625887,-1155.51698400084,0,1,23.112868165752396,153.390195997145,0.00012061262532370165,-0.2813749611377716,-1.082945704460144,-3.9337258338928223,4.819963455200195,-2.4861979484558105,0.3869931101799011,-0.12583336234092712,-0.6753469109535217
147,sampled_images/20181129_depthmap_0842_0231_01_004.png,6,0,0,-17291.799096000002,13186.625887,-1168.29710174059,0,1,23.07393760331589,153.36227845373898,0.003578372299671173,3.4698750972747803,3.779020309448242,4.878440856933594,-0.7017347812652588,0.10188136994838715,-3.332690715789795,-0.8214192986488342,0.15470845997333527
148,sampled_images/20181129_depthmap_0574_0408_01_004.png,6,0,0,-15683.859096,14248.665887,-1177.96365797724,0,1,23.088448060534606,153.372658099392,0.002971936948597431,1.6536415815353394,1.102496862411499,1.7831041812896729,-1.6863112449645996,-4.169751167297363,-2.368814468383789,-2.4097893238067627,2.489149332046509
149,sampled_images/20181129_depthmap_0135_0698_01_004.png,6,0,0,-13049.739096,15988.645887,-1156.0154447811099,0,1,23.1122174679361,153.389668288729,0.0033267049584537745,2.933241605758667,1.3841679096221924,2.846416473388672,-0.34002578258514404,-1.9168227910995483,-2.797062397003174,-3.687563180923462,2.0602681636810303
150,sampled_images/20181129_depthmap_0565_0415_01_004.png,6,0,0,-15629.499096,14290.565887,-1177.4677052898,0,1,23.088938554679494,153.373067562267,0.00044526741839945316,-0.1461721658706665,-0.12230033427476883,-4.202298164367676,0.9085898995399475,-0.34587451815605164,-3.5073111057281494,-2.10026478767395,0.9931040406227112
151,sampled_images/20181129_depthmap_0909_0188_01_004.png,6,0,0,-17693.839096,12928.385887,-1171.2705494924498,0,1,23.070309323439304,153.359754838472,0.00039508959162048995,1.2617326974868774,-2.4091291427612305,-4.422898769378662,0.5984787940979004,2.551755905151367,-0.9363109469413757,0.5851926803588867,-3.507152795791626
152,sampled_images/20181129_depthmap_0208_0650_01_004.png,6,0,0,-13487.679096000002,15700.545887,-1194.58308203449,0,1,23.108265768556198,153.386851366217,0.011708742938935757,-1.2922906875610352,5.190953254699707,1.6951873302459717,-2.0643069744110107,1.5016840696334839,-6.693803787231445,-3.649449110031128,5.890316009521484
153,sampled_images/20181129_depthmap_1061_0087_01_004.png,6,0,0,-18605.699096,12322.605887,-1183.0976720558901,0,1,23.0620800757408,153.353835718796,0.0004441376368049532,-2.788520097732544,2.4123308658599854,-3.04280686378479,-3.1133837699890137,-2.212703227996826,0.4881216585636139,0.021703941747546196,0.5425998568534851
154,sampled_images/20181129_depthmap_0824_0243_01_004.png,6,0,0,-17183.719096,13258.425887,-1168.83619282687,0,1,23.074912963803,153.362980101602,9.89368199952878e-05,1.8820160627365112,-1.1496771574020386,3.81547474861145,0.4248006343841553,-2.3507871627807617,2.967038869857788,6.599937915802002,0.26777383685112
155,sampled_images/20181129_depthmap_0399_0524_01_004.png,6,0,0,-14633.519096,14944.645887,-1191.4926739405698,0,1,23.097926185595004,153.379461305772,0.020264314487576485,-3.2436344623565674,5.808227062225342,3.2321789264678955,-3.799337148666382,2.2490196228027344,-8.053211212158203,-1.8570126295089722,8.462112426757812
156,sampled_images/20181129_depthmap_1125_0045_01_004.png,6,0,0,-18989.479096,12070.605887,-1177.6359699041,0,1,23.058616491532803,153.351373586214,4.6657907660119236e-05,-3.093681573867798,-2.5911049842834473,-0.6578012704849243,1.2760052680969238,5.454444408416748,2.9561145305633545,5.398010730743408,-3.256103038787842
157,sampled_images/20181129_depthmap_0358_0552_01_004.png,6,0,0,-14387.639096,15112.545887,-1200.63664408366,0,1,23.100144883168696,153.381102597936,0.00047445172094739974,-1.170328974723816,-2.9841432571411133,-1.6380399465560913,2.2189443111419678,2.696681022644043,-2.452648162841797,-2.1504158973693848,1.3653053045272827
158,sampled_images/20181129_depthmap_0107_0717_01_004.png,6,0,0,-12881.559096,16102.425887,-1181.70908701508,0,1,23.1137349754325,153.390780777771,0.003097809851169586,3.8421671390533447,1.1253677606582642,1.5063211917877197,-2.983332395553589,-2.933460235595703,-3.0266640186309814,-2.0838141441345215,2.916766881942749
159,sampled_images/20181129_depthmap_0441_0496_01_004.png,6,0,0,-14885.599096000002,14776.685887,-1172.13222691121,0,1,23.095651486481,153.37781942222,0.0005513689829967916,-1.3916834592819214,2.758465528488159,-3.3264811038970947,-0.8058919310569763,1.0455083847045898,-2.8010034561157227,-0.319202184677124,0.9038982391357422
160,sampled_images/20181129_depthmap_0830_0240_01_004.png,6,0,0,-17219.519096,13240.365887,-1164.93165847046,0,1,23.074589843875998,153.362803539424,0.0010659965919330716,0.5015440583229065,-2.1066391468048096,-1.2122087478637695,0.569328784942627,-3.585908889770508,-2.472395181655884,-2.2829794883728027,1.0243570804595947
161,sampled_images/20181129_depthmap_0120_0709_01_004.png,6,0,0,-12959.619096,16054.485887,-1157.6418653418302,0,1,23.1130305848812,153.390311963757,0.06873736530542374,-6.317535400390625,7.336155414581299,3.6254022121429443,-4.882593154907227,4.58038330078125,-9.78598403930664,-1.3889673948287964,10.715968132019043
162,sampled_images/20181129_depthmap_0750_0292_01_004.png,6,0,0,-16739.519096,13552.485887,-1169.15902452751,0,1,23.0789215899542,153.36585385025802,5.823237734148279e-05,-2.1915059089660645,-4.361479759216309,-1.2518497705459595,0.741841733455658,-0.6944065690040588,4.560726165771484,-0.7605634927749634,-2.7989790439605713
163,sampled_images/20181129_depthmap_0746_0294_01_004.png,6,0,0,-16715.479096,13564.465887,-1167.14849169004,0,1,23.0791385664744,153.365970982891,0.0005359171191230416,-2.5782225131988525,-1.327487587928772,-2.7087128162384033,1.4227268695831299,-1.792598843574524,-1.9182095527648926,-2.2371015548706055,1.114533543586731
164,sampled_images/20181129_depthmap_0634_0369_01_004.png,6,0,0,-16043.739096,14014.405887,-1172.6924097073402,0,1,23.0852004458033,153.37036836439302,0.0003976563166361302,1.0780045986175537,-0.21056048572063446,-4.979419708251953,1.5813360214233398,-0.39971309900283813,-0.501621663570404,0.2214628905057907,0.40954017639160156
165,sampled_images/20181129_depthmap_1124_0046_01_004.png,6,0,0,-18983.799096,12076.365887,-1177.73023003193,0,1,23.058667738611003,153.351429837814,2.8711634513456374e-05,-3.7080533504486084,-0.5570603013038635,0.5352714657783508,3.5413625240325928,4.004081726074219,3.2541284561157227,6.719228744506836,-4.296668529510498
166,sampled_images/20181129_depthmap_0071_0741_01_004.png,6,0,0,-12665.559096,16246.445887,-1172.58012790166,0,1,23.1156839768832,153.392189008836,7.502522930735722e-05,-3.0796191692352295,-3.2176194190979004,0.9562670588493347,-5.966674327850342,0.505047619342804,2.146336317062378,4.867437362670898,-1.2281959056854248
167,sampled_images/20181129_depthmap_0029_0768_01_004.png,6,0,0,-12413.719096,16408.485887,-1188.89667338309,0,1,23.117956409700398,153.393773583084,0.0008289234829135239,0.7954478859901428,-0.3870755136013031,-2.3617939949035645,1.5690476894378662,-1.05913507938385,-3.8438162803649902,-2.8677775859832764,-0.7865318059921265
168,sampled_images/20181129_depthmap_0300_0590_01_004.png,6,0,0,-14039.779096,15340.465887,-1203.71693546409,0,1,23.103283855417,153.383330837947,0.0018830840708687901,3.1427838802337646,-0.8509137630462646,0.6987829804420471,0.007518494501709938,1.3093699216842651,-4.906619548797607,-2.2103428840637207,-1.6390255689620972
169,sampled_images/20181129_depthmap_0522_0442_01_004.png,6,0,0,-15371.659096,14452.725887,-1186.7898425953,0,1,23.091265367609,153.37465272732402,0.0033315028995275497,2.2262985706329346,2.1297030448913574,2.172408103942871,-0.4260512590408325,1.0713776350021362,-4.267053127288818,-3.2365455627441406,2.4722325801849365
170,sampled_images/20181129_depthmap_0271_0608_01_004.png,6,0,0,-13865.859096,15448.585887,-1208.41382240556,0,1,23.10485329325289,153.384387989769,0.001129280193708837,1.171735167503357,0.48116984963417053,-1.16755211353302,-1.0569721460342407,3.513263463973999,-5.157227039337158,-1.645412564277649,-3.0562362670898438
171,sampled_images/20181129_depthmap_0842_0232_01_004.png,6,0,0,-17291.739096,13192.465887,-1168.1822321433,0,1,23.0739380986684,153.362335448286,0.0047949873842298985,1.1641465425491333,5.424142837524414,4.5103607177734375,-1.386095404624939,1.6824922561645508,-4.944483280181885,-1.4071216583251953,0.9425495266914368
172,sampled_images/20181129_depthmap_0845_0230_01_004.png,6,0,0,-17309.679096,13180.465887,-1168.23784367136,0,1,23.0737762007554,153.362218183214,0.00064853485673666,1.7777619361877441,0.6364996433258057,-1.7745393514633179,1.33651602268219,3.15675950050354,-2.9392850399017334,-2.77028489112854,-0.5566595196723938
173,sampled_images/20181129_depthmap_0143_0694_01_004.png,6,0,0,-13097.639096,15964.585887,-1168.44684187905,0,1,23.111785178766894,153.389432915632,0.01079876720905304,-0.3924882411956787,5.302037715911865,3.2902402877807617,-3.236774206161499,0.27729061245918274,-5.412083625793457,-1.2505627870559692,5.918021202087402
174,sampled_images/20181129_depthmap_0408_0518_01_004.png,6,0,0,-14687.779096,14908.505887,-1195.14618649681,0,1,23.0974365599979,153.379108016359,3.0051132853259332e-05,-2.9630796909332275,-1.8260247707366943,0.5786410570144653,3.123760461807251,1.5200951099395752,3.431248903274536,5.6688361167907715,-4.346558094024658
175,sampled_images/20181129_depthmap_1162_0021_01_004.png,6,0,0,-19211.539096,11926.725887,-1174.61583456845,0,1,23.0566123852502,153.349967859549,0.0003126950468868017,0.4733380377292633,-0.24794809520244598,-2.1508007049560547,-4.5087056159973145,2.340240001678467,-0.3980369567871094,-0.013015500269830227,3.397420644760132
176,sampled_images/20181129_depthmap_1082_0074_01_004.png,6,0,0,-18731.579096,12244.385887,-1177.7224719588698,0,1,23.060943990412802,153.353071413293,0.0008440350648015738,1.2712196111679077,1.5485117435455322,-1.5480977296829224,2.7695767879486084,0.19770613312721252,-6.2484259605407715,-0.34472721815109253,-1.7788169384002686
177,sampled_images/20181129_depthmap_0681_0338_01_004.png,6,0,0,-16325.839096000003,13828.445887,-1165.26275961564,0,1,23.082654725165806,153.368550840395,0.0014526145532727242,-1.364166021347046,-3.119680643081665,1.1435805559158325,-3.553741693496704,-1.632482647895813,-3.206033945083618,-0.5993444919586182,-2.2269532680511475
178,sampled_images/20181129_depthmap_1026_0110_01_004.png,6,0,0,-18395.479096,12460.585887,-1182.57134775471,0,1,23.0639772779428,153.355183888274,0.00014107434253674,1.996361255645752,-1.71175217628479,-3.22137713432312,1.10909903049469,-0.13822069764137268,3.438472270965576,-1.069117784500122,-0.1549103856086731
179,sampled_images/20181129_depthmap_0206_0651_01_004.png,6,0,0,-13475.619096,15706.685887,-1194.1085534364,0,1,23.1083746082517,153.386911426825,0.0026641064323484898,2.6524364948272705,1.7147725820541382,-0.147334486246109,-1.0100030899047852,-1.9221484661102295,-3.429185390472412,-3.686879873275757,1.8559322357177734
180,sampled_images/20181129_depthmap_0868_0214_01_004.png,6,0,0,-17447.799096000002,13084.365887,-1168.1663431460304,0,1,23.072529775476895,153.361279142878,0.0009520192397758365,0.9612760543823242,-0.092564657330513,-5.929129600524902,-0.20336104929447174,0.7269583344459534,-2.9852871894836426,-1.9964373111724854,0.39000535011291504
181,sampled_images/20181129_depthmap_1057_0091_01_004.png,6,0,0,-18581.519096,12346.365887,-1182.9125330427698,0,1,23.062298238365504,153.354067772739,0.001088230055756867,-2.246352434158325,0.5982152223587036,2.1445815563201904,-2.462181329727173,-5.987658500671387,-1.9788728952407837,0.15656410157680511,0.8266610503196716
182,sampled_images/20181129_depthmap_0817_0247_01_004.png,6,0,0,-17141.739096,13282.465887,-1170.26531152614,0,1,23.0752918393432,153.36321507899402,3.549812390701845e-05,0.21907788515090942,-4.259619235992432,-0.8901084065437317,4.724076271057129,0.19152939319610596,1.4369584321975708,1.6497000455856323,-2.8164961338043213
183,sampled_images/20181129_depthmap_0457_0486_01_004.png,6,0,0,-14981.719096,14716.605887,-1178.99872519923,0,1,23.0947840866582,153.377232069895,0.004077891819179058,2.3663580417633057,3.5414929389953613,4.452070236206055,-0.7361432313919067,1.0763641595840454,-3.8502867221832275,-2.0770952701568604,1.0608583688735962
