,relative_path,altitude [m],roll [deg],pitch [deg],northing [m],easting [m],depth [m],heading [deg],timestamp [s],latitude [deg],longitude [deg],recon_loss,latent_0,latent_1,latent_2,latent_3,latent_4,latent_5,latent_6,latent_7
0,sampled_images/20181126_depthmap_0775_1228_01_004.png,6,0,0,8771.871933,-11636.955122,-1130.92530976233,0,1,23.3092936386737,153.119819480358,5.26381809322629E-05,-2.77778077125549,0.674602866172791,-3.23051881790161,1.70933520793915,1.82174479961395,2.06393051147461,-2.1856369972229,-4.53555536270142
1,sampled_images/20181126_depthmap_1050_1663_01_004.png,6,0,0,7122.091933,-9027.115122,-1115.92323255577,0,1,23.2944134266126,153.145344027977,0.000794379215222,2.22264242172241,5.5546498298645,1.32817709445953,0.645244956016541,0.393634051084518,2.97313261032104,1.52919626235962,-1.97075092792511
2,sampled_images/20181126_depthmap_0358_0570_01_004.png,6,0,0,11273.731933,-15584.875122,-1063.88137285018,0,1,23.3318512605277,153.081197513018,0.003525196108967,0.58550763130188,-3.08781886100769,1.96667194366455,-4.74157953262329,1.90791070461273,0.981876790523529,-3.031818151474,3.00805330276489
3,sampled_images/20181126_depthmap_0273_0437_01_004.png,6,0,0,11784.091933,-16382.855122,-1047.41199828954,0,1,23.3364517287086,153.073389351925,0.00037278412492,-3.93003702163696,-4.06226587295532,0.644452452659607,2.21913433074951,0.612781643867493,-2.14081811904907,3.87207531929016,3.05393934249878
4,sampled_images/20181126_depthmap_0753_1194_01_004.png,6,0,0,8903.971933,-11840.975122,-1130.07921148003,0,1,23.310484970295,153.117823876999,0.00044408874237,2.61338329315186,3.17372560501099,-4.93187093734741,-1.83590757846832,-1.77434372901917,0.294794172048569,-0.337167739868164,-0.765535116195679
5,sampled_images/20181126_depthmap_0684_1085_01_004.png,6,0,0,9317.911933,-12494.915122,-1131.12936168084,0,1,23.3142177717799,153.111427260468,0.000110015193059,2.26736497879028,0.470000654459,0.231679618358612,-2.11211943626404,1.58203816413879,0.257549732923508,-7.25227403640747,0.164847195148468
6,sampled_images/20181126_depthmap_0089_0142_01_004.png,6,0,0,12887.791933,-18152.895122,-1023.63637133916,0,1,23.3463988184933,153.056068098812,0.000874774937984,-4.63931274414063,3.25464034080505,-4.22195529937744,-2.42523622512817,1.30266535282135,0.236958220601082,3.58326029777527,-1.86241686344147
7,sampled_images/20181126_depthmap_0722_1144_01_004.png,6,0,0,9090.051933,-12140.975122,-1122.59059205419,0,1,23.3121629785948,153.11488945486,0.000214767453144,1.35249793529511,-3.22367811203003,-4.39318752288818,0.375384330749512,-0.181231036782265,2.0260751247406,-4.17642259597778,1.83226907253265
8,sampled_images/20181126_depthmap_0469_0747_01_004.png,6,0,0,10608.071933,-14523.035122,-1089.66024284509,0,1,23.3258504863481,153.091586559184,0.001214382820763,1.17250740528107,-2.91626882553101,-2.87090086936951,2.8918890953064,3.39806723594666,-3.95459151268005,-1.57914543151855,-0.536214172840118
9,sampled_images/20181126_depthmap_0948_1503_01_004.png,6,0,0,7733.791933,-9986.875122,-1110.56261990153,0,1,23.2999312010252,153.135958086248,0.000154877110617,-4.16513633728027,1.25362491607666,1.05086362361908,0.308442085981369,3.11593699455261,2.02305746078491,-4.91167879104614,-2.39900684356689
10,sampled_images/20181126_depthmap_0558_0886_01_004.png,6,0,0,10073.791933,-13689.055122,-1099.7528853225,0,1,23.3210334155934,153.099745673455,0.000854400801472,0.887905478477478,0.63756799697876,2.07809209823608,2.26713180541992,5.86637258529663,-1.63064551353455,-0.485304176807404,-1.44862639904022
11,sampled_images/20181126_depthmap_0417_0665_01_004.png,6,0,0,10919.931933,-15014.835122,-1069.91929736651,0,1,23.328661972521,153.086774866758,0.000571029784624,-3.8286600112915,-2.82324576377869,-1.85694360733032,0.25933638215065,-1.40746486186981,0.547932505607605,4.59174013137817,1.14486277103424
12,sampled_images/20181126_depthmap_1086_1719_01_004.png,6,0,0,6905.911933,-8690.975122,-1104.74736045366,0,1,23.2924632460931,153.148631126593,0.00183393212501,-1.88030481338501,1.18297457695007,-4.03439903259277,-4.19629669189453,5.71638059616089,-1.83451437950134,-3.05961608886719,2.34380459785461
13,sampled_images/20181126_depthmap_0851_1348_01_004.png,6,0,0,8316.031933,-10917.115122,-1117.87895925082,0,1,23.3051825957084,153.126860173558,0.000120774144307,-5.82111930847168,0.355142712593079,1.29965901374817,1.54890096187592,-2.73873162269592,-1.48267900943756,-3.34265637397766,-1.36336755752563
14,sampled_images/20181126_depthmap_0784_1244_01_004.png,6,0,0,8718.111933,-11540.815122,-1123.74400439191,0,1,23.3088088940235,153.12075978819,0.001213860930875,-2.05005073547363,1.92679357528687,0.985885560512543,0.049848407506943,8.40558528900147,-2.70054936408997,-2.83954191207886,-1.32519710063934
15,sampled_images/20181126_depthmap_0589_0935_01_004.png,6,0,0,9887.911933,-13394.815122,-1106.13137092658,0,1,23.319357453218,153.102624161742,0.008285916410387,0.447883397340775,0.954809486865997,0.871234655380249,-4.29618740081787,5.7875771522522,2.4432110786438,-0.103120125830174,2.20012950897217
16,sampled_images/20181126_depthmap_0402_0641_01_004.png,6,0,0,11009.871933,-15158.935122,-1069.67051427219,0,1,23.3294727525242,153.085364991572,5.78904036956374E-05,-2.23345994949341,-1.42099833488464,0.378045082092285,1.85930705070496,1.72397530078888,0.807359158992767,-5.64742422103882,-1.92369377613068
17,sampled_images/20181126_depthmap_0444_0706_01_004.png,6,0,0,10757.871933,-14768.815122,-1081.4435827256,0,1,23.3272008988326,153.089181971353,0.009450973011553,-3.90339803695679,3.88847136497498,-0.704527199268341,-1.47797453403473,6.3747410774231,3.16489100456238,0.497676223516464,2.61604285240173
18,sampled_images/20181126_depthmap_1040_1648_01_004.png,6,0,0,7182.031933,-9116.875122,-1107.17526705073,0,1,23.2949541578847,153.144466239305,0.000728891347535,1.35467982292175,-2.36143064498901,-1.98433804512024,3.03758478164673,2.30505847930908,0.312087148427963,4.3455696105957,-0.273955583572388
19,sampled_images/20181126_depthmap_0507_0807_01_004.png,6,0,0,10380.011933,-14163.155122,-1090.28208114842,0,1,23.3237943827196,153.095107438117,0.023259229958057,0.659523963928223,2.55401039123535,-5.11575317382813,0.385655850172043,7.75838994979858,3.02570366859436,-1.32126152515411,1.98965525627136
20,sampled_images/20181126_depthmap_0679_1079_01_004.png,6,0,0,9347.931933,-12531.035122,-1130.58636101483,0,1,23.314488560353,153.111073877435,0.000330554496031,0.149687498807907,-1.14920258522034,-3.16599345207214,-5.31070995330811,-1.79637312889099,-1.85954749584198,0.307972729206085,-2.4890468120575
21,sampled_images/20181126_depthmap_0008_0012_01_004.png,6,0,0,13374.051933,-18932.835122,-1015.01029772141,0,1,23.3507806156422,153.048434948137,0.000218696295633,0.774934589862824,-2.79961681365967,2.722660779953,-1.69404125213623,-3.51248860359192,-2.60127425193787,-1.8677271604538,-1.38922131061554
22,sampled_images/20181126_depthmap_0538_0855_01_004.png,6,0,0,10194.031933,-13875.055122,-1086.46722113028,0,1,23.322117551776,153.097926012169,0.001665881602094,-3.59612727165222,2.22677111625671,-0.022704543545842,0.300687998533249,5.10326957702637,-4.22779846191406,-2.51782274246216,0.340299040079117
23,sampled_images/20181126_depthmap_0230_0368_01_004.png,6,0,0,12041.871933,-16796.915122,-1041.28697426554,0,1,23.3387751367097,153.0693376796,0.001650869962759,-4.44006490707397,3.61132764816284,-1.18533885478973,-0.404153764247894,3.48913526535034,-5.09448862075806,-1.56749486923218,1.87605273723602
24,sampled_images/20181126_depthmap_0227_0363_01_004.png,6,0,0,12059.851933,-16827.135122,-1044.59679301397,0,1,23.3389371752942,153.069041973725,0.00155713094864,0.3554767370224,3.42841196060181,-0.793847560882568,-1.54235541820526,5.32408905029297,-3.68492889404297,1.01463603973389,-2.15079116821289
25,sampled_images/20181126_depthmap_0775_1230_01_004.png,6,0,0,8772.011933,-11624.955122,-1130.89717726392,0,1,23.3092949878874,153.119936795484,0.000133807145176,-0.29994723200798,-3.80788493156433,2.95682454109192,-0.550188601016998,1.84412860870361,1.71488392353058,-5.19230556488037,-1.45764648914337
26,sampled_images/20181126_depthmap_0240_0384_01_004.png,6,0,0,11982.011933,-16701.095122,-1039.72535827171,0,1,23.3382356160773,153.070275315107,0.000931435148232,-2.74807786941528,0.245272770524025,0.361664265394211,-2.64875650405884,5.32426643371582,-0.665902853012085,4.49193716049194,-1.21342027187347
27,sampled_images/20181126_depthmap_0756_1199_01_004.png,6,0,0,8885.891933,-11811.175122,-1134.36019323994,0,1,23.3103219325226,153.11811535577,8.41804503579624E-05,-1.43846905231476,-2.62954568862915,-0.756083905696869,2.35280871391296,1.0716108083725,0.093232050538063,-3.5600745677948,-3.86488175392151
28,sampled_images/20181126_depthmap_0577_0916_01_004.png,6,0,0,9959.751933,-13509.135122,-1098.68900382731,0,1,23.3200051904558,153.101505805066,0.003567413659766,-3.00473713874817,1.89554715156555,0.423746556043625,-7.35755825042725,2.35156512260437,0.560772001743317,0.871448576450348,2.84252572059631
29,sampled_images/20181126_depthmap_0125_0199_01_004.png,6,0,0,12671.991933,-17811.095122,-1033.36353222508,0,1,23.3444540285166,153.059413116326,0.000237705869949,-1.87374639511108,-1.09354305267334,5.01319980621338,0.133348122239113,1.70860934257507,-6.26185178756714,2.46965980529785,-0.597057342529297
30,sampled_images/20181126_depthmap_0056_0088_01_004.png,6,0,0,13085.731933,-18477.155122,-1023.5941221677,0,1,23.3481824690759,153.052894729229,0.003092679660767,2.10829782485962,-2.19385933876038,1.95130896568298,-0.871555268764496,0.602637887001038,-1.19047045707703,0.219026282429695,5.56623601913452
31,sampled_images/20181126_depthmap_0131_0209_01_004.png,6,0,0,12635.991933,-17750.975122,-1037.49613715652,0,1,23.3441296230075,153.060001446238,0.00025045016082,-1.76347291469574,-1.56857991218567,6.60887289047241,1.2574211359024,2.2917058467865,-5.00909662246704,1.19656050205231,-0.509495854377747
32,sampled_images/20181126_depthmap_0870_1378_01_004.png,6,0,0,8201.971933,-10736.895122,-1105.30023726495,0,1,23.3041538837324,153.128622821826,0.000512186263222,5.04653453826904,1.58256757259369,-1.35805559158325,0.201582252979279,-1.02587127685547,0.062402125447989,0.354064285755158,-3.02951192855835
33,sampled_images/20181126_depthmap_0376_0599_01_004.png,6,0,0,11165.751933,-15410.875122,-1063.84177482232,0,1,23.3308779092208,153.082899982172,0.000690467830282,-0.700031220912933,-0.43949231505394,3.1535861492157,-2.16885995864868,1.63519954681396,1.02271330356598,4.42254829406738,-2.58948683738708
34,sampled_images/20181126_depthmap_1087_1721_01_004.png,6,0,0,6899.931933,-8678.855122,-1108.20258548281,0,1,23.2924093138692,153.148749635379,0.005720983725041,-4.89221811294556,-0.465817838907242,0.790177166461945,-3.27986621856689,5.01412153244019,4.60899114608765,-1.5057920217514,1.90872943401337
35,sampled_images/20181126_depthmap_0673_1067_01_004.png,6,0,0,9383.791933,-12603.035122,-1129.88135378639,0,1,23.3148118047558,153.110369654718,0.000724556681234,1.16338670253754,-0.737247288227081,1.6762934923172,2.86760687828064,0.793339788913727,3.83779144287109,-4.42568492889404,-0.672505795955658
36,sampled_images/20181126_depthmap_0889_1408_01_004.png,6,0,0,8087.831933,-10557.075122,-1117.55191189461,0,1,23.3031244267777,153.13038153323,0.000232023827266,-4.11467027664185,2.48899078369141,-1.24398016929626,-2.55369710922241,-3.57044696807861,1.18370532989502,-3.37928247451782,1.76245832443237
37,sampled_images/20181126_depthmap_0207_0332_01_004.png,6,0,0,12180.031933,-17013.055122,-1049.98755161403,0,1,23.3400204088402,153.06722260368,0.01126129552722,-1.1207674741745,3.24520325660706,-1.33898639678955,-0.313435852527618,7.37684965133667,2.73236680030823,-0.569831609725952,2.50058388710022
38,sampled_images/20181126_depthmap_0825_1307_01_004.png,6,0,0,8471.771933,-11163.075122,-1114.74863030093,0,1,23.3065871897831,153.124454508619,0.000145676545799,-4.29202651977539,4.54528713226318,-3.12949752807617,0.393945425748825,-1.02492713928223,-1.67119383811951,-4.70677089691162,-1.29270386695862
39,sampled_images/20181126_depthmap_0698_1108_01_004.png,6,0,0,9234.011933,-12357.135122,-1132.54620010603,0,1,23.3134612445709,153.112774979714,0.002663853345439,-1.68753695487976,2.15932822227478,4.37105941772461,-1.50754332542419,1.87755131721497,-4.29215812683106,-2.6898992061615,3.38160157203674
40,sampled_images/20181126_depthmap_0228_0364_01_004.png,6,0,0,12053.831933,-16820.875122,-1045.28871464853,0,1,23.3388828825556,153.06910325407,0.000278032035567,0.906351506710052,2.51805448532104,-0.184729114174843,0.597834646701813,-1.02141737937927,1.36739826202393,-5.82780838012695,2.38491463661194
41,sampled_images/20181126_depthmap_0284_0454_01_004.png,6,0,0,11718.051933,-16281.135122,-1048.93030655513,0,1,23.335856440349,153.074384713207,0.000266725895926,-2.49367499351501,-1.25691258907318,5.14518070220947,2.07117962837219,1.34125077724457,-4.83967733383179,-0.059809196740389,-2.70234608650208
42,sampled_images/20181126_depthmap_0124_0198_01_004.png,6,0,0,12677.991933,-17816.895122,-1032.86071697747,0,1,23.3445081418038,153.059356328024,0.000421749020461,-3.21617722511291,-2.99963903427124,3.77937865257263,1.1960437297821,1.9327220916748,-4.01723432540894,3.55780816078186,2.0085084438324
43,sampled_images/20181126_depthmap_0750_1189_01_004.png,6,0,0,8921.871933,-11870.835122,-1130.44794542746,0,1,23.3106463817823,153.117531812343,0.000783030525781,-0.70051521062851,-3.68396997451782,-5.44875144958496,-2.28706097602844,1.68050837516785,-3.30759072303772,-1.13615775108337,-0.347545892000198
44,sampled_images/20181126_depthmap_0091_0144_01_004.png,6,0,0,12875.731933,-18140.935122,-1024.5899594527,0,1,23.3462900565596,153.056185200808,6.10933711868711E-05,0.274641543626785,1.05748283863068,-3.19731950759888,0.40941447019577,-0.930740356445312,-3.03542304039001,-2.57228827476501,-5.15464067459106
45,sampled_images/20181126_depthmap_0654_1038_01_004.png,6,0,0,9498.071933,-12777.155122,-1123.66787639596,0,1,23.3158423429933,153.108666362914,0.002664888743311,-2.69970178604126,0.77670806646347,2.39279294013977,-2.10609889030457,3.12956714630127,-4.81006622314453,-3.67435455322266,3.04474067687988
46,sampled_images/20181126_depthmap_0118_0188_01_004.png,6,0,0,12714.011933,-17877.135122,-1031.83548325838,0,1,23.3448327241319,153.05876682118,0.000361081329174,1.84747588634491,-0.902306437492371,0.846831858158112,-3.49815821647644,-3.14143800735474,3.29000067710876,-0.035927180200815,-1.85471892356873
47,sampled_images/20181126_depthmap_1069_1693_01_004.png,6,0,0,7007.911933,-8847.035122,-1109.9589853747,0,1,23.2933834202524,153.147105024921,0.000167434598552,-1.28637182712555,-2.37701511383057,4.06500196456909,0.778753876686096,1.79577362537384,-1.29613268375397,-2.65331268310547,-4.33910369873047
48,sampled_images/20181126_depthmap_1057_1675_01_004.png,6,0,0,7079.891933,-8954.975122,-1114.99922429154,0,1,23.2940327774336,153.146049465223,0.00070172426058,3.82463717460632,-2.10007429122925,-3.97506260871887,-1.03583967685699,1.80124044418335,-2.23961305618286,-0.648076593875885,0.378703832626343
49,sampled_images/20181126_depthmap_0764_1213_01_004.png,6,0,0,8837.951933,-11726.835122,-1130.89026083384,0,1,23.309889665351,153.118940270532,0.000216950124013,-2.88090038299561,-0.938907563686371,3.11717009544373,-0.674510300159454,1.37422978878021,3.085604429245,-5.53619050979614,-1.47459983825684
50,sampled_images/20181126_depthmap_0979_1551_01_004.png,6,0,0,7547.931933,-9698.975122,-1109.23811823689,0,1,23.2982547089088,153.138773691231,0.001481476356275,-1.00636053085327,2.08170771598816,-4.40261840820313,1.0041491985321,3.48402142524719,-4.114905834198,1.52500212192535,1.91969335079193
51,sampled_images/20181126_depthmap_0141_0224_01_004.png,6,0,0,12576.091933,-17661.175122,-1044.93673650443,0,1,23.3435897329912,153.060880288717,0.006091646850109,-6.53998041152954,1.43599677085876,2.68662476539612,-1.53036463260651,4.4641489982605,2.77580571174622,-0.995809197425842,1.81173062324524
52,sampled_images/20181126_depthmap_0008_0011_01_004.png,6,0,0,13373.971933,-18938.835122,-1014.54896367708,0,1,23.3507798238892,153.048376273014,0.000673100934364,5.36294460296631,1.66768074035645,0.21534252166748,-0.467981845140457,0.171169474720955,-1.82644307613373,0.198762148618698,-1.83900010585785
53,sampled_images/20181126_depthmap_0158_0252_01_004.png,6,0,0,12474.071933,-17492.835122,-1038.74969023198,0,1,23.3426703604359,153.062527637941,0.000988675514236,-2.02496409416199,0.275871008634567,-1.81935942173004,0.379608184099197,7.68900489807129,-1.89224481582642,1.62151348590851,-1.79865920543671
54,sampled_images/20181126_depthmap_0096_0154_01_004.png,6,0,0,12845.751933,-18080.995122,-1021.88205233756,0,1,23.3460200183155,153.056771714386,0.000543422414921,-4.01515007019043,3.30541944503784,3.93514013290405,-1.1771776676178,0.106045283377171,3.4105339050293,0.73497349023819,-1.31437480449677
55,sampled_images/20181126_depthmap_0016_0026_01_004.png,6,0,0,13325.831933,-18849.055122,-1017.35965814442,0,1,23.3503461854853,153.049254863779,0.001064932323061,-0.796732068061829,2.46735453605652,-2.41601347923279,-2.49679517745972,5.08563232421875,-0.81267386674881,3.86256337165833,-1.94642972946167
56,sampled_images/20181126_depthmap_0326_0520_01_004.png,6,0,0,11466.011933,-15885.015122,-1052.19369104645,0,1,23.3335845549883,153.078260730215,0.003299250733107,-1.65071439743042,-3.46159934997559,-0.218558132648468,-4.13536834716797,1.4420999288559,1.226766705513,-2.70119261741638,4.86939096450806
57,sampled_images/20181126_depthmap_0862_1365_01_004.png,6,0,0,8249.991933,-10814.795122,-1115.79399797261,0,1,23.304586967237,153.127860930513,0.007161987014115,-2.11648750305176,4.81538105010986,4.04682016372681,-2.17300605773926,4.0551061630249,0.457639992237091,1.31867599487305,2.93556356430054
58,sampled_images/20181126_depthmap_0411_0654_01_004.png,6,0,0,10955.831933,-15080.835122,-1069.41902700957,0,1,23.3289855229162,153.086129177272,0.000213759645703,-5.19046974182129,1.84913408756256,-0.988777637481689,1.93415880203247,2.83169436454773,2.47268295288086,-3.76082491874695,-2.47194147109985
59,sampled_images/20181126_depthmap_0439_0699_01_004.png,6,0,0,10787.851933,-14811.075122,-1071.59990953924,0,1,23.3274712197689,153.08876847457,0.000241987829213,-0.441487431526184,-0.329821884632111,-1.84274554252625,-0.270807445049286,-4.77889633178711,0.504391193389893,-3.30274224281311,2.64033150672913
60,sampled_images/20181126_depthmap_0859_1360_01_004.png,6,0,0,8267.931933,-10845.035122,-1118.19755703688,0,1,23.3047487563052,153.127565175624,0.000302356609609,-1.15694320201874,-1.67658483982086,6.55130863189697,-2.09498500823975,2.42996048927307,-0.612294733524323,0.761863589286804,-3.34743022918701
61,sampled_images/20181126_depthmap_0873_1384_01_004.png,6,0,0,8183.891933,-10700.835122,-1111.73344126888,0,1,23.3039908664905,153.128975471234,0.001012806082144,3.13544678688049,1.9587185382843,-0.590901851654053,-3.93493890762329,2.0522620677948,-5.40736818313599,0.261037230491638,-1.17023611068726
62,sampled_images/20181126_depthmap_0068_0107_01_004.png,6,0,0,13013.891933,-18363.155122,-1024.69342471016,0,1,23.3475350802322,153.054010426877,0.002205840544775,1.32163166999817,-0.161890432238579,-0.91964054107666,1.94033372402191,-1.86080586910248,-2.68181037902832,1.86017155647278,5.76304006576538
63,sampled_images/20181126_depthmap_0549_0872_01_004.png,6,0,0,10127.731933,-13773.035122,-1095.68349589049,0,1,23.3215197602274,153.098924093423,0.000928909052163,-3.07910585403442,2.69185996055603,-2.48366975784302,0.941536724567413,2.73972868919373,0.638040959835053,5.41378402709961,-1.82039892673492
64,sampled_images/20181126_depthmap_0714_1133_01_004.png,6,0,0,9137.911933,-12207.015122,-1126.60777729294,0,1,23.3125946381699,153.114243425277,0.001823719940148,0.302371323108673,2.33158087730408,-0.328926891088486,1.51141107082367,-2.60963487625122,-3.03857469558716,1.66302371025085,3.53856992721558
65,sampled_images/20181126_depthmap_0850_1347_01_004.png,6,0,0,8322.031933,-10923.035122,-1117.92444702852,0,1,23.3052367331155,153.126802256081,0.000250286306255,-2.71959924697876,-1.69678616523743,4.25798654556274,-1.51950085163116,-3.23875045776367,-2.54192185401916,0.28900682926178,-1.52075231075287
66,sampled_images/20181126_depthmap_0165_0262_01_004.png,6,0,0,12432.111933,-17432.835122,-1042.84515417712,0,1,23.3422921265511,153.063114847735,0.000202108654776,-2.76525235176086,0.872360587120056,0.350637048482895,3.24556136131287,-0.326347470283508,2.56922125816345,-5.07210922241211,0.762332797050476
67,sampled_images/20181126_depthmap_0740_1172_01_004.png,6,0,0,8982.091933,-11972.855122,-1118.66486166692,0,1,23.3111893942488,153.116533943171,0.000190987004316,3.25992608070374,1.03618168830872,1.24245536327362,-0.91626250743866,4.98638248443604,-0.970914959907532,-0.179403886198998,-3.15482401847839
68,sampled_images/20181126_depthmap_0537_0854_01_004.png,6,0,0,10200.051933,-13881.115122,-1085.10935008087,0,1,23.3221718576972,153.097866706657,0.000340353115462,-4.71129989624023,-4.39452934265137,0.346351772546768,-2.9461133480072,2.24482941627502,-0.677232027053833,-0.345659136772156,-0.637138843536377
69,sampled_images/20181126_depthmap_0159_0255_01_004.png,6,0,0,12468.051933,-17474.935122,-1040.36905620462,0,1,23.3426161945433,153.062702747452,0.000321868632454,-4.0496096611023,2.59722900390625,1.59943652153015,-2.61648344993591,0.535154700279236,2.14613485336304,-4.84222602844238,-1.79375350475311
70,sampled_images/20181126_depthmap_0211_0337_01_004.png,6,0,0,12155.831933,-16983.035122,-1052.96377202387,0,1,23.3398022087587,153.067516428279,0.0082305399701,-1.15177857875824,2.75095963478088,4.16570854187012,2.25736689567566,0.138342007994652,0.029131848365069,1.06652057170868,5.0582914352417
71,sampled_images/20181126_depthmap_1056_1673_01_004.png,6,0,0,7085.851933,-8966.995122,-1114.32198955601,0,1,23.2940865275553,153.145931931559,0.00127600657288,3.73840522766113,-1.0481059551239,1.2540328502655,-0.495668917894363,-0.365496039390564,2.81694674491882,2.77427577972412,-2.94395852088928
72,sampled_images/20181126_depthmap_0811_1285_01_004.png,6,0,0,8556.091933,-11295.155122,-1117.69324637545,0,1,23.3073476502306,153.123162645693,0.00799177121371,-1.22720539569855,0.553850173950195,-3.09726548194885,-0.011466735042632,5.26505517959595,5.11437940597534,-1.50077962875366,1.98394417762756
73,sampled_images/20181126_depthmap_0877_1389_01_004.png,6,0,0,8159.931933,-10671.035122,-1114.9821398357,0,1,23.3037747144583,153.129266963719,0.002365624532104,-4.56344366073608,1.44515514373779,-1.86489975452423,0.176412239670753,0.016272030770779,-5.19658374786377,-0.211688131093979,4.02990818023682
74,sampled_images/20181126_depthmap_1039_1645_01_004.png,6,0,0,7188.071933,-9134.795122,-1105.70857224881,0,1,23.2950085963442,153.144291029367,0.000672433467116,-0.083380438387394,-2.21226167678833,-2.17571091651916,-4.93952226638794,3.10692977905273,-1.53030610084534,3.73273110389709,-2.24892973899841
75,sampled_images/20181126_depthmap_0725_1149_01_004.png,6,0,0,9071.791933,-12110.975122,-1128.50917620797,0,1,23.3119983225173,153.115182897599,0.000913098047022,2.40334463119507,2.17180275917053,1.88283658027649,4.24797630310059,-1.48525369167328,-0.472445636987686,0.393303573131561,-1.3115177154541
76,sampled_images/20181126_depthmap_0860_1364_01_004.png,6,0,0,8261.751933,-10820.855122,-1117.77752917075,0,1,23.3046931138408,153.127801603927,0.000437990238424,-1.31017279624939,-2.89461660385132,0.696037411689758,-4.65823316574097,3.49227213859558,-3.81810116767883,3.52681517601013,-1.64942228794098
77,sampled_images/20181126_depthmap_0782_1239_01_004.png,6,0,0,8730.071933,-11571.115122,-1122.52415533753,0,1,23.3089166729336,153.120463474505,0.000107979074528,2.95754742622375,-1.64619517326355,-1.48479330539703,-1.76133739948273,2.30927181243896,-0.572741091251373,-5.90898847579956,-0.667743742465973
78,sampled_images/20181126_depthmap_0149_0237_01_004.png,6,0,0,12527.851933,-17582.835122,-1039.65046823224,0,1,23.343154997763,153.061646923537,0.001258322619833,4.64866781234741,2.8894727230072,-0.190590500831604,1.05852055549622,-3.54789662361145,-2.20196938514709,0.788948953151703,1.68645238876343
79,sampled_images/20181126_depthmap_1054_1670_01_004.png,6,0,0,7097.731933,-8985.015122,-1115.7946745843,0,1,23.294193699316,153.145755711216,0.000370984023903,-5.34251403808594,-0.730889856815338,2.84776186943054,1.27318429946899,-0.062693394720554,3.45774221420288,-3.70537710189819,-0.445115983486176
80,sampled_images/20181126_depthmap_0425_0676_01_004.png,6,0,0,10871.991933,-14949.175122,-1076.41431683978,0,1,23.3282297020191,153.087417347631,0.018056379631162,3.95141363143921,5.83099222183228,-6.25561571121216,-0.473407059907913,6.97958374023438,4.30995178222656,0.253725260496139,3.08969736099243
81,sampled_images/20181126_depthmap_0026_0040_01_004.png,6,0,0,13265.911933,-18764.975122,-1025.12721696165,0,1,23.3498061105957,153.050077853138,3.90457607863937E-05,-1.68053317070007,0.89536464214325,-2.70429420471191,0.330869972705841,2.48469662666321,2.4296543598175,-2.07107877731323,-4.97555494308472
82,sampled_images/20181126_depthmap_0563_0896_01_004.png,6,0,0,10043.871933,-13629.155122,-1100.15866974554,0,1,23.3207637537792,153.100331597145,0.000388579093851,4.07977151870728,-0.82115638256073,0.759660422801971,0.864920198917389,-2.37079524993896,1.60165548324585,0.089377284049988,-3.60732626914978
83,sampled_images/20181126_depthmap_0359_0572_01_004.png,6,0,0,11267.751933,-15573.175122,-1062.43029944351,0,1,23.3317973758295,153.081311976986,0.000699829310179,0.65897673368454,0.503765523433685,-3.24529004096985,-4.40183258056641,4.33095026016235,-3.11870574951172,0.634766459465027,-1.753697514534
84,sampled_images/20181126_depthmap_0606_0964_01_004.png,6,0,0,9786.011933,-13220.915122,-1120.00348821964,0,1,23.318438764275,153.104325285678,0.000225220239372,-3.38451814651489,-5.23023700714111,-0.186393350362778,-1.13814854621887,-1.29993987083435,-2.87068223953247,1.99654936790466,1.30687022209167
85,sampled_images/20181126_depthmap_0863_1368_01_004.png,6,0,0,8243.991933,-10797.095122,-1111.0060884656,0,1,23.3045329069971,153.128034008616,0.002829113509506,-5.22025012969971,0.915660798549652,-0.528176844120026,1.52898049354553,0.713277935981751,-3.14927005767822,-1.32757091522217,5.42024612426758
86,sampled_images/20181126_depthmap_0614_0977_01_004.png,6,0,0,9737.811933,-13142.995122,-1122.8799267162,0,1,23.3180041714198,153.105087528906,0.000443757540779,-2.47798895835876,-3.42945456504822,4.58156871795654,1.1465368270874,2.25987720489502,-1.37782037258148,3.31498908996582,0.926499247550964
87,sampled_images/20181126_depthmap_0774_1227_01_004.png,6,0,0,8777.971933,-11642.835122,-1130.56757108349,0,1,23.3093486766638,153.119761948541,0.000471482984722,0.353939652442932,1.9961040019989,0.717330753803253,0.683227479457855,-1.28280448913574,5.33801984786987,0.161084488034248,-2.11405467987061
88,sampled_images/20181126_depthmap_1073_1698_01_004.png,6,0,0,6983.791933,-8816.795122,-1106.54472003932,0,1,23.293165791707,153.147400767085,0.000586766574997,-2.3213996887207,-3.50390386581421,0.042691100388765,-1.32488143444061,2.1412980556488,-2.02936434745789,5.6813006401062,0.378261685371399
89,sampled_images/20181126_depthmap_0971_1537_01_004.png,6,0,0,7595.951933,-9783.155122,-1110.81311173227,0,1,23.2986878048612,153.137950475605,0.000115103466669,1.21781384944916,-0.378495365381241,-1.08614659309387,1.23261213302612,2.70833086967468,-0.635898470878601,-6.30609798431397,-3.33941078186035
90,sampled_images/20181126_depthmap_0738_1172_01_004.png,6,0,0,8993.931933,-11972.955122,-1117.15002347081,0,1,23.3112963023059,153.11653287194,0.000618278689217,1.39949524402618,3.52796649932861,-0.893290758132935,1.32246255874634,0.358091473579407,0.564538955688477,4.495530128479,-2.08050751686096
91,sampled_images/20181126_depthmap_0946_1499_01_004.png,6,0,0,7745.931933,-10010.875122,-1109.97002449754,0,1,23.3000406726435,153.13572338997,0.000654285307974,4.88636636734009,2.35793900489807,1.43315708637238,2.21810865402222,-0.268651276826859,0.784687161445618,-3.37627911567688,-1.05295062065125
92,sampled_images/20181126_depthmap_0768_1217_01_004.png,6,0,0,8813.951933,-11702.955122,-1130.17058272789,0,1,23.3096731288436,153.119173916204,0.000510595738888,-6.65988874435425,-4.75489473342896,0.633271813392639,-0.608796358108521,3.09966588020325,2.65111708641052,-1.58262455463409,0.446498215198517
93,sampled_images/20181126_depthmap_0165_0263_01_004.png,6,0,0,12432.011933,-17426.935122,-1042.96733938182,0,1,23.3422912864036,153.063172543456,5.27882984897587E-05,-2.50309801101685,-0.142208650708199,-1.33145356178284,1.49570214748383,3.06024742126465,1.63291072845459,-6.35059690475464,-0.7095947265625
94,sampled_images/20181126_depthmap_0909_1440_01_004.png,6,0,0,7967.731933,-10365.155122,-1117.50562304011,0,1,23.3020412106822,153.132258545893,8.65388283273205E-05,0.202932447195053,-1.17670834064484,-0.542275846004486,0.925056278705597,0.867380380630493,0.527908861637116,-0.698835611343384,-6.8250298500061
95,sampled_images/20181126_depthmap_0415_0661_01_004.png,6,0,0,10932.091933,-15039.095122,-1070.19881470909,0,1,23.3287715479023,153.086537537613,4.80527814943343E-05,-3.79883432388306,0.066206946969032,-3.50878739356995,1.58210027217865,-0.684228539466858,1.53511488437653,-0.552499651908875,-4.65354919433594
96,sampled_images/20181126_depthmap_0928_1470_01_004.png,6,0,0,7853.951933,-10184.835122,-1112.30271595868,0,1,23.3010149661918,153.134022087102,0.000105208251625,-5.14827442169189,2.22536468505859,-0.640368640422821,0.150229573249817,-2.68487858772278,-2.56325483322144,-3.59418725967407,-1.69171321392059
97,sampled_images/20181126_depthmap_0465_0740_01_004.png,6,0,0,10631.991933,-14564.815122,-1089.83671704529,0,1,23.3260660996281,153.091177822971,0.002416189527139,0.071572795510292,1.15859961509705,-0.044788178056479,0.42383548617363,2.83845901489258,-6.35192632675171,-1.72395467758179,2.95247006416321
98,sampled_images/20181126_depthmap_0964_1527_01_004.png,6,0,0,7637.731933,-9843.175122,-1109.97475343877,0,1,23.2990646975927,153.137363473967,9.74118083831854E-05,-2.93738675117493,3.88520812988281,-0.757669568061829,-1.80112195014954,-0.261419892311096,-1.46946012973785,-4.82932758331299,-3.09363746643066
99,sampled_images/20181126_depthmap_0251_0401_01_004.png,6,0,0,11916.031933,-16599.095122,-1036.87221012872,0,1,23.3376408923955,153.071273440781,0.00373601866886,-6.00017881393433,-0.670765340328217,3.88214921951294,-2.76388478279114,2.21992683410645,-1.31426286697388,-2.93805932998657,3.3439314365387
100,sampled_images/20181126_depthmap_0755_1197_01_004.png,6,0,0,8891.731933,-11822.935122,-1132.1664419626,0,1,23.3103745798426,153.11800033944,0.002032043412328,3.93629550933838,2.45634984970093,-1.25147092342377,-1.91349983215332,0.985745370388031,-3.25596785545349,0.975844383239746,2.34491181373596
101,sampled_images/20181126_depthmap_0258_0411_01_004.png,6,0,0,11873.931933,-16539.095122,-1041.65050548444,0,1,23.3372613610916,153.071860605342,0.000117072006105,-5.04035902023315,-0.777613222599029,2.48574662208557,1.14517056941986,-0.330884903669357,-0.715336859226227,-4.3030309677124,-2.94863772392273
102,sampled_images/20181126_depthmap_0356_0568_01_004.png,6,0,0,11286.011933,-15596.995122,-1065.49242868653,0,1,23.3319620264979,153.081078877261,0.000197325105546,-3.15675640106201,-1.05409073829651,5.00436019897461,2.05732870101929,1.04167449474335,-4.62546920776367,0.54798036813736,-2.69736313819885
103,sampled_images/20181126_depthmap_0400_0637_01_004.png,6,0,0,11021.751933,-15182.895122,-1069.04722390803,0,1,23.3295798002856,153.085130595995,0.000364884996088,-5.97558975219727,-1.0789178609848,3.70740842819214,1.51660215854645,-2.04549813270569,0.259173721075058,-0.136729329824448,-0.389706045389175
104,sampled_images/20181126_depthmap_0134_0215_01_004.png,6,0,0,12617.851933,-17714.935122,-1038.93927795363,0,1,23.3439662199979,153.060354089358,8.43995439936407E-05,-2.03500175476074,-1.26670789718628,1.40866637229919,1.82111263275146,-0.711630940437317,-2.1939537525177,0.56486839056015,-6.39021635055542
105,sampled_images/20181126_depthmap_0787_1247_01_004.png,6,0,0,8699.771933,-11522.915122,-1121.95449795186,0,1,23.3086434195185,153.120934923715,0.001271262415685,-0.801865220069885,1.68210196495056,-5.33549022674561,-1.56307911872864,3.4474675655365,-1.34424149990082,3.49905371665955,-0.45960283279419
106,sampled_images/20181126_depthmap_0026_0042_01_004.png,6,0,0,13266.031933,-18753.035122,-1025.1877009788,0,1,23.3498073309366,153.050194616299,6.6369648266118E-05,-1.50336897373199,1.92326068878174,-2.58441615104675,0.037503145635128,-2.25682330131531,-1.23977434635162,0.449458420276642,-6.45034742355347
107,sampled_images/20181126_depthmap_0446_0709_01_004.png,6,0,0,10746.071933,-14750.955122,-1089.78967599755,0,1,23.3270945124029,153.089356715151,0.007073990534991,-5.45656824111939,2.3238000869751,0.977962732315064,-3.30123972892761,5.20069360733032,2.99418044090271,0.513237178325653,2.66363978385925
108,sampled_images/20181126_depthmap_0095_0153_01_004.png,6,0,0,12851.731933,-18087.055122,-1022.33491102771,0,1,23.3460739471636,153.056712382046,0.002178360940889,2.26884627342224,-0.378458708524704,-0.91158539056778,-3.38267469406128,0.904961824417114,4.91698217391968,-1.14593350887299,3.72746229171753
109,sampled_images/20181126_depthmap_0088_0141_01_004.png,6,0,0,12894.051933,-18159.075122,-1024.12851784188,0,1,23.3464552739686,153.056007589172,0.000488043267978,-2.77037239074707,0.539515912532806,-4.61814165115356,-0.744810044765472,-3.24562573432922,3.56708335876465,-1.45758295059204,1.1631383895874
110,sampled_images/20181126_depthmap_0964_1528_01_004.png,6,0,0,7637.971933,-9836.895122,-1109.47597304558,0,1,23.2990669023224,153.137424863227,0.000204335025046,-2.48167705535889,-2.08851099014282,-1.62283515930176,-5.63505029678345,0.033206544816494,-2.61640000343323,-0.301472514867783,-3.54988121986389
111,sampled_images/20181126_depthmap_0707_1123_01_004.png,6,0,0,9179.831933,-12267.175122,-1127.22783292398,0,1,23.3129727040692,153.113654926167,0.002620937535539,-2.10015416145325,-0.432638794183731,-2.13079047203064,-1.85745024681091,2.84835767745972,-3.23640084266663,-2.81426358222961,4.83993244171143
112,sampled_images/20181126_depthmap_0735_1165_01_004.png,6,0,0,9012.091933,-12014.895122,-1119.78518946997,0,1,23.3114599705684,153.116122701694,0.000465032673674,2.31508660316467,-3.01180148124695,4.12767028808594,-2.39733719825745,3.3772931098938,2.54606604576111,1.9043493270874,-2.1124324798584
113,sampled_images/20181126_depthmap_0742_1178_01_004.png,6,0,0,8969.911933,-11937.075122,-1122.88958685389,0,1,23.3110796762415,153.116883841874,0.016538774594665,-0.19932833313942,1.48452496528626,-4.06610536575317,0.394219607114792,6.91769123077393,3.76511979103088,-1.45026040077209,2.31907153129578
114,sampled_images/20181126_depthmap_0564_0897_01_004.png,6,0,0,10037.791933,-13623.175122,-1099.35247112537,0,1,23.3207089044766,153.100390119399,0.000822709524073,2.00145053863525,-0.088887728750706,-4.60834217071533,0.82657378911972,-1.22663772106171,-0.070471927523613,3.36632490158081,-0.48088151216507
115,sampled_images/20181126_depthmap_0747_1185_01_004.png,6,0,0,8939.891933,-11895.015122,-1131.3406659698,0,1,23.310808917457,153.117295276333,0.000108341337182,-5.33412075042725,0.262205898761749,-1.07641184329987,1.83221852779388,-2.31797075271606,-3.65388011932373,1.91954743862152,-2.39575791358948
116,sampled_images/20181126_depthmap_0623_0989_01_004.png,6,0,0,9683.791933,-13071.035122,-1117.31249931537,0,1,23.3175169759257,153.105791546804,0.002134355250746,-2.91718292236328,1.60171818733215,-3.37193179130554,-1.68886470794678,4.10634994506836,-4.42013597488403,-2.96362495422363,4.03877878189087
117,sampled_images/20181126_depthmap_0162_0260_01_004.png,6,0,0,12449.951933,-17445.015122,-1041.04144750671,0,1,23.3424530813722,153.062995536874,0.0003668104182,-1.56044518947601,0.178559362888336,2.80240845680237,-3.03199982643127,-3.07653307914734,2.84955143928528,2.06625485420227,-1.5843825340271
118,sampled_images/20181126_depthmap_1077_1705_01_004.png,6,0,0,6959.971933,-8774.875122,-1101.82529343733,0,1,23.292950933917,153.147810680467,0.000952333211899,3.79282975196838,2.07086062431335,-0.487539082765579,1.77769303321838,0.794223487377167,0.972142398357391,3.60469555854797,-1.89376139640808
119,sampled_images/20181126_depthmap_0384_0613_01_004.png,6,0,0,11117.831933,-15327.055122,-1066.44985440683,0,1,23.3304460053995,153.083720052336,0.00022700864065,0.73296058177948,0.635922312736511,1.86689162254334,-1.86403381824493,-0.183372318744659,5.37961483001709,-2.48762607574463,-0.737900316715241
120,sampled_images/20181126_depthmap_0852_1351_01_004.png,6,0,0,8310.111933,-10898.895122,-1116.49867095721,0,1,23.3051292623936,153.127038335802,0.001089734956622,3.82190918922424,2.56431984901428,-1.16185879707336,1.34446215629578,-0.646738886833191,-4.07274007797241,1.73512840270996,-0.304811000823975
121,sampled_images/20181126_depthmap_0318_0508_01_004.png,6,0,0,11514.011933,-15956.815122,-1048.64862347547,0,1,23.3340172693286,153.077558155664,0.000208343582926,-4.92639064788818,0.011396928690374,-1.85143029689789,-2.86551022529602,-3.64738988876343,-1.5533732175827,-3.13410711288452,1.7322940826416
122,sampled_images/20181126_depthmap_0580_0923_01_004.png,6,0,0,9942.071933,-13467.055122,-1097.63536877003,0,1,23.3198458960965,153.101917383808,0.001663433853537,-5.53774452209473,1.13838911056519,-2.21804666519165,2.97725176811218,3.98345899581909,-3.34064245223999,-0.353160351514816,0.898841977119446
123,sampled_images/20181126_depthmap_0306_0489_01_004.png,6,0,0,11585.831933,-16071.035122,-1049.22918706976,0,1,23.3346646455999,153.076440533447,0.000132013155962,-0.003754867007956,-3.36704397201538,5.5700306892395,-1.64803862571716,0.70045793056488,0.531775236129761,-3.20257830619812,-2.60242819786072
124,sampled_images/20181126_depthmap_0273_0435_01_004.png,6,0,0,11784.031933,-16394.875122,-1045.92867717977,0,1,23.3364510666913,153.073271817197,0.001217569573782,-4.50633859634399,3.7871527671814,1.19092512130737,1.22205889225006,1.78988993167877,1.40907633304596,3.55689740180969,-0.190708354115486
125,sampled_images/20181126_depthmap_0517_0822_01_004.png,6,0,0,10319.951933,-14073.035122,-1089.07758761251,0,1,23.323252850937,153.095989135876,0.000774233078118,-3.64359617233276,1.30074799060822,-2.97556471824646,-1.39042389392853,-1.9659298658371,2.99582099914551,4.07178926467896,-0.114214010536671
126,sampled_images/20181126_depthmap_0361_0577_01_004.png,6,0,0,11255.991933,-15543.035122,-1059.7476254163,0,1,23.3316914760128,153.08160680613,0.000480008864542,-1.9468674659729,1.97892212867737,-0.481316775083542,-4.81061792373657,-3.08339715003967,2.24480557441711,1.79514062404633,-2.0164999961853
127,sampled_images/20181126_depthmap_0824_1307_01_004.png,6,0,0,8478.091933,-11163.155122,-1115.36776646517,0,1,23.306644255465,153.124453679965,0.000533164013177,3.4325692653656,1.38770878314972,1.28886270523071,0.506226897239685,1.34481501579285,3.81414699554443,-0.136421039700508,-2.73277592658997
128,sampled_images/20181126_depthmap_0613_0975_01_004.png,6,0,0,9744.051933,-13155.155122,-1121.68653091303,0,1,23.3180604176483,153.1049685866,0.001660643378273,4.53133153915405,0.310989230871201,2.09142541885376,-3.57652163505554,1.14443528652191,-3.46172738075256,-0.961480140686035,-0.342981785535812
129,sampled_images/20181126_depthmap_0167_0267_01_004.png,6,0,0,12420.051933,-17402.835122,-1043.40631704166,0,1,23.3421835510318,153.063408348736,4.49226863565855E-05,-2.98395991325378,-1.24282133579254,-1.78717410564423,1.66803908348084,-1.35890567302704,-0.427580565214157,0.565877318382263,-6.108717918396
130,sampled_images/20181126_depthmap_1032_1634_01_004.png,6,0,0,7229.971933,-9200.915122,-1104.93330914511,0,1,23.2953865624474,153.143644431369,0.000108258303953,-4.64415836334229,2.38384962081909,-0.382464230060577,0.716208338737488,-3.02987718582153,-0.96485835313797,-5.55873346328735,1.55246031284332
131,sampled_images/20181126_depthmap_0642_1021_01_004.png,6,0,0,9569.911933,-12878.875122,-1122.48242106248,0,1,23.3164902229073,153.107671253372,0.000104621969513,-2.19867157936096,0.511313796043396,4.58365345001221,-2.45975375175476,-0.17175717651844,-3.17996191978455,-0.284763991832733,-4.35333633422852
132,sampled_images/20181126_depthmap_0868_1376_01_004.png,6,0,0,8214.031933,-10749.175122,-1105.38295705651,0,1,23.304262698735,153.128502687282,0.001178155769594,1.93044638633728,-0.782321810722351,-2.55008816719055,-0.566688776016235,4.88425731658936,-1.273796916008,4.51899719238281,-1.88914275169373
133,sampled_images/20181126_depthmap_0302_0483_01_004.png,6,0,0,11610.031933,-16106.975122,-1048.65689684623,0,1,23.3348828045169,153.076088847707,0.000175551962457,-1.68944823741913,-4.10858011245728,2.64671301841736,1.32810163497925,0.964726686477661,3.18925523757935,-3.51138186454773,-1.05624735355377
134,sampled_images/20181126_depthmap_0166_0266_01_004.png,6,0,0,12425.891933,-17409.115122,-1042.89607446343,0,1,23.3422362159922,153.063346871064,0.00027193580172,0.721080541610718,3.87821102142334,-0.188241541385651,-2.74553108215332,-0.306003272533417,1.375284075737,-5.6459584236145,2.13504552841187
135,sampled_images/20181126_depthmap_0303_0484_01_004.png,6,0,0,11603.971933,-16101.075122,-1048.45631255153,0,1,23.3348281442524,153.076146603608,0.000621876330115,2.05173540115356,-3.13493371009827,2.79614281654358,-0.102860994637012,3.57652473449707,2.17366981506348,2.50206708908081,-1.64653933048248
136,sampled_images/20181126_depthmap_0454_0722_01_004.png,6,0,0,10697.791933,-14672.915122,-1084.46320294913,0,1,23.3266592720227,153.09012023026,0.002916320925578,-1.07752990722656,0.018114468082786,-1.91788184642792,0.919082045555115,-0.801510274410248,-1.58346676826477,0.731539905071258,6.11685085296631
137,sampled_images/20181126_depthmap_0739_1172_01_004.png,6,0,0,8987.911933,-11972.875122,-1117.91012063264,0,1,23.3112419455507,153.116533701641,0.001723082037643,2.40297341346741,1.48010885715485,-2.23806095123291,1.224977850914,2.04130458831787,-4.7670316696167,0.874341785907745,0.420108944177628
138,sampled_images/20181126_depthmap_0810_1285_01_004.png,6,0,0,8561.791933,-11294.855122,-1116.68541873932,0,1,23.3073991202462,153.123165536065,0.000622625928372,0.59484076499939,-0.778035819530487,-6.19148063659668,0.470379590988159,-0.010326736606658,1.04780757427216,-2.25923156738281,1.4182380437851
139,sampled_images/20181126_depthmap_0207_0331_01_004.png,6,0,0,12179.831933,-17019.155122,-1046.93217715019,0,1,23.3400185395859,153.067162956617,0.004252182785422,-3.91401028633118,-1.73813843727112,1.26509737968445,-2.91706562042236,2.67345499992371,-1.87911570072174,-2.3299446105957,4.93702077865601
140,sampled_images/20181126_depthmap_0520_0826_01_004.png,6,0,0,10302.071933,-14049.075122,-1089.01617155775,0,1,23.323091610123,153.096223567404,0.000285612390144,3.05349779129028,-1.08309316635132,-0.529989242553711,-2.57554984092712,-1.6463840007782,3.54137420654297,-3.39961862564087,-0.236518070101738
141,sampled_images/20181126_depthmap_0658_1046_01_004.png,6,0,0,9474.011933,-12729.055122,-1125.71256237945,0,1,23.3156254684971,153.109136830419,0.000551310367882,-0.193947613239288,1.87736773490906,4.07268714904785,0.944907963275909,-0.141064003109932,4.81109237670898,2.31533145904541,-2.48109030723572
142,sampled_images/20181126_depthmap_0807_1278_01_004.png,6,0,0,8580.091933,-11336.875122,-1116.9104348531,0,1,23.3075640695939,153.122754602686,0.002469445578754,-0.072502873837948,3.90184926986694,4.74057531356812,3.34604358673096,0.616363644599915,-1.79317891597748,-2.55955171585083,1.08461821079254
143,sampled_images/20181126_depthmap_0028_0045_01_004.png,6,0,0,13254.091933,-18734.915122,-1024.40159534311,0,1,23.3496997275228,153.050371964912,0.000252908706898,-1.46294987201691,-1.27838850021362,1.77030837535858,-1.82455790042877,-0.79843932390213,-6.08155822753906,3.58663558959961,-1.2940000295639
144,sampled_images/20181126_depthmap_0045_0072_01_004.png,6,0,0,13151.971933,-18572.835122,-1023.30770500854,0,1,23.3487794932024,153.051958244786,0.00124684185721,4.37118339538574,0.498260855674744,-1.87208890914917,-2.80185985565186,-0.501565754413605,-3.30090832710266,-1.81042098999023,2.09271430969238
145,sampled_images/20181126_depthmap_0519_0826_01_004.png,6,0,0,10307.731933,-14048.995122,-1088.53393649446,0,1,23.3231427174252,153.096224297064,0.00044153482304,-0.848145246505737,-5.82536840438843,-0.603710353374481,-0.18202494084835,3.42287278175354,-1.30329203605652,2.964519739151,0.188580349087715
146,sampled_images/20181126_depthmap_0291_0464_01_004.png,6,0,0,11676.071933,-16221.055122,-1046.60621125655,0,1,23.3354779815253,153.074972642099,0.00081223808229,2.19748759269714,1.11098611354828,-3.83941626548767,-3.37349367141724,2.49599575996399,-1.60353028774261,1.91233551502228,-1.5269627571106
147,sampled_images/20181126_depthmap_0706_1121_01_004.png,6,0,0,9186.031933,-12278.935122,-1128.74081922941,0,1,23.3130285986862,153.113539902892,0.001706408453174,-1.24802160263062,5.56057071685791,-1.30861139297485,-2.3897852897644,2.35010504722595,-4.2319073677063,2.2082941532135,0.646943092346191
148,sampled_images/20181126_depthmap_0516_0820_01_004.png,6,0,0,10325.991933,-14085.015122,-1092.26233180218,0,1,23.3233072858423,153.095871946883,0.004423078615218,-5.10935354232788,0.619492053985596,3.17608332633972,-0.392092913389206,1.72022044658661,-1.40873765945435,-1.32568871974945,5.65920639038086
149,sampled_images/20181126_depthmap_0358_0572_01_004.png,6,0,0,11273.971933,-15572.855122,-1063.93365354233,0,1,23.331853541873,153.081315041923,0.001327399164438,0.479140341281891,4.00530672073364,3.20834255218506,-0.271531403064728,6.41138696670532,-2.52675628662109,-0.981805801391602,-1.3725163936615
150,sampled_images/20181126_depthmap_0053_0084_01_004.png,6,0,0,13104.031933,-18500.915122,-1025.84876675606,0,1,23.3483474385873,153.052662152275,0.002931293100119,-0.838858604431152,3.41432046890259,4.470290184021,-4.82640266418457,-0.292825609445572,-2.73800539970398,0.6483234167099,3.59468078613281
151,sampled_images/20181126_depthmap_0433_0690_01_004.png,6,0,0,10823.771933,-14865.175122,-1083.01591819949,0,1,23.3277950670534,153.088239149958,8.7435451860074E-05,-2.50415015220642,-2.14415526390076,3.27786755561829,1.50050628185272,0.961660146713257,-1.89525282382965,-1.20260870456696,-5.28080081939697
152,sampled_images/20181126_depthmap_1034_1637_01_004.png,6,0,0,7218.031933,-9182.895122,-1104.26530869364,0,1,23.2952788513159,153.143820655331,0.000258986314293,-3.22411179542541,-3.56431293487549,0.434848040342331,-1.60047972202301,-0.956746637821198,-4.94898176193237,3.56517267227173,0.242415398359299
153,sampled_images/20181126_depthmap_0840_1332_01_004.png,6,0,0,8381.931933,-11013.075122,-1108.45458083695,0,1,23.3057769962954,153.125921584688,0.000241096364334,-3.48499441146851,-6.83340072631836,-0.441617727279663,-2.17031478881836,-0.38941091299057,-0.495561122894287,-1.08441936969757,1.51438415050507
154,sampled_images/20181126_depthmap_0181_0289_01_004.png,6,0,0,12335.851933,-17271.175122,-1029.01963395878,0,1,23.3414246690854,153.064696778341,0.0002496537345,-6.23830795288086,2.1086003780365,0.547600328922272,-3.11566972732544,-2.49572253227234,1.92518842220306,0.352161973714828,-1.62999558448792
155,sampled_images/20181126_depthmap_0084_0135_01_004.png,6,0,0,12917.811933,-18195.015122,-1020.87687407388,0,1,23.3466694133644,153.055655844474,0.000242416936089,-0.020266279578209,2.68287825584412,1.18052661418915,-4.86943483352661,-2.33587765693665,3.94699573516846,-1.6322386264801,-0.405031144618988
156,sampled_images/20181126_depthmap_0232_0371_01_004.png,6,0,0,12029.831933,-16778.875122,-1037.27830214492,0,1,23.3386666075255,153.069514217051,0.000851725344546,-2.65825033187866,-4.73604297637939,-3.16772294044495,-0.190749555826187,4.74283742904663,-2.61703014373779,1.3685554265976,-0.630326747894287
157,sampled_images/20181126_depthmap_0038_0060_01_004.png,6,0,0,13193.811933,-18645.095122,-1023.8269648535,0,1,23.3491564614638,153.05125108305,0.002616577316076,-2.7278687953949,2.71627569198608,-0.210013270378113,-2.44468021392822,5.916672706604,-4.07324743270874,-3.32641887664795,-0.935451805591583
158,sampled_images/20181126_depthmap_1030_1632_01_004.png,6,0,0,7242.111933,-9212.795122,-1105.27826044975,0,1,23.2954961137495,153.14352822655,0.000160263865837,-5.69361257553101,0.681496322154999,0.717232525348663,0.102240584790707,-3.57255887985229,-3.81065154075623,-0.088103026151657,-1.25629925727844
159,sampled_images/20181126_depthmap_0046_0073_01_004.png,6,0,0,13145.751933,-18567.035122,-1024.87857477162,0,1,23.348723396192,153.052015040598,0.00913511402905,2.0291690826416,1.69650590419769,-2.84962034225464,-0.306382715702057,6.33057403564453,3.43458223342895,-0.751002907752991,3.1443338394165
160,sampled_images/20181126_depthmap_0733_1164_01_004.png,6,0,0,9024.051933,-12020.995122,-1121.0325099138,0,1,23.3115679181875,153.11606297009,0.000477739115013,3.04191565513611,-2.45688796043396,2.14981842041016,-3.09890985488892,-0.346801102161408,1.46044552326202,-4.8293514251709,-0.892734289169312
161,sampled_images/20181126_depthmap_0686_1089_01_004.png,6,0,0,9305.971933,-12470.795122,-1131.88287914131,0,1,23.3141101437055,153.111663172955,9.01695966604166E-05,0.450630754232407,-2.17780351638794,2.48772931098938,-0.023020662367344,1.04253280162811,-0.791842699050903,-0.908074021339416,-6.4308385848999
162,sampled_images/20181126_depthmap_0866_1372_01_004.png,6,0,0,8225.991933,-10772.975122,-1105.91145069659,0,1,23.3043705350948,153.128269933814,0.000227654425544,-5.46960115432739,-5.11497974395752,-0.763258039951324,-2.20054125785828,0.740475714206696,-1.21157920360565,-1.52339136600494,0.12202063947916
163,sampled_images/20181126_depthmap_0567_0901_01_004.png,6,0,0,10019.951933,-13598.995122,-1099.13209276155,0,1,23.3205480199837,153.100626691791,9.44452040130273E-05,-4.55193758010864,-1.22739803791046,0.629656493663788,2.79593920707703,-0.422625213861466,-2.56036496162415,-0.190715089440346,-4.68246364593506
164,sampled_images/20181126_depthmap_0112_0179_01_004.png,6,0,0,12749.811933,-17931.155122,-1025.45286114842,0,1,23.3451553858662,153.058238139142,0.009213204495609,-3.72189021110535,2.26490473747253,0.394186168909073,-4.42251539230347,4.08672142028809,1.92629992961884,2.45587539672852,3.8736457824707
165,sampled_images/20181126_depthmap_0655_1040_01_004.png,6,0,0,9491.731933,-12764.795122,-1124.57305453007,0,1,23.3157851925392,153.108787257907,0.001158946193755,-2.84722423553467,2.93854808807373,0.585540652275085,3.2458713054657,5.74482107162476,-2.35314798355103,-0.072923727333546,-0.25761353969574
166,sampled_images/20181126_depthmap_0506_0806_01_004.png,6,0,0,10386.051933,-14168.895122,-1088.06339424771,0,1,23.3238488709083,153.0950512593,0.005301821045578,-3.7226574420929,2.33545708656311,-0.331302434206009,0.227871999144554,4.59294891357422,3.63774132728577,0.775710582733154,3.47901821136475
167,sampled_images/20181126_depthmap_0406_0648_01_004.png,6,0,0,10986.011933,-15117.135122,-1069.57890890892,0,1,23.3292576965516,153.085773942486,7.98776600277051E-05,-4.23109292984009,0.50554746389389,-0.390081256628036,1.96754121780396,-1.93982577323914,-2.85193157196045,-4.75964498519897,-2.19820308685303
168,sampled_images/20181126_depthmap_0500_0796_01_004.png,6,0,0,10421.811933,-14228.935122,-1084.07331993214,0,1,23.3241712434484,153.094463887771,0.003084174357355,-4.47834157943726,0.835391998291016,4.00574684143066,-1.53509497642517,2.73730611801147,-3.53519201278687,-4.98545980453491,2.52948546409607
169,sampled_images/20181126_depthmap_0403_0642_01_004.png,6,0,0,11004.011933,-15153.055122,-1069.30358369337,0,1,23.3294198944701,153.085422543787,0.000323549378663,-3.15248107910156,-3.61952900886536,-2.28071999549866,-4.23500442504883,-0.314036875963211,-0.680079698562622,0.537335574626923,-1.08891355991364
170,sampled_images/20181126_depthmap_0638_1014_01_004.png,6,0,0,9593.771933,-12920.795122,-1121.73130767573,0,1,23.3167053357766,153.107261203333,0.000220982037717,-2.03603911399841,-1.73247218132019,3.2544686794281,0.056091450154781,-0.619253396987915,-1.34761083126068,-5.59389495849609,-2.4915132522583
171,sampled_images/20181126_depthmap_0412_0657_01_004.png,6,0,0,10949.991933,-15062.975122,-1068.39351603076,0,1,23.3289329553244,153.0863038665,0.00096232816577,-0.290166646242142,-1.05664443969727,-6.25964975357056,-2.32842326164246,2.25710654258728,-1.00228571891785,1.5595178604126,-0.360370635986328
172,sampled_images/20181126_depthmap_0642_1019_01_004.png,6,0,0,9570.071933,-12890.855122,-1122.27725911405,0,1,23.3164915734816,153.107554125086,0.000172328160261,-1.59255659580231,-2.23199200630188,-3.85711526870728,1.15270376205444,-1.47232806682587,-0.185687825083733,-6.00911378860474,0.92498505115509
173,sampled_images/20181126_depthmap_1091_1727_01_004.png,6,0,0,6875.831933,-8642.995122,-1115.44531935578,0,1,23.2921918923696,153.149100308721,8.34913735161535E-05,-2.54885196685791,2.53915548324585,-2.3210813999176,-0.88273948431015,-1.50405704975128,-1.96551108360291,-6.33779096603394,0.177939981222153
174,sampled_images/20181126_depthmap_0727_1153_01_004.png,6,0,0,9059.771933,-12087.015122,-1126.523551305,0,1,23.3118899651958,153.115417239558,0.002892044372857,-2.69421005249023,0.083826795220375,-1.74370574951172,-4.82284593582153,4.83829879760742,-0.617622911930084,-3.44322156906128,4.32647705078125
175,sampled_images/20181126_depthmap_0918_1454_01_004.png,6,0,0,7913.831933,-10280.895122,-1112.06723343988,0,1,23.3015550521183,153.13308262245,0.00028506925446,-1.93531239032745,2.04565787315369,-2.11537742614746,-3.62804985046387,-2.8870861530304,-0.836890339851379,-4.93919801712036,0.055899649858475
176,sampled_images/20181126_depthmap_0280_0448_01_004.png,6,0,0,11741.931933,-16317.135122,-1050.49507401913,0,1,23.3360717045716,153.074032437743,8.31540237413719E-05,-1.4798709154129,-3.04902601242065,1.15896463394165,0.584329724311829,1.42712795734406,0.030252236872912,-0.991355895996094,-6.61172103881836
177,sampled_images/20181126_depthmap_0393_0626_01_004.png,6,0,0,11064.011933,-15248.855122,-1068.27185670497,0,1,23.329960771339,153.084485225142,0.001010612817481,-2.07160782814026,3.95570707321167,-0.464537352323532,-0.651750862598419,1.55069017410278,1.654820561409,4.3567910194397,-2.35011267662048
178,sampled_images/20181126_depthmap_0848_1344_01_004.png,6,0,0,8333.871933,-10940.835122,-1115.83268629206,0,1,23.3053435234138,153.126628156803,0.000360964942956,-1.83057391643524,2.74471020698547,2.39047789573669,-5.90398645401001,2.29044008255005,-0.47676283121109,-0.291640043258667,-4.84396409988403
179,sampled_images/20181126_depthmap_0945_1498_01_004.png,6,0,0,7751.891933,-10017.115122,-1110.41521263626,0,1,23.3000944502476,153.135662350347,0.00012393014913,1.17628717422485,-2.81315159797668,-2.1585807800293,1.98693060874939,-2.96918869018555,-1.21259355545044,-5.11922454833984,0.953514337539673
180,sampled_images/20181126_depthmap_0592_0940_01_004.png,6,0,0,9869.731933,-13365.155122,-1107.94875425898,0,1,23.3191935399721,153.102914310396,0.000665914791171,5.51074886322022,1.59436047077179,-0.89842677116394,-2.47804069519043,2.29294753074646,-1.23888266086578,0.217608883976936,-2.18792128562927
181,sampled_images/20181126_depthmap_0970_1537_01_004.png,6,0,0,7601.791933,-9782.915122,-1110.78692199237,0,1,23.2987405384497,153.137952784055,4.03064441343304E-05,-1.46662271022797,-0.089011088013649,-2.60562372207642,-0.019151784479618,2.50087237358093,2.67879509925842,-1.66220700740814,-5.81665849685669
182,sampled_images/20181126_depthmap_0429_0684_01_004.png,6,0,0,10847.891933,-14901.175122,-1078.68912405838,0,1,23.3280125299421,153.087886915602,0.000414159585489,-0.453900516033173,-0.475330501794815,-5.49865674972534,-2.59847974777222,-0.860406398773193,1.52822661399841,0.413649260997772,-0.666905343532562
183,sampled_images/20181126_depthmap_1057_1673_01_004.png,6,0,0,7079.951933,-8967.175122,-1112.7516118539,0,1,23.2940332526019,153.145930206907,0.000626931083389,-6.42129325866699,0.134458437561989,1.0929446220398,-1.62951827049255,-1.38170576095581,-1.93257093429565,3.26785802841187,-0.536416888237
184,sampled_images/20181126_depthmap_0214_0342_01_004.png,6,0,0,12138.071933,-16953.095122,-1047.9852776769,0,1,23.3396421566651,153.067809397449,0.003683745162562,-4.737548828125,0.327366203069687,5.74266147613525,-1.67123448848724,2.7346363067627,-1.46507942676544,-4.53782320022583,2.71215891838074
185,sampled_images/20181126_depthmap_0802_1272_01_004.png,6,0,0,8610.071933,-11373.095122,-1116.21456015666,0,1,23.307834522221,153.122400282793,5.94515586271882E-05,-1.09178328514099,-1.11966156959534,-3.0669002532959,0.875401675701141,5.65017127990723,1.81393420696259,-4.18778944015503,-1.98710572719574
186,sampled_images/20181126_depthmap_0503_0799_01_004.png,6,0,0,10403.731933,-14210.935122,-1086.87194796502,0,1,23.3240081474037,153.094640051217,0.007712445221841,-3.34896850585937,0.780648469924927,-1.68800520896912,-0.486856430768967,5.71845388412476,4.89095640182495,-0.924053907394409,1.84638321399689
187,sampled_images/20181126_depthmap_0851_1347_01_004.png,6,0,0,8315.991933,-10922.975122,-1118.13598183316,0,1,23.3051821955252,153.126802886183,8.57660197652876E-05,-1.46419930458069,-2.53978753089905,1.47352838516235,1.61972332000732,0.097125940024853,-0.745151817798615,-0.954172968864441,-6.20233201980591
188,sampled_images/20181126_depthmap_0865_1371_01_004.png,6,0,0,8232.031933,-10779.175122,-1107.03332496315,0,1,23.3044250323708,153.128209279694,0.001633212435991,-1.0618714094162,-0.110898427665234,-4.04329919815064,-5.05864000320435,5.29764699935913,0.120481304824352,-1.04090917110443,-0.479512214660645
189,sampled_images/20181126_depthmap_1061_1680_01_004.png,6,0,0,7055.831933,-8924.875122,-1110.3564806598,0,1,23.2938156919138,153.14634384165,0.004851895850152,-2.5163152217865,2.11019039154053,4.54123020172119,1.67092573642731,3.5968496799469,-0.089681781828404,-1.92313265800476,4.56872940063477
190,sampled_images/20181126_depthmap_0235_0374_01_004.png,6,0,0,12011.831933,-16760.875122,-1038.32397563012,0,1,23.3385042624538,153.069690429121,0.000381177815143,-0.58334892988205,-3.94427275657654,-4.58102321624756,0.48669508099556,-1.40716302394867,3.08050465583801,-2.65687704086304,-0.349447846412659
191,sampled_images/20181126_depthmap_0294_0470_01_004.png,6,0,0,11658.031933,-16185.175122,-1053.27460376909,0,1,23.335315445753,153.07532367862,0.000478204805404,-2.64299416542053,-3.64636206626892,5.79738473892212,2.03542971611023,3.07724404335022,-2.98107576370239,1.68004012107849,2.01912355422974
192,sampled_images/20181126_depthmap_0477_0759_01_004.png,6,0,0,10559.971933,-14451.175122,-1090.02593456978,0,1,23.3254168057837,153.092289633178,0.000920633319765,3.33053207397461,4.48705577850342,-2.03819489479065,1.36597204208374,0.871819257736206,2.31838083267212,-3.48384284973145,4.12061834335327
193,sampled_images/20181126_depthmap_0688_1092_01_004.png,6,0,0,9294.071933,-12453.135122,-1131.24357717891,0,1,23.3140028274085,153.111835927308,0.000349113659468,-1.85783338546753,-0.23960579931736,3.62786769866943,-3.98030829429626,-1.64891290664673,3.13057231903076,-1.01590538024902,-1.83804416656494
194,sampled_images/20181126_depthmap_0408_0651_01_004.png,6,0,0,10973.871933,-15098.875122,-1069.66558822374,0,1,23.3291482476586,153.085952606183,0.000417457922595,-1.0928692817688,1.79073965549469,-1.04345190525055,1.52243041992188,-4.28747510910034,2.1684672832489,-2.20800566673279,2.35260891914368
