,relative_path,altitude [m],roll [deg],pitch [deg],northing [m],easting [m],depth [m],heading [deg],timestamp [s],latitude [deg],longitude [deg],recon_loss,latent_0,latent_1,latent_2,latent_3,latent_4,latent_5,latent_6,latent_7
0,sampled_images/20181126_depthmap_0775_1228_01_004.png,6,0,0,8771.871933,-11636.955122,-1130.92530976233,0,1,23.3092936386737,153.119819480358,5.34120299562346E-05,-3.53567504882812,-4.1105260848999,-0.602314651012421,0.997898578643799,0.311944305896759,1.25332081317902,2.46678519248962,1.72572731971741
1,sampled_images/20181126_depthmap_1050_1663_01_004.png,6,0,0,7122.091933,-9027.115122,-1115.92323255577,0,1,23.2944134266126,153.145344027977,0.001310323830694,-6.92685222625732,0.461542546749115,0.956947326660156,-1.11539089679718,-0.827329576015472,-1.71467614173889,-2.09568476676941,-0.327494144439697
2,sampled_images/20181126_depthmap_0358_0570_01_004.png,6,0,0,11273.731933,-15584.875122,-1063.88137285018,0,1,23.3318512605277,153.081197513018,0.003966277465224,0.885131120681763,5.2151141166687,0.75859671831131,0.889972984790802,2.97169137001038,-2.07857227325439,-2.61421418190002,-1.92028594017029
3,sampled_images/20181126_depthmap_0273_0437_01_004.png,6,0,0,11784.091933,-16382.855122,-1047.41199828954,0,1,23.3364517287086,153.073389351925,0.00052826461615,0.44737896323204,1.23515629768372,0.603588819503784,-1.60385096073151,4.02576494216919,1.10385417938232,5.27189779281616,-4.77421188354492
4,sampled_images/20181126_depthmap_0753_1194_01_004.png,6,0,0,8903.971933,-11840.975122,-1130.07921148003,0,1,23.310484970295,153.117823876999,0.000710890162736,-4.50981950759888,0.831290066242218,-0.24901282787323,1.63379561901093,-1.64243388175964,-4.65809726715088,-0.601611256599426,-0.06653468310833
5,sampled_images/20181126_depthmap_0684_1085_01_004.png,6,0,0,9317.911933,-12494.915122,-1131.12936168084,0,1,23.3142177717799,153.111427260468,0.000136238973937,-2.52849364280701,2.63933658599854,-3.99531626701355,0.039503581821919,-1.52001416683197,-0.130753993988037,-2.1414737701416,3.13144707679749
6,sampled_images/20181126_depthmap_0089_0142_01_004.png,6,0,0,12887.791933,-18152.895122,-1023.63637133916,0,1,23.3463988184933,153.056068098812,0.001426669186912,-6.76091814041138,-1.33060741424561,1.82744884490967,-0.070018738508225,3.57346987724304,-0.020960902795196,-0.815676510334015,-1.60237157344818
7,sampled_images/20181126_depthmap_0722_1144_01_004.png,6,0,0,9090.051933,-12140.975122,-1122.59059205419,0,1,23.3121629785948,153.11488945486,0.000393976864871,1.40006053447723,2.07611966133118,-3.96449613571167,-0.594847857952118,-2.16376972198486,-4.46710872650147,0.784067690372467,0.176754921674728
8,sampled_images/20181126_depthmap_0469_0747_01_004.png,6,0,0,10608.071933,-14523.035122,-1089.66024284509,0,1,23.3258504863481,153.091586559184,0.001904525677674,1.17457497119904,-0.270275831222534,2.25626111030579,-1.90432369709015,2.6624858379364,-4.47318649291992,3.36245965957642,-2.10900735855103
9,sampled_images/20181126_depthmap_0948_1503_01_004.png,6,0,0,7733.791933,-9986.875122,-1110.56261990153,0,1,23.2999312010252,153.135958086248,0.000179741487955,-1.79664123058319,-1.26949501037598,-5.01737213134766,-0.03600861877203,0.616917192935944,1.42806613445282,-2.74094319343567,2.32349348068237
10,sampled_images/20181126_depthmap_0558_0886_01_004.png,6,0,0,10073.791933,-13689.055122,-1099.7528853225,0,1,23.3210334155934,153.099745673455,0.001224245293997,-0.685307204723358,-0.843044459819794,7.32471513748169,0.418776243925095,-0.817359507083893,-0.977957963943481,-1.41348791122437,-1.99782764911652
11,sampled_images/20181126_depthmap_0417_0665_01_004.png,6,0,0,10919.931933,-15014.835122,-1069.91929736651,0,1,23.328661972521,153.086774866758,0.000901767925825,-3.10905146598816,-0.175632208585739,0.122209563851356,1.1153199672699,2.2447555065155,-3.06457233428955,3.35578680038452,-5.33663749694824
12,sampled_images/20181126_depthmap_1086_1719_01_004.png,6,0,0,6905.911933,-8690.975122,-1104.74736045366,0,1,23.2924632460931,153.148631126593,0.002730245701969,-1.70854961872101,2.9565372467041,-1.44603192806244,-0.050247356295586,6.26649808883667,0.426511615514755,-2.42448496818542,0.557222008705139
13,sampled_images/20181126_depthmap_0851_1348_01_004.png,6,0,0,8316.031933,-10917.115122,-1117.87895925082,0,1,23.3051825957084,153.126860173558,0.000199638263439,-0.329888582229614,-1.71887421607971,-4.68692588806152,1.27957427501678,-1.01384234428406,1.39188981056213,-0.53530490398407,-2.29134082794189
14,sampled_images/20181126_depthmap_0784_1244_01_004.png,6,0,0,8718.111933,-11540.815122,-1123.74400439191,0,1,23.3088088940235,153.12075978819,0.001635585445911,1.07554018497467,-3.58120512962341,5.52063465118408,3.80599355697632,1.84042143821716,1.28627789020538,0.146561324596405,-2.89885115623474
15,sampled_images/20181126_depthmap_0589_0935_01_004.png,6,0,0,9887.911933,-13394.815122,-1106.13137092658,0,1,23.319357453218,153.102624161742,0.012928174808621,0.671782791614533,5.84588289260864,0.913451850414276,2.16102123260498,1.85153746604919,0.373802661895752,-1.36294114589691,-3.83421397209167
16,sampled_images/20181126_depthmap_0402_0641_01_004.png,6,0,0,11009.871933,-15158.935122,-1069.67051427219,0,1,23.3294727525242,153.085364991572,0.00011375102622,2.29078841209412,-3.14994120597839,-2.57097840309143,-1.0730152130127,0.055396310985088,0.371564000844955,-1.64452838897705,1.89079642295837
17,sampled_images/20181126_depthmap_0444_0706_01_004.png,6,0,0,10757.871933,-14768.815122,-1081.4435827256,0,1,23.3272008988326,153.089181971353,0.012635487131775,-1.90730655193329,5.90864229202271,1.20811331272125,0.743363261222839,2.6944887638092,1.13152885437012,-2.37369012832642,-5.70931053161621
18,sampled_images/20181126_depthmap_1040_1648_01_004.png,6,0,0,7182.031933,-9116.875122,-1107.17526705073,0,1,23.2949541578847,153.144466239305,0.001037573325448,-5.0310320854187,1.52882480621338,3.99569606781006,-1.38188552856445,1.24545705318451,-1.6228529214859,3.11169648170471,-1.75874435901642
19,sampled_images/20181126_depthmap_0507_0807_01_004.png,6,0,0,10380.011933,-14163.155122,-1090.28208114842,0,1,23.3237943827196,153.095107438117,0.051523722708225,-4.76524162292481,5.39050245285034,3.39606070518494,-0.944606244564056,1.62694382667542,-0.873461663722992,-1.99260091781616,-7.09323596954346
20,sampled_images/20181126_depthmap_0679_1079_01_004.png,6,0,0,9347.931933,-12531.035122,-1130.58636101483,0,1,23.314488560353,153.111073877435,0.00049610453425,-3.92690944671631,3.36941885948181,-1.62146162986755,2.22223091125488,-3.15389943122864,-1.80024838447571,2.04153633117676,-0.650755763053894
21,sampled_images/20181126_depthmap_0008_0012_01_004.png,6,0,0,13374.051933,-18932.835122,-1015.01029772141,0,1,23.3507806156422,153.048434948137,0.000299165752949,-0.872489213943481,3.34747743606567,-3.58852410316467,-1.53655660152435,-1.66196382045746,1.71685838699341,3.57896399497986,-0.093480452895165
22,sampled_images/20181126_depthmap_0538_0855_01_004.png,6,0,0,10194.031933,-13875.055122,-1086.46722113028,0,1,23.322117551776,153.097926012169,0.002324728295207,0.83197033405304,-2.96233057975769,4.53043079376221,3.88232374191284,3.54229855537415,1.2380039691925,0.254439473152161,-0.317731022834778
23,sampled_images/20181126_depthmap_0230_0368_01_004.png,6,0,0,12041.871933,-16796.915122,-1041.28697426554,0,1,23.3387751367097,153.0693376796,0.002443617675453,-0.406075537204742,-2.87843823432922,1.52035415172577,4.82839107513428,3.82140755653381,-0.13481168448925,-2.06106448173523,-1.38517558574677
24,sampled_images/20181126_depthmap_0227_0363_01_004.png,6,0,0,12059.851933,-16827.135122,-1044.59679301397,0,1,23.3389371752942,153.069041973725,0.002129625761881,-1.11226093769073,-2.20101547241211,4.83967208862305,3.13438320159912,3.84771227836609,2.03194761276245,-0.179061084985733,0.223067581653595
25,sampled_images/20181126_depthmap_0775_1230_01_004.png,6,0,0,8772.011933,-11624.955122,-1130.89717726392,0,1,23.3092949878874,153.119936795484,0.000207705321372,-0.536056518554688,2.44361305236816,-3.12060832977295,-2.76803398132324,1.73063111305237,0.926947593688965,-1.94258952140808,3.12567806243896
26,sampled_images/20181126_depthmap_0240_0384_01_004.png,6,0,0,11982.011933,-16701.095122,-1039.72535827171,0,1,23.3382356160773,153.070275315107,0.00131235900335,-4.07958936691284,-0.82219922542572,2.98843955993652,3.06199908256531,1.69214355945587,2.26372361183166,1.99491930007935,-5.25630569458008
27,sampled_images/20181126_depthmap_0756_1199_01_004.png,6,0,0,8885.891933,-11811.175122,-1134.36019323994,0,1,23.3103219325226,153.11811535577,0.000119227064715,2.48246431350708,-1.83490717411041,-0.885696530342102,1.13804471492767,-0.110638372600079,2.67929458618164,2.3613224029541,4.24715900421143
28,sampled_images/20181126_depthmap_0577_0916_01_004.png,6,0,0,9959.751933,-13509.135122,-1098.68900382731,0,1,23.3200051904558,153.101505805066,0.004800902679563,0.299857348203659,3.95115685462952,-0.859681963920593,2.67991304397583,2.44016170501709,-0.446974873542786,-2.57313060760498,-2.40716767311096
29,sampled_images/20181126_depthmap_0125_0199_01_004.png,6,0,0,12671.991933,-17811.095122,-1033.36353222508,0,1,23.3444540285166,153.059413116326,0.000389866880141,2.68884038925171,1.51825892925262,1.15231823921204,-0.69888299703598,1.72873592376709,5.10831546783447,2.01968145370483,-5.10729074478149
30,sampled_images/20181126_depthmap_0056_0088_01_004.png,6,0,0,13085.731933,-18477.155122,-1023.5941221677,0,1,23.3481824690759,153.052894729229,0.006279047578573,0.760894238948822,4.0772876739502,-0.066375434398651,1.18545889854431,-0.127177655696869,-2.79373574256897,-4.12045049667358,-2.05409979820251
31,sampled_images/20181126_depthmap_0131_0209_01_004.png,6,0,0,12635.991933,-17750.975122,-1037.49613715652,0,1,23.3441296230075,153.060001446238,0.000429597595939,2.40097904205322,0.981674432754517,1.2918484210968,-0.867163360118866,2.14532923698425,4.99976873397827,2.10341835021973,-6.36250257492065
32,sampled_images/20181126_depthmap_0870_1378_01_004.png,6,0,0,8201.971933,-10736.895122,-1105.30023726495,0,1,23.3041538837324,153.128622821826,0.000809908437077,-5.37716197967529,2.04005241394043,0.574687600135803,0.530560553073883,-1.79588723182678,-2.67057085037231,-0.350392282009125,1.85075843334198
33,sampled_images/20181126_depthmap_0376_0599_01_004.png,6,0,0,11165.751933,-15410.875122,-1063.84177482232,0,1,23.3308779092208,153.082899982172,0.000891578092705,-3.4714982509613,2.33943319320679,2.9509482383728,-0.741519510746002,-1.32535338401794,2.93911623954773,2.03697967529297,-3.81150674819946
34,sampled_images/20181126_depthmap_1087_1721_01_004.png,6,0,0,6899.931933,-8678.855122,-1108.20258548281,0,1,23.2924093138692,153.148749635379,0.00903466809541,0.950773239135742,6.44892454147339,1.78220820426941,2.07908940315247,2.95718050003052,1.10628950595856,-0.991495072841644,-4.2357349395752
35,sampled_images/20181126_depthmap_0673_1067_01_004.png,6,0,0,9383.791933,-12603.035122,-1129.88135378639,0,1,23.3148118047558,153.110369654718,0.001006132457405,-2.10173583030701,1.97507667541504,-0.694003701210022,-5.62042236328125,0.554867267608643,-2.41938233375549,-1.37059879302979,-0.037028416991234
36,sampled_images/20181126_depthmap_0889_1408_01_004.png,6,0,0,8087.831933,-10557.075122,-1117.55191189461,0,1,23.3031244267777,153.13038153323,0.000324368011206,-4.27551698684692,-1.37825834751129,-4.67495489120483,1.7888091802597,-1.06384825706482,-2.7373321056366,0.601799726486206,-2.66434931755066
37,sampled_images/20181126_depthmap_0207_0332_01_004.png,6,0,0,12180.031933,-17013.055122,-1049.98755161403,0,1,23.3400204088402,153.06722260368,0.015698757022619,-1.66839444637299,5.59759140014648,1.95069015026093,1.68933343887329,1.84382390975952,0.839815080165863,-2.45992994308472,-6.44503307342529
38,sampled_images/20181126_depthmap_0825_1307_01_004.png,6,0,0,8471.771933,-11163.075122,-1114.74863030093,0,1,23.3065871897831,153.124454508619,0.000180802046089,-4.202880859375,-1.23123359680176,-4.08369302749634,2.04497838020325,-1.46313059329987,-2.07179260253906,-0.516733705997467,0.90289044380188
39,sampled_images/20181126_depthmap_0698_1108_01_004.png,6,0,0,9234.011933,-12357.135122,-1132.54620010603,0,1,23.3134612445709,153.112774979714,0.00334827741608,2.02783703804016,-1.31417167186737,-0.064012467861176,5.29839086532593,1.64970469474792,-0.315922677516937,-2.75531077384949,-1.8587441444397
40,sampled_images/20181126_depthmap_0228_0364_01_004.png,6,0,0,12053.831933,-16820.875122,-1045.28871464853,0,1,23.3388828825556,153.06910325407,0.000459388858872,-1.08591485023499,-0.730912864208221,-3.94625973701477,-2.2685067653656,-0.679160416126251,-4.10044431686401,-0.696647822856903,-1.01009845733643
41,sampled_images/20181126_depthmap_0284_0454_01_004.png,6,0,0,11718.051933,-16281.135122,-1048.93030655513,0,1,23.335856440349,153.074384713207,0.000365329004126,3.72832942008972,-0.824290990829468,0.593101620674133,-0.264053583145142,1.61898505687714,4.52590656280518,3.12704825401306,-4.29901933670044
42,sampled_images/20181126_depthmap_0124_0198_01_004.png,6,0,0,12677.991933,-17816.895122,-1032.86071697747,0,1,23.3445081418038,153.059356328024,0.000527847092599,0.398302912712097,0.174562901258469,1.36450600624084,-0.759939193725586,3.722580909729,4.80927419662476,2.57971382141113,-6.14627933502197
43,sampled_images/20181126_depthmap_0750_1189_01_004.png,6,0,0,8921.871933,-11870.835122,-1130.44794542746,0,1,23.3106463817823,153.117531812343,0.001182825537398,-1.79130971431732,3.2846896648407,2.56739568710327,0.924735426902771,2.75703406333923,-2.68546009063721,1.51602876186371,2.94515705108643
44,sampled_images/20181126_depthmap_0091_0144_01_004.png,6,0,0,12875.731933,-18140.935122,-1024.5899594527,0,1,23.3462900565596,153.056185200808,6.28927446086891E-05,0.287556082010269,0.268215209245682,-1.2971967458725,3.81057262420654,-2.98324418067932,-0.084374040365219,2.575434923172,3.15928053855896
45,sampled_images/20181126_depthmap_0654_1038_01_004.png,6,0,0,9498.071933,-12777.155122,-1123.66787639596,0,1,23.3158423429933,153.108666362914,0.003760327352211,3.05518960952759,-2.22936081886291,0.212352901697159,4.07553434371948,3.53772282600403,-1.14911723136902,-2.22726011276245,-0.590887308120728
46,sampled_images/20181126_depthmap_0118_0188_01_004.png,6,0,0,12714.011933,-17877.135122,-1031.83548325838,0,1,23.3448327241319,153.05876682118,0.000568164337892,-2.58989787101746,4.18259906768799,0.391428649425507,-2.51735234260559,-3.885418176651,-1.3850314617157,-0.534246563911438,0.535307705402374
47,sampled_images/20181126_depthmap_1069_1693_01_004.png,6,0,0,7007.911933,-8847.035122,-1109.9589853747,0,1,23.2933834202524,153.147105024921,0.000258870830294,3.38740825653076,0.54003769159317,1.52395117282867,-1.19758152961731,0.275453269481659,6.17299699783325,-0.183131143450737,-1.28390896320343
48,sampled_images/20181126_depthmap_1057_1675_01_004.png,6,0,0,7079.891933,-8954.975122,-1114.99922429154,0,1,23.2940327774336,153.146049465223,0.001209821086377,-1.28796923160553,2.22807598114014,1.32236731052399,-1.88679981231689,2.39044523239136,-4.72549438476563,2.22329139709473,1.06879532337189
49,sampled_images/20181126_depthmap_0764_1213_01_004.png,6,0,0,8837.951933,-11726.835122,-1130.89026083384,0,1,23.309889665351,153.118940270532,0.000298916827887,-1.21663618087769,1.46161544322968,-4.28614330291748,-3.06814646720886,1.34262311458588,1.46623206138611,-2.21638679504395,0.479513823986054
50,sampled_images/20181126_depthmap_0979_1551_01_004.png,6,0,0,7547.931933,-9698.975122,-1109.23811823689,0,1,23.2982547089088,153.138773691231,0.002343475120142,-4.01242160797119,-1.76469123363495,1.51876986026764,-0.344323456287384,5.08521270751953,-3.70320081710815,-0.107912600040436,-0.151784032583237
51,sampled_images/20181126_depthmap_0141_0224_01_004.png,6,0,0,12576.091933,-17661.175122,-1044.93673650443,0,1,23.3435897329912,153.060880288717,0.00802646111697,1.89652073383331,4.61017799377441,1.39633643627167,3.21109652519226,2.07625317573547,1.32623088359833,-0.81076180934906,-5.2142128944397
52,sampled_images/20181126_depthmap_0008_0011_01_004.png,6,0,0,13373.971933,-18938.835122,-1014.54896367708,0,1,23.3507798238892,153.048376273014,0.001228916458786,-4.74520921707153,2.20019125938416,1.46702611446381,-0.924147844314575,-1.33572292327881,-3.45546770095825,-0.765232145786285,2.59194302558899
53,sampled_images/20181126_depthmap_0158_0252_01_004.png,6,0,0,12474.071933,-17492.835122,-1038.74969023198,0,1,23.3426703604359,153.062527637941,0.00163105991669,-1.64620649814606,-2.94057297706604,5.33238363265991,1.57176804542542,3.54329919815063,0.915365397930145,2.00138282775879,-2.4273886680603
54,sampled_images/20181126_depthmap_0096_0154_01_004.png,6,0,0,12845.751933,-18080.995122,-1021.88205233756,0,1,23.3460200183155,153.056771714386,0.000761126575526,-5.31676054000855,1.41118061542511,-2.0092408657074,0.97807502746582,-1.05960011482239,1.9737114906311,0.269851922988892,-1.6368602514267
55,sampled_images/20181126_depthmap_0016_0026_01_004.png,6,0,0,13325.831933,-18849.055122,-1017.35965814442,0,1,23.3503461854853,153.049254863779,0.00175282265991,-5.63360452651978,-0.956057667732239,4.66978740692139,2.41237759590149,3.28494119644165,-0.50000387430191,1.09483623504639,-0.428117454051971
56,sampled_images/20181126_depthmap_0326_0520_01_004.png,6,0,0,11466.011933,-15885.015122,-1052.19369104645,0,1,23.3335845549883,153.078260730215,0.004793792031705,0.363766431808472,3.83186221122742,0.612022757530212,0.028772249817848,3.78675937652588,-1.71688413619995,-2.58611011505127,-4.77860736846924
57,sampled_images/20181126_depthmap_0862_1365_01_004.png,6,0,0,8249.991933,-10814.795122,-1115.79399797261,0,1,23.304586967237,153.127860930513,0.009572312235832,1.04472899436951,4.74000978469849,1.07660460472107,2.91456484794617,0.552629172801971,1.31552541255951,-1.96324062347412,-3.97808074951172
58,sampled_images/20181126_depthmap_0411_0654_01_004.png,6,0,0,10955.831933,-15080.835122,-1069.41902700957,0,1,23.3289855229162,153.086129177272,0.00033281208016,-3.60971879959106,-1.91335010528564,-4.25001001358032,-0.582047700881958,2.49215984344482,-0.836815118789673,-0.847073197364807,1.18233954906464
59,sampled_images/20181126_depthmap_0439_0699_01_004.png,6,0,0,10787.851933,-14811.075122,-1071.59990953924,0,1,23.3274712197689,153.08876847457,0.000346557819284,-2.41519832611084,-0.118247359991074,-3.17554807662964,1.60775876045227,-2.85677909851074,-4.45944213867188,0.996182024478912,-0.664922595024109
60,sampled_images/20181126_depthmap_0859_1360_01_004.png,6,0,0,8267.931933,-10845.035122,-1118.19755703688,0,1,23.3047487563052,153.127565175624,0.000501028029248,-3.32596564292908,2.09568524360657,-0.185976028442383,-0.298149347305298,-1.94545590877533,4.89020872116089,-0.456123977899551,-2.30835127830505
61,sampled_images/20181126_depthmap_0873_1384_01_004.png,6,0,0,8183.891933,-10700.835122,-1111.73344126888,0,1,23.3039908664905,153.128975471234,0.001601389376447,-2.22534990310669,0.770044922828674,3.90286564826965,2.55833601951599,2.12106013298035,-2.08500981330872,-0.136960625648499,3.8209068775177
62,sampled_images/20181126_depthmap_0068_0107_01_004.png,6,0,0,13013.891933,-18363.155122,-1024.69342471016,0,1,23.3475350802322,153.054010426877,0.003578113624826,-2.05254101753235,1.13045215606689,-2.2957239151001,-0.030149355530739,2.95810055732727,-4.06596183776856,-3.79090046882629,-1.45486509799957
63,sampled_images/20181126_depthmap_0549_0872_01_004.png,6,0,0,10127.731933,-13773.035122,-1095.68349589049,0,1,23.3215197602274,153.098924093423,0.001285473117605,-5.58223581314087,0.347459375858307,2.65024662017822,-0.918486058712006,3.57448434829712,1.15371525287628,1.97961139678955,-2.2732355594635
64,sampled_images/20181126_depthmap_0714_1133_01_004.png,6,0,0,9137.911933,-12207.015122,-1126.60777729294,0,1,23.3125946381699,153.114243425277,0.002750840038061,-3.25464463233948,-0.877618551254272,0.361479461193085,1.53286457061768,1.3192663192749,-4.56262922286987,-3.05069732666016,-1.21695053577423
65,sampled_images/20181126_depthmap_0850_1347_01_004.png,6,0,0,8322.031933,-10923.035122,-1117.92444702852,0,1,23.3052367331155,153.126802256081,0.000288593728328,-1.02382004261017,1.50502049922943,-4.3663067817688,-0.720810413360596,0.000720412819646,3.34673523902893,3.54144167900085,-2.0915355682373
66,sampled_images/20181126_depthmap_0165_0262_01_004.png,6,0,0,12432.111933,-17432.835122,-1042.84515417712,0,1,23.3422921265511,153.063114847735,0.000294276658678,0.124061167240143,-3.07220458984375,-3.31791996955872,-1.94869923591614,0.102138191461563,-3.07747411727905,-1.12233650684357,0.172039836645126
67,sampled_images/20181126_depthmap_0740_1172_01_004.png,6,0,0,8982.091933,-11972.855122,-1118.66486166692,0,1,23.3111893942488,153.116533943171,0.000350791378878,-1.62695693969727,3.50056290626526,4.57213306427002,0.040689960122109,-1.04467105865479,3.17396211624145,-1.95980060100555,0.80882716178894
68,sampled_images/20181126_depthmap_0537_0854_01_004.png,6,0,0,10200.051933,-13881.115122,-1085.10935008087,0,1,23.3221718576972,153.097866706657,0.000547693751287,0.647499620914459,0.084358394145966,-0.751094520092011,2.69036674499512,4.21888399124146,1.88925445079803,5.80999898910522,-3.09578800201416
69,sampled_images/20181126_depthmap_0159_0255_01_004.png,6,0,0,12468.051933,-17474.935122,-1040.36905620462,0,1,23.3426161945433,153.062702747452,0.000400905497372,-2.64327621459961,-1.84568738937378,-4.80032253265381,-0.011454911902547,1.14162349700928,0.679831922054291,-3.44905042648315,0.383266687393188
70,sampled_images/20181126_depthmap_0211_0337_01_004.png,6,0,0,12155.831933,-16983.035122,-1052.96377202387,0,1,23.3398022087587,153.067516428279,0.010791872628033,-1.15138936042786,1.18247556686401,-1.36819183826447,2.57717323303223,1.15752339363098,-0.223152279853821,-4.55173349380493,-4.44621801376343
71,sampled_images/20181126_depthmap_1056_1673_01_004.png,6,0,0,7085.851933,-8966.995122,-1114.32198955601,0,1,23.2940865275553,153.145931931559,0.001677300431766,-6.4058518409729,2.95563459396362,1.85823428630829,-1.52773416042328,-0.108435705304146,-0.18039233982563,-0.137160792946816,-0.968486249446869
72,sampled_images/20181126_depthmap_0811_1285_01_004.png,6,0,0,8556.091933,-11295.155122,-1117.69324637545,0,1,23.3073476502306,153.123162645693,0.017995558679104,-1.54534947872162,6.40261507034302,2.51493382453918,0.209200099110603,3.18373394012451,-0.69060492515564,-1.74025011062622,-4.7726411819458
73,sampled_images/20181126_depthmap_0877_1389_01_004.png,6,0,0,8159.931933,-10671.035122,-1114.9821398357,0,1,23.3037747144583,153.129266963719,0.003255375195295,-1.13027393817902,-1.34748196601868,-1.00255000591278,3.46571373939514,3.61489796638489,-0.887244284152985,-3.55019927024841,-2.81778383255005
74,sampled_images/20181126_depthmap_1039_1645_01_004.png,6,0,0,7188.071933,-9134.795122,-1105.70857224881,0,1,23.2950085963442,153.144291029367,0.001006656559184,-4.00744009017944,2.79246973991394,3.0840437412262,0.370327681303024,2.65928173065186,1.32089185714722,4.19414186477661,-0.289494901895523
75,sampled_images/20181126_depthmap_0725_1149_01_004.png,6,0,0,9071.791933,-12110.975122,-1128.50917620797,0,1,23.3119983225173,153.115182897599,0.001578052644618,-0.393152981996536,-0.343148618936539,2.47817420959473,-2.4273054599762,-0.634800791740418,-4.52400398254395,-1.0516916513443,-2.42032766342163
76,sampled_images/20181126_depthmap_0860_1364_01_004.png,6,0,0,8261.751933,-10820.855122,-1117.77752917075,0,1,23.3046931138408,153.127801603927,0.000664191436954,-0.713528990745544,2.25721979141235,3.3838791847229,1.6793407201767,0.971425235271454,3.85357689857483,4.21187591552734,-3.30391073226929
77,sampled_images/20181126_depthmap_0782_1239_01_004.png,6,0,0,8730.071933,-11571.115122,-1122.52415533753,0,1,23.3089166729336,153.120463474505,0.000130412343424,-1.7127810716629,3.36483097076416,-3.08597755432129,-0.392302244901657,-1.61876046657562,0.758907616138458,-0.662229239940643,4.01431035995483
78,sampled_images/20181126_depthmap_0149_0237_01_004.png,6,0,0,12527.851933,-17582.835122,-1039.65046823224,0,1,23.343154997763,153.061646923537,0.00219915388152,-3.17475414276123,0.462861001491547,-0.044972646981478,-0.782119035720825,0.3077093064785,-4.86866188049316,-3.06108951568604,0.55932891368866
79,sampled_images/20181126_depthmap_1054_1670_01_004.png,6,0,0,7097.731933,-8985.015122,-1115.7946745843,0,1,23.294193699316,153.145755711216,0.00055208086269,-1.73354613780975,-0.110285393893719,-3.08709216117859,-4.22333860397339,3.14490604400635,2.61607313156128,-1.13263821601868,-2.36990308761597
80,sampled_images/20181126_depthmap_0425_0676_01_004.png,6,0,0,10871.991933,-14949.175122,-1076.41431683978,0,1,23.3282297020191,153.087417347631,0.070494115352631,-7.31985139846802,5.73172998428345,3.05224132537842,-3.53622961044312,-2.27576804161072,-4.08304691314697,-3.8758065700531,-6.8609733581543
81,sampled_images/20181126_depthmap_0026_0040_01_004.png,6,0,0,13265.911933,-18764.975122,-1025.12721696165,0,1,23.3498061105957,153.050077853138,3.40090809913818E-05,-4.5695948600769,-4.03772401809692,0.649744153022766,0.311404138803482,-0.640125036239624,1.69632363319397,2.28521490097046,2.90858602523804
82,sampled_images/20181126_depthmap_0563_0896_01_004.png,6,0,0,10043.871933,-13629.155122,-1100.15866974554,0,1,23.3207637537792,153.100331597145,0.000689354725182,-1.7733678817749,1.81724655628204,0.149527415633202,-2.59065079689026,-3.69591450691223,-3.45462322235107,0.253217816352844,-0.825855493545532
83,sampled_images/20181126_depthmap_0359_0572_01_004.png,6,0,0,11267.751933,-15573.175122,-1062.43029944351,0,1,23.3317973758295,153.081311976986,0.00114804203622,-4.87447595596314,3.05070853233337,2.72075772285461,1.37224423885345,1.63783323764801,-0.116352669894695,0.325904697179794,2.18591809272766
84,sampled_images/20181126_depthmap_0606_0964_01_004.png,6,0,0,9786.011933,-13220.915122,-1120.00348821964,0,1,23.318438764275,153.104325285678,0.000400722870836,-0.708984553813934,2.55535054206848,-0.099677219986916,1.70563340187073,1.0830944776535,0.1231934055686,6.15362644195557,-3.30940532684326
85,sampled_images/20181126_depthmap_0863_1368_01_004.png,6,0,0,8243.991933,-10797.095122,-1111.0060884656,0,1,23.3045329069971,153.128034008616,0.003832791931927,0.8692666888237,-1.34616899490356,-2.62695646286011,2.66455054283142,4.34273147583008,-1.27900278568268,-2.92526459693909,-3.7541708946228
86,sampled_images/20181126_depthmap_0614_0977_01_004.png,6,0,0,9737.811933,-13142.995122,-1122.8799267162,0,1,23.3180041714198,153.105087528906,0.000662769656628,-0.089504681527615,1.02382516860962,1.14981698989868,-1.9028514623642,2.09341764450073,2.98561382293701,1.72730994224548,-7.50074148178101
87,sampled_images/20181126_depthmap_0774_1227_01_004.png,6,0,0,8777.971933,-11642.835122,-1130.56757108349,0,1,23.3093486766638,153.119761948541,0.000721187563613,-4.57104063034058,1.79998123645782,-0.834052920341492,-4.29763603210449,-0.247008785605431,0.332535803318024,-1.96269381046295,-2.88584208488464
88,sampled_images/20181126_depthmap_1073_1698_01_004.png,6,0,0,6983.791933,-8816.795122,-1106.54472003932,0,1,23.293165791707,153.147400767085,0.000841262575705,-2.85282897949219,2.92684936523437,3.45484614372253,-0.044535905122757,0.9230797290802,2.6598527431488,5.10662317276001,-3.18320226669312
89,sampled_images/20181126_depthmap_0971_1537_01_004.png,6,0,0,7595.951933,-9783.155122,-1110.81311173227,0,1,23.2986878048612,153.137950475605,0.000100649776869,-0.612544655799866,1.52440369129181,-1.77464842796326,1.22021698951721,-1.540531873703,1.56035578250885,-0.178186625242233,4.85739088058472
90,sampled_images/20181126_depthmap_0738_1172_01_004.png,6,0,0,8993.931933,-11972.955122,-1117.15002347081,0,1,23.3112963023059,153.11653287194,0.001056533772498,-3.95142936706543,0.211028903722763,5.4449405670166,-0.800595998764038,0.138665094971657,-2.44070792198181,1.4741929769516,-3.42742466926575
91,sampled_images/20181126_depthmap_0946_1499_01_004.png,6,0,0,7745.931933,-10010.875122,-1109.97002449754,0,1,23.3000406726435,153.13572338997,0.001119362306781,-2.9207649230957,1.35772466659546,0.125730216503143,-2.95768737792969,-0.151646599173546,-2.93954420089722,-3.75147747993469,1.02150523662567
92,sampled_images/20181126_depthmap_0768_1217_01_004.png,6,0,0,8813.951933,-11702.955122,-1130.17058272789,0,1,23.3096731288436,153.119173916204,0.000856788537931,-0.591578722000122,0.284501791000366,-0.713954627513886,2.38621759414673,5.10919427871704,-1.64043033123016,3.03028273582458,-3.05883860588074
93,sampled_images/20181126_depthmap_0165_0263_01_004.png,6,0,0,12432.011933,-17426.935122,-1042.96733938182,0,1,23.3422912864036,153.063172543456,7.97701068222523E-05,0.192749783396721,-0.582105398178101,-4.06684589385986,-1.07213938236237,1.81377720832825,-1.7187215089798,-1.0754280090332,4.38701343536377
94,sampled_images/20181126_depthmap_0909_1440_01_004.png,6,0,0,7967.731933,-10365.155122,-1117.50562304011,0,1,23.3020412106822,153.132258545893,7.57944071665406E-05,2.22388887405395,-1.94314074516296,2.05340528488159,1.07190775871277,-2.90677309036255,3.63821721076965,0.849390208721161,1.16915237903595
95,sampled_images/20181126_depthmap_0415_0661_01_004.png,6,0,0,10932.091933,-15039.095122,-1070.19881470909,0,1,23.3287715479023,153.086537537613,5.34368482476566E-05,-2.81403994560242,-3.5377140045166,1.16528952121735,-0.650435626506805,-2.69919419288635,1.80550014972687,2.54660201072693,-0.12584114074707
96,sampled_images/20181126_depthmap_0928_1470_01_004.png,6,0,0,7853.951933,-10184.835122,-1112.30271595868,0,1,23.3010149661918,153.134022087102,0.000120454897115,-1.9244441986084,-1.7656227350235,-4.34582710266113,2.86446166038513,-1.36150300502777,-0.578334033489227,0.832434773445129,-1.32452380657196
97,sampled_images/20181126_depthmap_0465_0740_01_004.png,6,0,0,10631.991933,-14564.815122,-1089.83671704529,0,1,23.3260660996281,153.091177822971,0.003013357287273,0.522063553333283,-1.01956522464752,1.09121239185333,3.05443429946899,3.94602489471436,-3.14887547492981,-1.78435623645782,0.791388273239136
98,sampled_images/20181126_depthmap_0964_1527_01_004.png,6,0,0,7637.731933,-9843.175122,-1109.97475343877,0,1,23.2990646975927,153.137363473967,0.000144471981912,-3.38402152061462,-0.63381564617157,-4.65423727035522,2.68730211257935,-1.22557938098907,1.68411719799042,2.4190936088562,0.688443541526794
99,sampled_images/20181126_depthmap_0251_0401_01_004.png,6,0,0,11916.031933,-16599.095122,-1036.87221012872,0,1,23.3376408923955,153.071273440781,0.004690445028245,3.56866931915283,1.5274133682251,-0.20794665813446,4.16898536682129,2.20351123809814,1.74213910102844,-1.6903932094574,-3.51830887794495
100,sampled_images/20181126_depthmap_0755_1197_01_004.png,6,0,0,8891.731933,-11822.935122,-1132.1664419626,0,1,23.3103745798426,153.11800033944,0.002671481575817,-3.1240816116333,0.084188111126423,0.108865037560463,1.60359609127045,5.67700433731079,-1.66498196125031,-3.00889658927917,1.16733765602112
101,sampled_images/20181126_depthmap_0258_0411_01_004.png,6,0,0,11873.931933,-16539.095122,-1041.65050548444,0,1,23.3372613610916,153.071860605342,0.000156894224347,1.1255396604538,-2.04380011558533,-4.53650093078613,-0.14290164411068,-1.55791735649109,2.75322675704956,-1.80257439613342,-1.03765678405762
102,sampled_images/20181126_depthmap_0356_0568_01_004.png,6,0,0,11286.011933,-15596.995122,-1065.49242868653,0,1,23.3319620264979,153.081078877261,0.000306538946461,3.7275128364563,-0.528641819953918,0.05822878703475,0.176924675703049,0.899150371551514,5.27243566513062,2.96355247497559,-2.62909960746765
103,sampled_images/20181126_depthmap_0400_0637_01_004.png,6,0,0,11021.751933,-15182.895122,-1069.04722390803,0,1,23.3295798002856,153.085130595995,0.000476464629173,-0.508222103118897,0.865835428237915,-4.49854326248169,-2.29070115089416,1.40483164787292,1.41635382175446,1.4105224609375,-5.05825424194336
104,sampled_images/20181126_depthmap_0134_0215_01_004.png,6,0,0,12617.851933,-17714.935122,-1038.93927795363,0,1,23.3439662199979,153.060354089358,0.000141507844091,3.67020559310913,-2.12834930419922,0.321318924427033,1.85662853717804,-0.841223835945129,3.75330853462219,3.80827450752258,-1.65822684764862
105,sampled_images/20181126_depthmap_0787_1247_01_004.png,6,0,0,8699.771933,-11522.915122,-1121.95449795186,0,1,23.3086434195185,153.120934923715,0.001745325163938,-4.35400629043579,-1.22892677783966,2.98115539550781,1.46001183986664,5.41538667678833,1.59462881088257,0.991521656513214,0.634989023208618
106,sampled_images/20181126_depthmap_0026_0042_01_004.png,6,0,0,13266.031933,-18753.035122,-1025.1877009788,0,1,23.3498073309366,153.050194616299,6.41015358269215E-05,0.881045162677765,0.221362695097923,2.02146410942078,2.17708516120911,-4.54624223709106,-0.527666985988617,3.91776967048645,-0.457598328590393
107,sampled_images/20181126_depthmap_0446_0709_01_004.png,6,0,0,10746.071933,-14750.955122,-1089.78967599755,0,1,23.3270945124029,153.089356715151,0.009680090472102,-0.391231209039688,5.74349308013916,0.733835875988007,2.23222303390503,2.61437177658081,1.24032413959503,-1.99787497520447,-5.24152612686157
108,sampled_images/20181126_depthmap_0095_0153_01_004.png,6,0,0,12851.731933,-18087.055122,-1022.33491102771,0,1,23.3460739471636,153.056712382046,0.004281259141862,-2.3820915222168,6.0176739692688,1.43880093097687,-1.13587784767151,1.10099947452545,-3.89636921882629,-2.67443537712097,-0.546527206897736
109,sampled_images/20181126_depthmap_0088_0141_01_004.png,6,0,0,12894.051933,-18159.075122,-1024.12851784188,0,1,23.3464552739686,153.056007589172,0.000908740330487,-5.45769500732422,2.05341744422913,-2.1846821308136,-1.07883512973785,-0.494688838720322,-2.94110989570618,0.459187418222427,-1.48982763290405
110,sampled_images/20181126_depthmap_0964_1528_01_004.png,6,0,0,7637.971933,-9836.895122,-1109.47597304558,0,1,23.2990669023224,153.137424863227,0.000406965205912,-1.344806432724,2.27199649810791,-1.19307076931,4.65885925292969,1.29782593250275,0.877974689006805,3.67262554168701,0.753645658493042
111,sampled_images/20181126_depthmap_0707_1123_01_004.png,6,0,0,9179.831933,-12267.175122,-1127.22783292398,0,1,23.3129727040692,153.113654926167,0.003062080591917,0.847881197929382,0.2993044257164,-1.32316696643829,2.04401421546936,5.99293994903564,0.494253516197205,-3.02021503448486,-1.19655919075012
112,sampled_images/20181126_depthmap_0735_1165_01_004.png,6,0,0,9012.091933,-12014.895122,-1119.78518946997,0,1,23.3114599705684,153.116122701694,0.000702842662577,-2.10906028747559,3.56391906738281,3.05127620697021,-2.29131102561951,-1.50094306468964,3.51690602302551,-0.819891214370727,-3.75573039054871
113,sampled_images/20181126_depthmap_0742_1178_01_004.png,6,0,0,8969.911933,-11937.075122,-1122.88958685389,0,1,23.3110796762415,153.116883841874,0.034734435379505,-3.16371774673462,6.38673114776611,2.95437622070312,-0.4555843770504,3.07262635231018,-1.26422071456909,-1.61245083808899,-5.01048898696899
114,sampled_images/20181126_depthmap_0564_0897_01_004.png,6,0,0,10037.791933,-13623.175122,-1099.35247112537,0,1,23.3207089044766,153.100390119399,0.001374864252284,-4.37391233444214,2.04997634887695,3.10986185073853,-0.503883063793182,0.105152666568756,-4.24045658111572,1.77544641494751,-0.34438157081604
115,sampled_images/20181126_depthmap_0747_1185_01_004.png,6,0,0,8939.891933,-11895.015122,-1131.3406659698,0,1,23.310808917457,153.117295276333,0.000181256516953,2.2590434551239,-2.90746784210205,-0.728339612483978,2.19957947731018,0.828615128993988,1.64179110527039,6.19708633422852,-2.90141820907593
116,sampled_images/20181126_depthmap_0623_0989_01_004.png,6,0,0,9683.791933,-13071.035122,-1117.31249931537,0,1,23.3175169759257,153.105791546804,0.002997103147209,0.561193943023682,-0.227908238768578,-0.432850301265717,1.28956973552704,6.58227348327637,0.805232703685761,-2.3114447593689,0.039162665605545
117,sampled_images/20181126_depthmap_0162_0260_01_004.png,6,0,0,12449.951933,-17445.015122,-1041.04144750671,0,1,23.3424530813722,153.062995536874,0.000554357597139,-2.27157092094421,2.30981612205505,-1.86231327056885,-1.89860606193542,-2.5063054561615,1.64755296707153,0.081855602562428,-4.25746822357178
118,sampled_images/20181126_depthmap_1077_1705_01_004.png,6,0,0,6959.971933,-8774.875122,-1101.82529343733,0,1,23.292950933917,153.147810680467,0.001474974676967,-4.04832029342651,2.77980971336365,4.97045230865479,-1.11050343513489,-0.592762589454651,-1.56766760349274,0.892847836017608,-0.27480286359787
119,sampled_images/20181126_depthmap_0384_0613_01_004.png,6,0,0,11117.831933,-15327.055122,-1066.44985440683,0,1,23.3304460053995,153.083720052336,0.000391660811147,-3.70149064064026,2.18308210372925,-1.9429577589035,-1.88913238048553,-2.63104629516602,-1.84174406528473,-1.26558518409729,0.209084898233414
120,sampled_images/20181126_depthmap_0852_1351_01_004.png,6,0,0,8310.111933,-10898.895122,-1116.49867095721,0,1,23.3051292623936,153.127038335802,0.001592281623743,-5.41503429412842,0.176630064845085,0.885085880756378,-1.14980685710907,2.7236430644989,-3.84074974060059,-0.967053532600403,0.436853528022766
121,sampled_images/20181126_depthmap_0318_0508_01_004.png,6,0,0,11514.011933,-15956.815122,-1048.64862347547,0,1,23.3340172693286,153.077558155664,0.000313585012918,-2.86710453033447,-0.753227770328522,-3.81580924987793,4.53026103973389,-0.755211651325226,-2.76785349845886,1.34348011016846,-2.58377289772034
122,sampled_images/20181126_depthmap_0580_0923_01_004.png,6,0,0,9942.071933,-13467.055122,-1097.63536877003,0,1,23.3198458960965,153.101917383808,0.002333762822673,-1.45426273345947,-3.70784258842468,2.93985748291016,3.51751971244812,4.5487265586853,0.868682563304901,0.177006721496582,-2.36894679069519
123,sampled_images/20181126_depthmap_0306_0489_01_004.png,6,0,0,11585.831933,-16071.035122,-1049.22918706976,0,1,23.3346646455999,153.076440533447,0.000231459242059,0.367840975522995,2.76182150840759,-0.896933317184448,-2.60635375976562,-1.64279103279114,3.55810880661011,-2.02183508872986,-2.03985476493835
124,sampled_images/20181126_depthmap_0273_0435_01_004.png,6,0,0,11784.031933,-16394.875122,-1045.92867717977,0,1,23.3364510666913,153.073271817197,0.001664079376496,-4.31758880615234,-2.13246726989746,0.275634169578552,1.41264963150024,1.4763765335083,0.186642408370972,-3.15476608276367,-3.67130208015442
125,sampled_images/20181126_depthmap_0517_0822_01_004.png,6,0,0,10319.951933,-14073.035122,-1089.07758761251,0,1,23.323252850937,153.095989135876,0.001163306529634,-6.2181921005249,0.481026619672775,1.31499660015106,3.0495707988739,1.80780839920044,-0.446025729179382,1.27097296714783,-3.47126054763794
126,sampled_images/20181126_depthmap_0361_0577_01_004.png,6,0,0,11255.991933,-15543.035122,-1059.7476254163,0,1,23.3316914760128,153.08160680613,0.000600781058893,-6.17920017242432,2.19976162910461,-0.11122453212738,-0.094124190509319,-0.406097769737244,-0.821175515651703,2.13956260681152,-0.60059380531311
127,sampled_images/20181126_depthmap_0824_1307_01_004.png,6,0,0,8478.091933,-11163.155122,-1115.36776646517,0,1,23.306644255465,153.124453679965,0.000794838415459,-4.60797071456909,3.19645643234253,0.630066514015198,-3.09322285652161,-0.350391954183578,-1.54108095169067,-2.04292011260986,1.86199724674225
128,sampled_images/20181126_depthmap_0613_0975_01_004.png,6,0,0,9744.051933,-13155.155122,-1121.68653091303,0,1,23.3180604176483,153.1049685866,0.002887384500355,-2.44605398178101,0.950090885162354,1.55045711994171,1.43860423564911,-0.735905706882477,-4.33604860305786,-2.81615662574768,2.05122947692871
129,sampled_images/20181126_depthmap_0167_0267_01_004.png,6,0,0,12420.051933,-17402.835122,-1043.40631704166,0,1,23.3421835510318,153.063408348736,5.81494168727659E-05,2.54223322868347,-3.61476039886475,1.55112850666046,1.80365121364594,-1.92047083377838,2.31129837036133,4.09471797943115,-1.40124189853668
130,sampled_images/20181126_depthmap_1032_1634_01_004.png,6,0,0,7229.971933,-9200.915122,-1104.93330914511,0,1,23.2953865624474,153.143644431369,0.000178909147508,-2.88919591903687,-1.49398255348206,-5.75233888626099,1.18636631965637,-0.729737520217896,-3.02697491645813,0.44026792049408,-0.691745638847351
131,sampled_images/20181126_depthmap_0642_1021_01_004.png,6,0,0,9569.911933,-12878.875122,-1122.48242106248,0,1,23.3164902229073,153.107671253372,0.000221707450692,1.77383244037628,2.95877242088318,-1.56197965145111,0.203364416956902,-2.77396583557129,4.13357782363892,2.52428293228149,-0.1729876101017
132,sampled_images/20181126_depthmap_0868_1376_01_004.png,6,0,0,8214.031933,-10749.175122,-1105.38295705651,0,1,23.304262698735,153.128502687282,0.001609964994714,-4.09293985366821,0.464022696018219,4.95107269287109,0.64098060131073,3.27467274665833,-1.60194802284241,0.657709419727325,0.954773902893066
133,sampled_images/20181126_depthmap_0302_0483_01_004.png,6,0,0,11610.031933,-16106.975122,-1048.65689684623,0,1,23.3348828045169,153.076088847707,0.000350701040588,0.994237959384918,3.39136457443237,0.842008590698242,-5.29769086837769,0.867642641067505,1.98480916023254,-1.2706127166748,-0.703023433685303
134,sampled_images/20181126_depthmap_0166_0266_01_004.png,6,0,0,12425.891933,-17409.115122,-1042.89607446343,0,1,23.3422362159922,153.063346871064,0.000359155266779,-3.7195246219635,0.384096413850784,-4.64970397949219,-1.00912868976593,-1.75282955169678,-2.81486892700195,-1.32421362400055,0.141185685992241
135,sampled_images/20181126_depthmap_0303_0484_01_004.png,6,0,0,11603.971933,-16101.075122,-1048.45631255153,0,1,23.3348281442524,153.076146603608,0.000857564911712,-2.8409595489502,3.16129779815674,3.59124827384949,-3.09338045120239,-0.663067817687988,1.91120326519012,-1.39820766448975,-3.05611872673035
136,sampled_images/20181126_depthmap_0454_0722_01_004.png,6,0,0,10697.791933,-14672.915122,-1084.46320294913,0,1,23.3266592720227,153.09012023026,0.003995505161583,-1.1224627494812,2.87024903297424,-1.8354674577713,-0.81245368719101,3.72636556625366,-3.23039197921753,-3.13276028633118,-2.96325516700745
137,sampled_images/20181126_depthmap_0739_1172_01_004.png,6,0,0,8987.911933,-11972.875122,-1117.91012063264,0,1,23.3112419455507,153.116533701641,0.002582280663773,-0.447058379650116,-1.71239674091339,1.53146660327911,1.10074067115784,4.49955701828003,-4.173255443573,0.698980689048767,-0.718285799026489
138,sampled_images/20181126_depthmap_0810_1285_01_004.png,6,0,0,8561.791933,-11294.855122,-1116.68541873932,0,1,23.3073991202462,153.123165536065,0.000993036315776,-1.66010773181915,1.43256628513336,0.038488868623972,-0.208665326237679,1.13470530509949,-6.86991214752197,1.59528851509094,-0.924430012702942
139,sampled_images/20181126_depthmap_0207_0331_01_004.png,6,0,0,12179.831933,-17019.155122,-1046.93217715019,0,1,23.3400185395859,153.067162956617,0.005080547183752,2.66882419586182,4.01512622833252,-0.602271020412445,2.55731987953186,4.23365116119385,0.548965275287628,-1.10087645053864,-2.49338221549988
140,sampled_images/20181126_depthmap_0520_0826_01_004.png,6,0,0,10302.071933,-14049.075122,-1089.01617155775,0,1,23.323091610123,153.096223567404,0.000415384856751,-4.71238708496094,2.72328805923462,-2.80826115608215,-1.39435315132141,-1.85177600383759,-0.197842091321945,-0.239469259977341,0.775096535682678
141,sampled_images/20181126_depthmap_0658_1046_01_004.png,6,0,0,9474.011933,-12729.055122,-1125.71256237945,0,1,23.3156254684971,153.109136830419,0.000851433025673,-4.648108959198,1.97013056278229,0.646129369735718,-4.08553314208984,0.273274421691895,0.413033455610275,-2.64703750610352,-2.00876045227051
142,sampled_images/20181126_depthmap_0807_1278_01_004.png,6,0,0,8580.091933,-11336.875122,-1116.9104348531,0,1,23.3075640695939,153.122754602686,0.003529919311404,-1.03100621700287,-0.233255833387375,1.07399797439575,-0.648806214332581,-0.491514265537262,-2.04655504226685,-5.1372766494751,-1.88989007472992
143,sampled_images/20181126_depthmap_0028_0045_01_004.png,6,0,0,13254.091933,-18734.915122,-1024.40159534311,0,1,23.3496997275228,153.050371964912,0.000413196132286,0.739264786243439,0.873818635940552,0.103831864893436,2.29917025566101,2.15947079658508,5.82262229919434,3.2429928779602,-3.70525574684143
144,sampled_images/20181126_depthmap_0045_0072_01_004.png,6,0,0,13151.971933,-18572.835122,-1023.30770500854,0,1,23.3487794932024,153.051958244786,0.001723559689708,-1.19876515865326,1.99019265174866,1.51410663127899,0.826416969299316,0.372569352388382,-4.26191806793213,-1.18822264671326,3.39223885536194
145,sampled_images/20181126_depthmap_0519_0826_01_004.png,6,0,0,10307.731933,-14048.995122,-1088.53393649446,0,1,23.3231427174252,153.096224297064,0.000836982217152,-2.62891054153442,2.69548296928406,4.49876165390015,-0.611976265907288,1.80188477039337,2.02139186859131,4.70785856246948,-1.69130313396454
146,sampled_images/20181126_depthmap_0291_0464_01_004.png,6,0,0,11676.071933,-16221.055122,-1046.60621125655,0,1,23.3354779815253,153.074972642099,0.001514601055533,-6.31739139556885,1.82664310932159,1.87482762336731,0.998865008354187,0.640913546085358,-0.569303095340729,0.198361083865166,1.14026415348053
147,sampled_images/20181126_depthmap_0706_1121_01_004.png,6,0,0,9186.031933,-12278.935122,-1128.74081922941,0,1,23.3130285986862,153.113539902892,0.002172244247049,-2.71614503860474,-1.89920353889465,2.81749939918518,4.26088237762451,3.529700756073,0.481862306594849,-1.55446565151215,-1.04657483100891
148,sampled_images/20181126_depthmap_0516_0820_01_004.png,6,0,0,10325.991933,-14085.015122,-1092.26233180218,0,1,23.3233072858423,153.095871946883,0.00667585991323,1.34956681728363,1.28053569793701,-0.440989255905151,4.35080862045288,0.981838583946228,2.0219578742981,-3.26859211921692,-4.28701066970825
149,sampled_images/20181126_depthmap_0358_0572_01_004.png,6,0,0,11273.971933,-15572.855122,-1063.93365354233,0,1,23.331853541873,153.081315041923,0.001775814103894,-0.278614223003387,-2.57007670402527,5.7279486656189,3.59597563743591,-0.42309245467186,0.088574193418026,-2.22075176239014,-1.923344373703
150,sampled_images/20181126_depthmap_0053_0084_01_004.png,6,0,0,13104.031933,-18500.915122,-1025.84876675606,0,1,23.3483474385873,153.052662152275,0.003943029791117,0.202039927244186,1.4512197971344,-0.316470682621002,3.75363063812256,0.920118272304535,-1.29848182201386,-4.39725160598755,-0.237326085567474
151,sampled_images/20181126_depthmap_0433_0690_01_004.png,6,0,0,10823.771933,-14865.175122,-1083.01591819949,0,1,23.3277950670534,153.088239149958,0.000174505679752,4.46444940567017,-1.35750126838684,0.79625940322876,-0.415217220783234,0.353757679462433,5.6906304359436,1.25655663013458,-1.7735903263092
152,sampled_images/20181126_depthmap_1034_1637_01_004.png,6,0,0,7218.031933,-9182.895122,-1104.26530869364,0,1,23.2952788513159,153.143820655331,0.000401666155085,-1.51663291454315,2.32078623771667,0.124288909137249,3.56678032875061,0.471736967563629,3.26614570617676,4.8670825958252,-3.42285442352295
153,sampled_images/20181126_depthmap_0840_1332_01_004.png,6,0,0,8381.931933,-11013.075122,-1108.45458083695,0,1,23.3057769962954,153.125921584688,0.000544736220036,-2.30235528945923,2.91199541091919,0.967641651630402,-0.710774779319763,2.52906703948975,-0.172045513987541,5.81199169158936,-2.55752944946289
154,sampled_images/20181126_depthmap_0181_0289_01_004.png,6,0,0,12335.851933,-17271.175122,-1029.01963395878,0,1,23.3414246690854,153.064696778341,0.000334570009727,-5.60739707946777,0.147736757993698,-4.36468076705933,-0.663545846939087,1.2459853887558,-0.118795439600945,0.831717789173126,-1.85786926746368
155,sampled_images/20181126_depthmap_0084_0135_01_004.png,6,0,0,12917.811933,-18195.015122,-1020.87687407388,0,1,23.3466694133644,153.055655844474,0.00046562217176,-5.72272872924805,-0.067357383668423,-2.45295858383179,-0.105150908231735,-2.65155649185181,-2.22339606285095,-1.20606875419617,-0.979701459407806
156,sampled_images/20181126_depthmap_0232_0371_01_004.png,6,0,0,12029.831933,-16778.875122,-1037.27830214492,0,1,23.3386666075255,153.069514217051,0.001218927325681,-1.95668125152588,-0.523616194725037,3.63088321685791,1.16199457645416,4.96436023712158,0.886992990970612,4.66195774078369,-2.12396740913391
157,sampled_images/20181126_depthmap_0038_0060_01_004.png,6,0,0,13193.811933,-18645.095122,-1023.8269648535,0,1,23.3491564614638,153.05125108305,0.003255033865571,0.887930989265442,-1.45511782169342,1.44390332698822,4.15070676803589,5.05209589004517,1.99576675891876,-2.44165778160095,-0.448298394680023
158,sampled_images/20181126_depthmap_1030_1632_01_004.png,6,0,0,7242.111933,-9212.795122,-1105.27826044975,0,1,23.2954961137495,153.14352822655,0.000218275454245,-0.484669804573059,-0.190128266811371,-3.80577850341797,2.32530069351196,0.142025351524353,2.18189644813538,2.81180286407471,-4.93989181518555
159,sampled_images/20181126_depthmap_0046_0073_01_004.png,6,0,0,13145.751933,-18567.035122,-1024.87857477162,0,1,23.348723396192,153.052015040598,0.026970248669386,-2.93962335586548,4.91621732711792,1.66141450405121,0.356585472822189,0.365262866020203,-0.584506154060364,-2.96280527114868,-6.77380132675171
160,sampled_images/20181126_depthmap_0733_1164_01_004.png,6,0,0,9024.051933,-12020.995122,-1121.0325099138,0,1,23.3115679181875,153.11606297009,0.000647281762213,-2.5144772529602,3.4280834197998,-2.10512256622314,-1.78382468223572,-2.39270853996277,-1.12467050552368,-1.94979929924011,2.31750655174255
161,sampled_images/20181126_depthmap_0686_1089_01_004.png,6,0,0,9305.971933,-12470.795122,-1131.88287914131,0,1,23.3141101437055,153.111663172955,0.00012237552437,2.65628266334534,0.56224137544632,2.72245216369629,0.539502680301666,-2.16234755516052,5.73722839355469,0.166932016611099,0.562464654445648
162,sampled_images/20181126_depthmap_0866_1372_01_004.png,6,0,0,8225.991933,-10772.975122,-1105.91145069659,0,1,23.3043705350948,153.128269933814,0.000442204851424,0.758175790309906,1.52659952640533,0.097857549786568,3.33581137657166,1.66820681095123,-0.275490581989288,5.42112302780151,-3.1883487701416
163,sampled_images/20181126_depthmap_0567_0901_01_004.png,6,0,0,10019.951933,-13598.995122,-1099.13209276155,0,1,23.3205480199837,153.100626691791,0.000149297033204,3.95458912849426,-2.57738471031189,-1.280726313591,0.947131931781769,0.181417092680931,1.38424134254456,4.6671986579895,-3.49133014678955
164,sampled_images/20181126_depthmap_0112_0179_01_004.png,6,0,0,12749.811933,-17931.155122,-1025.45286114842,0,1,23.3451553858662,153.058238139142,0.011574014090002,-1.89467966556549,4.9962215423584,0.228267967700958,1.41119158267975,1.84947097301483,1.16069686412811,-3.54611802101135,-4.38203954696655
165,sampled_images/20181126_depthmap_0655_1040_01_004.png,6,0,0,9491.731933,-12764.795122,-1124.57305453007,0,1,23.3157851925392,153.108787257907,0.001764098182321,-1.1946736574173,-3.15441036224365,5.48422288894653,2.48814582824707,2.98397278785706,0.246751487255096,-0.759153187274933,-2.19631624221802
166,sampled_images/20181126_depthmap_0506_0806_01_004.png,6,0,0,10386.051933,-14168.895122,-1088.06339424771,0,1,23.3238488709083,153.0950512593,0.007968068122864,-0.950959086418152,5.07098770141602,2.35665965080261,0.681905806064606,2.78272700309753,-0.172539621591568,-1.44276630878449,-6.56186723709106
167,sampled_images/20181126_depthmap_0406_0648_01_004.png,6,0,0,10986.011933,-15117.135122,-1069.57890890892,0,1,23.3292576965516,153.085773942486,0.000107289903099,-0.395666360855103,-0.9009690284729,-5.82898807525635,0.76653379201889,0.685873985290527,2.56021356582642,1.61868572235107,0.295704543590546
168,sampled_images/20181126_depthmap_0500_0796_01_004.png,6,0,0,10421.811933,-14228.935122,-1084.07331993214,0,1,23.3241712434484,153.094463887771,0.003769213566557,3.14377856254578,-0.780892312526703,0.265302062034607,5.55955410003662,1.02229619026184,1.17232418060303,-2.27979493141174,-2.32049202919006
169,sampled_images/20181126_depthmap_0403_0642_01_004.png,6,0,0,11004.011933,-15153.055122,-1069.30358369337,0,1,23.3294198944701,153.085422543787,0.000596556521486,-0.304781347513199,3.01070213317871,-1.61883521080017,2.41905283927917,4.02908897399902,0.605984270572662,5.29082727432251,0.274778187274933
170,sampled_images/20181126_depthmap_0638_1014_01_004.png,6,0,0,9593.771933,-12920.795122,-1121.73130767573,0,1,23.3167053357766,153.107261203333,0.000265661481535,2.5157618522644,1.46309745311737,-3.81733679771423,-2.21580934524536,-0.037667512893677,2.85946488380432,0.254710793495178,0.19273354113102
171,sampled_images/20181126_depthmap_0412_0657_01_004.png,6,0,0,10949.991933,-15062.975122,-1068.39351603076,0,1,23.3289329553244,153.0863038665,0.00147790031042,-2.26578903198242,1.93562173843384,1.69050431251526,0.112086430191994,5.0724458694458,-2.08777928352356,1.49922740459442,2.37647938728333
172,sampled_images/20181126_depthmap_0642_1019_01_004.png,6,0,0,9570.071933,-12890.855122,-1122.27725911405,0,1,23.3164915734816,153.107554125086,0.000365540239727,1.00591397285461,-1.03659641742706,-4.70462036132813,-2.70000171661377,0.30447393655777,-3.62651634216309,0.779228925704956,1.28367340564728
173,sampled_images/20181126_depthmap_1091_1727_01_004.png,6,0,0,6875.831933,-8642.995122,-1115.44531935578,0,1,23.2921918923696,153.149100308721,0.000123243327835,-3.23743391036987,-1.797248005867,-4.56892442703247,2.21274352073669,-1.18459165096283,-2.11748218536377,1.04605805873871,0.905942857265472
174,sampled_images/20181126_depthmap_0727_1153_01_004.png,6,0,0,9059.771933,-12087.015122,-1126.523551305,0,1,23.3118899651958,153.115417239558,0.0041758348234,0.254496306180954,3.13985872268677,-1.50917315483093,0.459888935089111,5.62733125686646,0.402727156877518,-2.5171205997467,-2.69521284103394
175,sampled_images/20181126_depthmap_0918_1454_01_004.png,6,0,0,7913.831933,-10280.895122,-1112.06723343988,0,1,23.3015550521183,153.13308262245,0.000413149769884,-4.49372959136963,-0.783593595027924,-4.42990016937256,1.26060771942139,0.888594627380371,-1.70529174804688,0.65086817741394,-1.85338509082794
176,sampled_images/20181126_depthmap_0280_0448_01_004.png,6,0,0,11741.931933,-16317.135122,-1050.49507401913,0,1,23.3360717045716,153.074032437743,8.85804111021571E-05,2.65866208076477,-2.04434418678284,2.44815874099731,0.542090833187103,-1.34707725048065,5.23597288131714,-1.11135840415955,-0.437377989292145
177,sampled_images/20181126_depthmap_0393_0626_01_004.png,6,0,0,11064.011933,-15248.855122,-1068.27185670497,0,1,23.329960771339,153.084485225142,0.001438817824237,-7.62970876693726,0.192529052495956,1.50245273113251,0.0839703977108,1.46607649326324,1.3678435087204,-0.387815326452255,-1.9109263420105
178,sampled_images/20181126_depthmap_0848_1344_01_004.png,6,0,0,8333.871933,-10940.835122,-1115.83268629206,0,1,23.3053435234138,153.126628156803,0.000545732735191,-5.80832386016846,1.49010860919952,-0.411498010158539,2.2389132976532,-2.61349439620972,0.905931770801544,-1.40437793731689,-0.580479145050049
179,sampled_images/20181126_depthmap_0945_1498_01_004.png,6,0,0,7751.891933,-10017.115122,-1110.41521263626,0,1,23.3000944502476,153.135662350347,0.000256838568021,2.29133582115173,-0.474356532096863,-3.1586492061615,-1.68980252742767,-2.66136312484741,-3.39650058746338,-0.011483499780297,1.20329511165619
180,sampled_images/20181126_depthmap_0592_0940_01_004.png,6,0,0,9869.731933,-13365.155122,-1107.94875425898,0,1,23.3191935399721,153.102914310396,0.001417071558535,-5.96088600158691,2.45671582221985,1.45227539539337,0.289274543523788,-1.71199810504913,-2.43682432174683,-0.436769783496857,1.40886473655701
181,sampled_images/20181126_depthmap_0970_1537_01_004.png,6,0,0,7601.791933,-9782.915122,-1110.78692199237,0,1,23.2987405384497,153.137952784055,3.55496013071388E-05,-3.49147963523865,-3.1819577217102,1.74206686019897,-2.93399143218994,-1.28706467151642,3.41457676887512,1.58244800567627,0.913184523582458
182,sampled_images/20181126_depthmap_0429_0684_01_004.png,6,0,0,10847.891933,-14901.175122,-1078.68912405838,0,1,23.3280125299421,153.087886915602,0.000661084486637,-4.59648895263672,0.559582471847534,-0.892225742340088,1.46558129787445,-1.56875479221344,-5.08779430389404,-0.812272548675537,-1.26514601707459
183,sampled_images/20181126_depthmap_1057_1673_01_004.png,6,0,0,7079.951933,-8967.175122,-1112.7516118539,0,1,23.2940332526019,153.145930206907,0.001025775680318,-5.03846740722656,0.930273175239563,-0.407508373260498,3.04512047767639,0.202434048056602,0.491143018007278,-0.891419529914856,-3.61838221549988
184,sampled_images/20181126_depthmap_0214_0342_01_004.png,6,0,0,12138.071933,-16953.095122,-1047.9852776769,0,1,23.3396421566651,153.067809397449,0.004945761524141,3.40892910957336,0.713640868663788,0.822020530700684,4.84395551681519,-0.839406192302704,1.40713763237,-2.09517788887024,-3.63950061798096
185,sampled_images/20181126_depthmap_0802_1272_01_004.png,6,0,0,8610.071933,-11373.095122,-1116.21456015666,0,1,23.307834522221,153.122400282793,6.34438838460483E-05,-0.83403354883194,-0.450316429138184,-2.50153183937073,-1.62034165859222,5.42184400558472,1.10585391521454,0.95258104801178,4.05111026763916
186,sampled_images/20181126_depthmap_0503_0799_01_004.png,6,0,0,10403.731933,-14210.935122,-1086.87194796502,0,1,23.3240081474037,153.094640051217,0.013606591150165,-1.55686521530151,6.12225818634033,2.12723922729492,0.887359619140625,3.28482484817505,-0.002658536890522,-1.40498423576355,-4.9134726524353
187,sampled_images/20181126_depthmap_0851_1347_01_004.png,6,0,0,8315.991933,-10922.975122,-1118.13598183316,0,1,23.3051821955252,153.126802886183,8.93156393431127E-05,2.08146786689758,-2.39155173301697,0.382098197937012,2.29484796524048,-0.793228507041931,4.49520778656006,1.58251106739044,1.35324084758759
188,sampled_images/20181126_depthmap_0865_1371_01_004.png,6,0,0,8232.031933,-10779.175122,-1107.03332496315,0,1,23.3044250323708,153.128209279694,0.002539680805057,-3.66982173919678,1.6288720369339,0.639121949672699,0.533016383647919,5.87542200088501,1.70007026195526,-0.297486633062363,2.63103222846985
189,sampled_images/20181126_depthmap_1061_1680_01_004.png,6,0,0,7055.831933,-8924.875122,-1110.3564806598,0,1,23.2938156919138,153.14634384165,0.007357934489846,2.7774441242218,1.48996198177338,0.288486182689667,3.16717123985291,-1.54581809043884,-0.212447360157967,-3.09250402450562,-3.51653361320496
190,sampled_images/20181126_depthmap_0235_0374_01_004.png,6,0,0,12011.831933,-16760.875122,-1038.32397563012,0,1,23.3385042624538,153.069690429121,0.000704846170265,-0.063442230224609,3.3168957233429,-3.24096584320068,0.195951581001282,0.674040496349335,-5.0392017364502,2.06290602684021,0.839365243911743
191,sampled_images/20181126_depthmap_0294_0470_01_004.png,6,0,0,11658.031933,-16185.175122,-1053.27460376909,0,1,23.335315445753,153.07532367862,0.000649723922834,1.17185342311859,-0.024564612656832,2.41801309585571,-0.828432857990265,2.9128532409668,3.80862641334534,2.02270436286926,-6.97832155227661
192,sampled_images/20181126_depthmap_0477_0759_01_004.png,6,0,0,10559.971933,-14451.175122,-1090.02593456978,0,1,23.3254168057837,153.092289633178,0.001455877441913,-4.44995498657227,-0.210606202483177,-1.7683482170105,0.239965930581093,-0.326103955507278,-3.94599866867065,-2.87435698509216,-0.397476136684418
193,sampled_images/20181126_depthmap_0688_1092_01_004.png,6,0,0,9294.071933,-12453.135122,-1131.24357717891,0,1,23.3140028274085,153.111835927308,0.000455248780781,-5.05790233612061,1.24330770969391,-2.96605539321899,-0.931955397129059,-1.67892527580261,1.93802976608276,-1.3808445930481,-1.57401442527771
194,sampled_images/20181126_depthmap_0408_0651_01_004.png,6,0,0,10973.871933,-15098.875122,-1069.66558822374,0,1,23.3291482476586,153.085952606183,0.000819967302959,-1.22851240634918,-0.91170597076416,-2.37977075576782,-0.913013815879822,-1.97473978996277,-4.21802139282227,-1.38990950584412,-1.03819513320923
195,sampled_images/20181126_depthmap_1041_1648_01_004.png,6,0,0,7175.851933,-9117.155122,-1106.90980650099,0,1,23.2948983541115,153.14446353938,0.001161184045486,-5.86827945709229,1.86430144309998,2.8381609916687,0.051891893148422,-2.95749664306641,-1.51940512657166,-0.245874106884003,-1.10429358482361
