,relative_path,altitude [m],roll [deg],pitch [deg],northing [m],easting [m],depth [m],heading [deg],timestamp [s],latitude [deg],longitude [deg],recon_loss,latent_0,latent_1,latent_2,latent_3,latent_4,latent_5,latent_6,latent_7
0,sampled_images/20181121_depthmap_1783_0037_01_004.png,6,0,0,-32171.46636,26006.537587,-1241.00949829459,0,1,22.9394266802431,153.487139569821,9.16380668058991E-05,0.691644608974457,-3.48324370384216,-1.70099282264709,3.73231244087219,-0.61587256193161,5.1769700050354,2.07246875762939,-0.940780818462372
1,sampled_images/20181121_depthmap_0895_0298_01_004.png,6,0,0,-26843.50636,27572.377587,-1295.61440690983,0,1,22.9875118413552,153.502500853325,0.000832677294966,-3.01387643814087,3.05783748626709,5.28092050552368,0.619164109230042,-0.549122035503387,1.39910161495209,-0.382921159267426,-0.602160334587097
2,sampled_images/20181121_depthmap_1820_0027_01_004.png,6,0,0,-32393.30636,25946.397587,-1241.56948312119,0,1,22.9374244415595,153.486549512482,4.10553329857066E-05,0.391041427850723,-2.41231060028076,1.16960859298706,0.019574716687203,-4.90984201431274,0.602001667022705,3.44014644622803,-3.12764048576355
3,sampled_images/20181121_depthmap_1844_0020_01_004.png,6,0,0,-32537.32636,25904.717587,-1241.53613334789,0,1,22.936124614294,153.486140746742,1.08602216641884E-05,-1.8934623003006,-2.00682616233826,1.58264172077179,-4.91742944717407,-0.80626106262207,2.53863739967346,3.7872040271759,0.977713406085968
4,sampled_images/20181121_depthmap_1065_0246_01_004.png,6,0,0,-27863.60636,27260.697587,-1293.87645085976,0,1,22.9783057171179,153.499443028856,2.59656244452344E-05,0.879536509513855,-2.18169021606445,1.91425585746765,-1.1509792804718,-4.98631381988525,0.981471180915832,2.67314743995666,-2.81442260742187
5,sampled_images/20181121_depthmap_1629_0082_01_004.png,6,0,0,-31247.38636,26276.417587,-1244.90818527723,0,1,22.9477667194779,153.489786472246,2.7634683647193E-05,1.20966124534607,-1.04251897335053,1.94490015506744,-2.99450922012329,-4.96643972396851,2.50628066062927,1.69290542602539,-1.96667814254761
6,sampled_images/20181121_depthmap_0882_0301_01_004.png,6,0,0,-26765.28636,27590.357587,-1296.82413457363,0,1,22.9882178505273,153.502677610579,4.60576447949279E-05,1.3637580871582,-2.77446913719177,1.03743660449982,2.3332314491272,-4.36098289489746,2.03836917877197,2.35887432098389,-1.85455536842346
7,sampled_images/20181121_depthmap_1392_0151_01_004.png,6,0,0,-29825.54636,26690.717587,-1271.14688336112,0,1,22.9605990658603,153.493850500195,0.000130500047817,2.11601638793945,-2.46840238571167,-0.134756535291672,2.87859058380127,-0.802426218986511,5.12836742401123,3.11571168899536,-1.13693618774414
8,sampled_images/20181121_depthmap_0667_0364_01_004.png,6,0,0,-25475.46636,27968.637587,-1322.5028612894,0,1,22.9998582787568,153.506390371777,3.03588531096466E-05,2.5387978553772,-1.45928514003754,1.70146238803864,0.172272577881813,-4.42045497894287,1.17093074321747,2.94823694229126,-1.66268599033356
9,sampled_images/20181121_depthmap_0055_0548_01_004.png,6,0,0,-21803.66636,29072.357587,-1388.02730470388,0,1,23.0329946386452,153.517225187329,0.00014680888853,0.461290866136551,-0.197945103049278,-1.67862045764923,-0.151769295334816,-0.120284602046013,4.45553302764893,-2.89635992050171,2.3078773021698
10,sampled_images/20181121_depthmap_1722_0056_01_004.png,6,0,0,-31805.38636,26120.377587,-1242.60932899331,0,1,22.9427305366424,153.488255637808,2.90673997369595E-05,-0.581739068031311,-2.26873397827148,1.54913544654846,0.144250601530075,-4.23846673965454,1.49526810646057,3.50370669364929,-1.08002638816834
11,sampled_images/20181121_depthmap_0414_0440_01_004.png,6,0,0,-23957.36636,28424.557587,-1370.87166520089,0,1,23.013558575232,153.510865345052,0.00022656674264,1.71122014522553,0.273922979831696,-0.934164941310883,0.519737243652344,1.75714480876923,5.54180479049683,2.35067987442017,-4.15499210357666
12,sampled_images/20181121_depthmap_0201_0504_01_004.png,6,0,0,-22679.48636,28808.557587,-1373.44828635208,0,1,23.025090847073,153.514635103279,1.85267581400694E-05,-1.25125682353973,-2.48050999641418,0.568876266479492,-3.76927518844604,-2.79750728607178,2.00076246261597,4.06598997116089,-1.68337225914001
13,sampled_images/20181121_depthmap_0019_0558_01_004.png,6,0,0,-21587.44636,29132.717587,-1399.38152536404,0,1,23.0349459800206,153.517818166521,0.001481644343585,-5.3544340133667,-0.206831723451614,4.16273546218872,2.49525022506714,1.25881969928741,1.54353857040405,1.18857502937317,-4.16532278060913
14,sampled_images/20181121_depthmap_1522_0113_01_004.png,6,0,0,-30605.40636,26462.397587,-1252.95296613969,0,1,22.9535607309984,153.491610788862,0.001356332679279,-1.67300343513489,0.194718509912491,4.13033723831177,0.642507135868073,5.12557125091553,2.59626865386963,3.78782916069031,1.16257762908936
15,sampled_images/20181121_depthmap_1200_0207_01_004.png,6,0,0,-28673.54636,27026.377587,-1288.48009668062,0,1,22.9709959640906,153.497143690008,1.54339450091356E-05,-0.745988667011261,-2.03830790519714,2.52605485916138,-3.79042625427246,-2.30789089202881,2.81785345077515,2.48111248016357,1.5804535150528
16,sampled_images/20181121_depthmap_0554_0399_01_004.png,6,0,0,-24797.28636,28178.457587,-1337.55837100111,0,1,23.0059785204388,153.508449321273,6.42434388282709E-05,0.423413336277008,-2.84110164642334,1.1967465877533,1.68882524967194,-3.6328763961792,3.72528696060181,-0.757858335971832,-0.071274399757385
17,sampled_images/20181121_depthmap_1376_0155_01_004.png,6,0,0,-29729.28636,26714.677587,-1272.17106429099,0,1,22.9614678893549,153.494085799538,1.97409426618833E-05,-0.198695048689842,-2.3740496635437,1.04549705982208,-1.79289627075195,-1.96509766578674,-0.443995416164398,5.22443962097168,0.274340629577637
18,sampled_images/20181121_depthmap_1842_0021_01_004.png,6,0,0,-32525.44636,25910.377587,-1241.36825269831,0,1,22.9362318007316,153.486196126648,0.000244742521318,4.49734878540039,-0.221105322241783,-1.87299120426178,-2.62375473976135,1.20568513870239,-0.125313624739647,3.52802729606628,-2.20126461982727
19,sampled_images/20181121_depthmap_1791_0035_01_004.png,6,0,0,-32219.62636,25994.537587,-1241.37731276206,0,1,22.9389919912422,153.487021766192,6.79766817484051E-05,-0.311269253492355,-3.16386127471924,-0.780424952507019,2.955153465271,-0.992818176746368,-2.99744009971619,3.86857008934021,0.911772727966309
20,sampled_images/20181121_depthmap_1093_0238_01_004.png,6,0,0,-28031.36636,27212.697587,-1292.72892954923,0,1,22.97679166866,153.498971960727,6.35433971183374E-05,1.18961155414581,-2.83820748329163,2.5164475440979,0.278551459312439,-4.08459138870239,3.12240624427795,0.780632615089417,0.543655693531036
21,sampled_images/20181121_depthmap_0585_0389_01_004.png,6,0,0,-24983.42636,28118.377587,-1333.71047012011,0,1,23.0042987436776,153.507859887932,7.31882828404196E-05,-2.0270414352417,-3.70690751075745,2.43123292922974,-1.54103088378906,-3.44325065612793,3.54974126815796,-0.740533530712128,-0.601447582244873
22,sampled_images/20181121_depthmap_1866_0006_01_004.png,6,0,0,-32669.32636,25820.597587,-1241.33338163492,0,1,22.9349339807963,153.48531843419,4.02371624659281E-05,-0.761112332344055,-3.0346508026123,-0.207825988531113,1.01610958576202,-1.3756605386734,-4.07868194580078,3.88908290863037,2.83961725234985
23,sampled_images/20181121_depthmap_0144_0521_01_004.png,6,0,0,-22337.28636,28910.597587,-1384.62254795237,0,1,23.0281790372762,153.515636996961,6.27346962573938E-05,-2.4752311706543,-3.75453519821167,1.51745820045471,-0.440966993570328,-2.9880256652832,2.50348591804504,1.5392484664917,0.895911693572998
24,sampled_images/20181121_depthmap_1185_0211_01_004.png,6,0,0,-28583.54636,27050.437587,-1289.80949797384,0,1,22.9718082532183,153.497379894541,5.13739360030741E-05,-0.831216096878052,-1.9436194896698,2.80137419700623,-4.15659427642822,-3.18948006629944,4.52010107040405,0.086996525526047,-0.81850004196167
25,sampled_images/20181121_depthmap_0100_0533_01_004.png,6,0,0,-22073.36636,28982.597587,-1378.88325009827,0,1,23.0305608994956,153.516344389802,0.001843855483457,-0.535382211208344,-0.432619750499725,4.85248756408691,-0.023246804252267,-0.236726656556129,-4.72885608673096,0.3940609395504,-0.607773780822754
26,sampled_images/20181121_depthmap_0145_0520_01_004.png,6,0,0,-22343.34636,28904.677587,-1384.56677210322,0,1,23.0281244202729,153.515579128441,1.31075976241846E-05,-0.636006355285645,-1.36245679855347,-0.23978179693222,-5.83233690261841,-1.64417243003845,3.73462772369385,4.61732244491577,-1.3459085226059
27,sampled_images/20181121_depthmap_1177_0213_01_004.png,6,0,0,-28535.46636,27062.617587,-1290.2517909055,0,1,22.9722422068634,153.497499514658,1.60849976964528E-05,0.151297628879547,-1.40208077430725,0.878291189670563,-5.38916158676147,-3.26731157302856,3.24984169006348,2.91091299057007,-1.47439992427826
28,sampled_images/20181121_depthmap_1810_0030_01_004.png,6,0,0,-32333.30636,25964.617587,-1241.54007081135,0,1,22.937965947343,153.486728153234,1.73664666363038E-05,-1.60979604721069,-1.9831018447876,1.63591849803925,-2.046231508255,-3.60343456268311,1.81729650497437,2.5242874622345,1.4101105928421
29,sampled_images/20181121_depthmap_1199_0207_01_004.png,6,0,0,-28667.34636,27026.437587,-1288.54158516643,0,1,22.9710519476972,153.497144383655,5.49793512618635E-05,1.32036662101746,-0.813782870769501,3.35447907447815,-1.90335655212402,-1.76675963401794,4.32557487487793,0.9095099568367,3.39481592178345
30,sampled_images/20181121_depthmap_0155_0518_01_004.png,6,0,0,-22403.46636,28892.537587,-1384.26925564143,0,1,23.027581766181,153.515459563601,3.79652556148358E-05,-1.62704682350159,-2.70554065704346,-0.048284959048033,-3.69879364967346,-3.48833727836609,1.52722859382629,3.52317667007446,-2.99285483360291
31,sampled_images/20181121_depthmap_1564_0101_01_004.png,6,0,0,-30857.64636,26390.557587,-1248.07148933466,0,1,22.9512841928687,153.490906003922,1.20093791338149E-05,-1.39445078372955,-2.21222805976868,-0.001439418992959,-4.5798807144165,-2.5707414150238,3.24359059333801,4.16616821289063,-1.76635265350342
32,sampled_images/20181121_depthmap_1456_0132_01_004.png,6,0,0,-30209.60636,26576.397587,-1268.34116858328,0,1,22.9571329108424,153.492729155964,2.37467247643508E-05,-1.6289678812027,-3.5634069442749,1.64497780799866,-1.40284824371338,-3.29595041275024,0.851393520832062,2.74681210517883,-1.32385039329529
33,sampled_images/20181121_depthmap_0239_0493_01_004.png,6,0,0,-22907.30636,28742.677587,-1373.94435326256,0,1,23.0230348413672,153.513988147564,0.000241742949584,-1.90958976745605,-4.28294086456299,-2.61201214790344,0.453179121017456,2.16432428359985,3.10825514793396,-0.766924440860748,-3.52741646766663
34,sampled_images/20181121_depthmap_0578_0392_01_004.png,6,0,0,-24941.54636,28136.357587,-1334.75351961692,0,1,23.004676604721,153.508036032252,6.6150474594906E-05,2.33796262741089,0.536123633384705,2.0012571811676,-0.703246653079987,0.15602470934391,4.88264560699463,0.460668712854385,3.5547354221344
35,sampled_images/20181121_depthmap_0267_0484_01_004.png,6,0,0,-23075.46636,28688.337587,-1379.07527470831,0,1,23.0215173452628,153.513454900248,4.46904195996467E-05,-0.657001256942749,-1.6695522069931,1.65172731876373,-3.36810708045959,-4.52844572067261,3.30386638641357,0.573372781276703,-0.697345733642578
36,sampled_images/20181121_depthmap_1645_0077_01_004.png,6,0,0,-31343.64636,26246.517587,-1244.33098592123,0,1,22.9468979810542,153.489493309645,3.79009979951661E-05,-1.2857129573822,-2.12859654426575,1.07038521766663,-3.55488538742065,-2.91306662559509,1.84588980674744,3.21032857894897,-0.034962750971317
37,sampled_images/20181121_depthmap_1585_0095_01_004.png,6,0,0,-30983.38636,26354.597587,-1246.87526798187,0,1,22.9501493542601,153.490553236904,4.59769107692409E-05,-1.20438694953918,-4.05870819091797,0.708618521690369,1.2449209690094,-0.13477723300457,4.86549139022827,1.21444308757782,1.59553861618042
38,sampled_images/20181121_depthmap_1207_0204_01_004.png,6,0,0,-28715.56636,27008.517587,-1287.77315055458,0,1,22.9706168225247,153.49696878832,4.68682665086817E-05,1.56187379360199,-3.06765294075012,2.39935278892517,-0.041102841496468,-3.53647446632385,3.00060749053955,1.02300179004669,0.054021567106247
39,sampled_images/20181121_depthmap_0918_0290_01_004.png,6,0,0,-26981.48636,27524.517587,-1290.34548119104,0,1,22.9862667080079,153.502031614969,8.56367551023141E-05,0.876422941684723,-2.66034388542175,1.21290051937103,2.57758498191833,-3.52082562446594,4.01819801330566,0.316567361354828,0.231487900018692
40,sampled_images/20181121_depthmap_1592_0093_01_004.png,6,0,0,-31025.44636,26342.697587,-1246.57454540873,0,1,22.9497697487631,153.490436491747,5.28403834323399E-05,0.740135073661804,-5.00522899627686,1.45716714859009,0.132673904299736,-0.879521250724793,3.61355209350586,-0.672490835189819,0.854538142681122
41,sampled_images/20181121_depthmap_1745_0049_01_004.png,6,0,0,-31943.28636,26078.617587,-1242.09141586141,0,1,22.9414859786216,153.487846162603,2.06502700166311E-05,-2.61378240585327,-2.6476719379425,0.16972728073597,-4.22614526748657,-1.31541800498962,2.84480834007263,4.64532947540283,-0.673595786094666
42,sampled_images/20181121_depthmap_1763_0043_01_004.png,6,0,0,-32051.36636,26042.437587,-1241.61671393475,0,1,22.940510601273,153.487491599772,0.000270622229436,3.53975248336792,-1.96863842010498,0.145989641547203,-0.319460093975067,1.54294097423553,3.16795206069946,4.03726625442505,-4.1163649559021
43,sampled_images/20181121_depthmap_0071_0543_01_004.png,6,0,0,-21899.46636,29042.417587,-1383.45563172805,0,1,23.0321301181256,153.516931278093,0.000736942572985,-0.284279137849808,1.77962458133698,3.47902941703796,-1.43968272209167,2.76028418540955,4.79970073699951,1.45737266540527,-4.66376161575317
44,sampled_images/20181121_depthmap_0725_0347_01_004.png,6,0,0,-25823.44636,27866.377587,-1317.47677525186,0,1,22.9967178267451,153.505386654073,9.60185789153911E-05,4.24608278274536,-2.44802904129028,2.59305906295776,0.08152574300766,-0.210569724440575,3.52462029457092,4.06471014022827,-1.59410989284515
45,sampled_images/20181121_depthmap_1833_0023_01_004.png,6,0,0,-32471.54636,25922.477587,-1241.45831448191,0,1,22.9367183201422,153.486314996297,2.11569604289252E-05,-1.8008131980896,-3.05526375770569,1.80972850322723,-2.90757322311401,-3.61859202384949,2.13876557350159,1.4858204126358,-2.64692091941833
46,sampled_images/20181121_depthmap_0782_0331_01_004.png,6,0,0,-26165.54636,27770.517587,-1307.97761519706,0,1,22.9936303548488,153.504445511095,8.40135544422083E-05,-2.02000093460083,-4.11757564544678,0.015676122158766,2.04101228713989,-1.71568989753723,3.47112441062927,1.71558308601379,1.42422842979431
47,sampled_images/20181121_depthmap_0718_0349_01_004.png,6,0,0,-25781.56636,27878.337587,-1317.2826608456,0,1,22.9970957918613,153.50550406459,8.40975480969064E-05,3.03566288948059,-2.45210123062134,1.60822546482086,0.906867325305939,-2.63028883934021,3.21489405632019,2.92723059654236,-2.30793166160583
48,sampled_images/20181121_depthmap_0005_0562_01_004.png,6,0,0,-21503.56636,29156.477587,-1405.98260729613,0,1,23.0357029730938,153.518051567171,0.000572436721995,-0.664565026760101,2.44404911994934,-1.66239202022553,-1.65441071987152,-0.562914192676544,4.9081654548645,1.54114186763763,-3.17864036560059
49,sampled_images/20181121_depthmap_0504_0413_01_004.png,6,0,0,-24497.48636,28262.517587,-1344.61000351304,0,1,23.0086842053744,153.509274764806,0.000144274818012,1.72804760932922,-1.59439861774445,-1.09650695323944,4.08511638641357,-1.46036064624786,3.07943630218506,4.08497953414917,-2.93239164352417
50,sampled_images/20181121_depthmap_1652_0075_01_004.png,6,0,0,-31385.64636,26234.477587,-1244.05510231733,0,1,22.9465189185586,153.489375206338,3.76679709006566E-05,-0.604505836963654,-2.49325847625732,1.49779152870178,-3.68610835075378,-3.10805177688599,2.13479518890381,3.44972133636475,-0.891941428184509
51,sampled_images/20181121_depthmap_1390_0151_01_004.png,6,0,0,-29813.30636,26690.417587,-1271.25326758222,0,1,22.9607095952293,153.493847786381,5.30985671503004E-05,1.17849290370941,-2.13545346260071,1.8633531332016,0.101453527808189,-4.50453090667725,1.60854053497314,2.37376523017883,-1.72027969360352
52,sampled_images/20181121_depthmap_0970_0274_01_004.png,6,0,0,-27293.58636,27428.417587,-1298.37181663442,0,1,22.9834501072747,153.50108881583,1.68240312632406E-05,-0.486416667699814,-2.28804659843445,0.237800449132919,-3.97583937644958,-2.04431915283203,1.61232352256775,5.15299606323242,-1.23053801059723
53,sampled_images/20181121_depthmap_1379_0154_01_004.png,6,0,0,-29747.30636,26708.577587,-1272.02372475339,0,1,22.9613052703323,153.494026006323,1.86352899618214E-05,-1.11870551109314,-1.66254830360413,1.30622601509094,-4.35609006881714,-2.88950824737549,3.24100708961487,2.20286130905151,-0.611382603645325
54,sampled_images/20181121_depthmap_1457_0132_01_004.png,6,0,0,-30215.50636,26576.617587,-1268.38885607611,0,1,22.9570796315777,153.492731199645,4.26269580202643E-05,-0.46049827337265,-3.57280373573303,2.20493602752686,0.482547074556351,-3.48916888237,4.77027940750122,-0.24433958530426,-1.21567606925964
55,sampled_images/20181121_depthmap_1574_0098_01_004.png,6,0,0,-30917.34636,26372.517587,-1247.36867436563,0,1,22.950745399099,153.490729088738,1.77616657310864E-05,-0.05405780300498,-1.47814691066742,2.43528699874878,-3.92934608459473,-3.70730376243591,3.20457601547241,1.79382765293121,-0.765280485153198
56,sampled_images/20181121_depthmap_1827_0025_01_004.png,6,0,0,-32435.58636,25934.397587,-1241.10013747379,0,1,22.9370428473038,153.486431811123,0.000123140576761,3.22386360168457,-3.2560498714447,-0.876098275184631,1.15305161476135,-0.170641884207726,4.21897649765015,-0.140643253922462,-0.032453291118145
57,sampled_images/20181121_depthmap_1368_0157_01_004.png,6,0,0,-29681.50636,26726.337587,-1272.50577510572,0,1,22.9618991456286,153.494200323944,2.90960961137898E-05,0.930985629558563,-2.12264704704285,2.47179532051086,-1.11017048358917,-4.82476711273193,2.24974393844604,2.05136275291443,-1.18019378185272
58,sampled_images/20181121_depthmap_0265_0485_01_004.png,6,0,0,-23063.46636,28694.637587,-1378.84082691243,0,1,23.021625592992,153.513516582837,0.000100464138086,3.03280353546143,-1.33648025989532,1.29574680328369,0.710951566696167,1.482057929039,2.16826319694519,5.82979297637939,2.01846981048584
59,sampled_images/20181121_depthmap_0115_0529_01_004.png,6,0,0,-22163.36636,28958.577587,-1385.82022633843,0,1,23.0297486460583,153.516108356116,5.20920075359754E-05,2.26187872886658,-2.30968475341797,2.47064137458801,-0.743773579597473,-3.71107196807861,2.10863876342773,2.83615374565125,-1.24906063079834
60,sampled_images/20181121_depthmap_0449_0430_01_004.png,6,0,0,-24167.40636,28364.497587,-1353.49413223413,0,1,23.0116629991601,153.510275602884,0.001530162408017,-2.81603908538818,-0.359410226345062,6.81907510757446,1.08597302436829,-0.33931827545166,0.25859546661377,-0.756809592247009,-2.35834503173828
61,sampled_images/20181121_depthmap_0066_0544_01_004.png,6,0,0,-21869.46636,29048.677587,-1382.60126263425,0,1,23.0324008993262,153.51699291798,5.64726142329164E-05,-0.618371844291687,-3.87250447273254,1.46241307258606,1.1955977678299,-3.54661536216736,2.6736478805542,1.52230870723724,-1.37047457695007
62,sampled_images/20181121_depthmap_0636_0373_01_004.png,6,0,0,-25289.52636,28022.617587,-1326.51369280963,0,1,23.0015363590338,153.506920264346,6.52281523798592E-05,-0.69943118095398,-2.98869800567627,-2.06992411613464,4.67417573928833,-1.70044004917145,1.46449673175812,2.6919059753418,0.061048291623592
63,sampled_images/20181121_depthmap_1266_0188_01_004.png,6,0,0,-29069.66636,26912.417587,-1283.03806573301,0,1,22.9674209335586,153.496025473849,5.99670966039412E-05,2.22573280334473,-2.90606927871704,1.88582420349121,1.20484006404877,-3.0413134098053,1.66211271286011,2.91284108161926,-0.148360669612885
64,sampled_images/20181121_depthmap_0675_0363_01_004.png,6,0,0,-25523.48636,27962.357587,-1320.53288471564,0,1,22.9994247765384,153.506328246547,0.000223952214583,0.879577398300171,-0.987252414226532,-1.88055229187012,3.00722813606262,0.308337241411209,4.83356332778931,3.66815328598022,-2.38149762153625
65,sampled_images/20181121_depthmap_0508_0413_01_004.png,6,0,0,-24521.60636,28262.717587,-1344.45411339212,0,1,23.008466405155,153.509276273199,5.28496311744675E-05,-2.53083825111389,-5.47913312911987,0.552818059921265,1.40525937080383,-1.99726092815399,1.86973929405212,0.872295320034027,-2.05309772491455
66,sampled_images/20181121_depthmap_1088_0239_01_004.png,6,0,0,-28001.36636,27218.577587,-1292.79236846845,0,1,22.9770624655312,153.499029832657,4.34988360211719E-05,2.08062624931335,-2.09003400802612,1.95441317558289,1.43137145042419,-3.58405160903931,0.030320243909955,4.7223105430603,-0.957204639911652
67,sampled_images/20181121_depthmap_0787_0329_01_004.png,6,0,0,-26195.48636,27758.657587,-1308.71647907383,0,1,22.993360202157,153.504329296915,9.52300688368268E-05,2.79345798492432,-2.64851880073547,1.38682627677917,1.87821292877197,-2.64360666275024,3.09906935691833,3.22893619537354,-2.61203908920288
68,sampled_images/20181121_depthmap_1653_0075_01_004.png,6,0,0,-31391.58636,26234.557587,-1244.03787685043,0,1,22.9464652802635,153.489375885536,2.21069803956198E-05,-1.52882289886475,-1.90213990211487,0.568822801113129,-3.94286823272705,-3.03253817558289,2.4213285446167,3.71721911430359,-1.09133660793304
69,sampled_images/20181121_depthmap_1372_0156_01_004.png,6,0,0,-29705.34636,26720.457587,-1272.34480191449,0,1,22.961683969796,153.494142574958,5.10517020302359E-05,2.65437936782837,-3.20383095741272,2.62314510345459,-0.271576911211014,-3.10802173614502,2.23831272125244,2.46267914772034,-0.731934309005737
70,sampled_images/20181121_depthmap_0401_0444_01_004.png,6,0,0,-23879.42636,28448.337587,-1372.45563194125,0,1,23.0142619445212,153.511098754187,1.16776318463963E-05,-0.814538598060608,-1.73931133747101,1.07539057731628,-5.69863367080689,-1.32089149951935,3.67665028572083,4.10904359817505,-0.443083137273788
71,sampled_images/20181121_depthmap_1666_0072_01_004.png,6,0,0,-31469.62636,26216.597587,-1243.51968295344,0,1,22.9457608764655,153.489199451845,3.65229752787854E-05,-0.516782701015472,-2.28853988647461,1.06239902973175,-0.161491230130196,-5.39277076721191,1.79777848720551,1.79653549194336,-2.51130247116089
72,sampled_images/20181121_depthmap_0949_0281_01_004.png,6,0,0,-27167.28636,27470.637587,-1294.71626880251,0,1,22.9845898695247,153.501502822074,0.000590282958001,-2.00920796394348,-0.359135210514069,-1.04863262176514,-0.452958732843399,-0.539931952953339,3.71544814109802,-0.678326606750488,-5.99409151077271
73,sampled_images/20181121_depthmap_1051_0250_01_004.png,6,0,0,-27779.60636,27284.637587,-1293.67227660906,0,1,22.9790638252302,153.499677983902,3.37775163643528E-05,3.2228536605835,-2.13928818702698,3.1361243724823,-0.256205409765244,-1.93871247768402,2.52881169319153,3.39357995986938,2.24923920631409
74,sampled_images/20181121_depthmap_1163_0218_01_004.png,6,0,0,-28451.62636,27092.417587,-1290.45760230217,0,1,22.9729987786481,153.49779159143,0.000128371786559,-0.562704265117645,-1.12919771671295,-2.4569878578186,2.34546947479248,0.072125792503357,4.8594126701355,3.63255763053894,0.637907326221466
75,sampled_images/20181121_depthmap_0688_0359_01_004.png,6,0,0,-25601.42636,27938.337587,-1317.14412852425,0,1,22.9987214024434,153.506092547544,0.000185830547707,2.34033393859863,0.170554101467133,0.13125616312027,-0.507535696029663,-0.912422478199005,6.12135457992554,0.043522085994482,0.472699463367462
76,sampled_images/20181121_depthmap_1843_0021_01_004.png,6,0,0,-32531.28636,25910.517587,-1241.38071034826,0,1,22.9361790644209,153.486197393721,0.000350206304574,0.961861073970795,-1.34414887428284,-1.45141267776489,1.50514805316925,1.55681169033051,-0.903476297855377,5.53920412063599,-3.50283026695251
77,sampled_images/20181121_depthmap_0773_0333_01_004.png,6,0,0,-26111.28636,27782.437587,-1310.81644408234,0,1,22.9941201096979,153.504562749177,5.72060816921294E-05,1.28252136707306,-3.40824580192566,0.737813293933868,3.09585380554199,-3.0144362449646,3.48299145698547,2.88829398155212,-2.17907404899597
78,sampled_images/20181121_depthmap_1831_0024_01_004.png,6,0,0,-32459.56636,25928.557587,-1241.4516061202,0,1,22.9368264029684,153.486374472979,3.1945928640198E-05,-3.24077653884888,-2.11635541915894,0.570813238620758,-2.13466882705688,-3.17883729934692,2.1223406791687,2.87263703346252,-0.328447937965393
79,sampled_images/20181121_depthmap_1399_0148_01_004.png,6,0,0,-29867.28636,26672.617587,-1270.40446187567,0,1,22.9602224521351,153.49367328593,2.46345225605182E-05,0.055300418287516,-3.07192015647888,1.59821128845215,0.399892717599869,-4.1164436340332,0.058420021086931,3.0065712928772,-1.93695867061615
80,sampled_images/20181121_depthmap_1413_0144_01_004.png,6,0,0,-29951.28636,26648.457587,-1269.17642639855,0,1,22.9594643362286,153.49343625276,3.22553532896563E-05,2.6359658241272,-1.96242153644562,2.38390302658081,1.01496481895447,-3.45408177375793,-0.158754706382751,4.20173931121826,-0.761359095573425
81,sampled_images/20181121_depthmap_0332_0465_01_004.png,6,0,0,-23465.36636,28574.517587,-1377.44406493757,0,1,23.0179986231159,153.512337306042,6.4325809944421E-05,1.07133936882019,-2.40869069099426,1.83156383037567,0.550776064395905,-4.74524021148682,3.23828673362732,1.23885667324066,-2.78411602973938
82,sampled_images/20181121_depthmap_1738_0051_01_004.png,6,0,0,-31901.48636,26090.717587,-1242.17867065565,0,1,22.9418632356733,153.487964838757,1.68329552252544E-05,-2.39752173423767,-2.48574137687683,0.333727836608887,-2.71930003166199,-0.978394865989685,0.291272878646851,5.61968183517456,2.60222434997559
83,sampled_images/20181121_depthmap_1090_0239_01_004.png,6,0,0,-28013.64636,27218.597587,-1292.79108196071,0,1,22.9769515797193,153.49902981112,2.82211876765359E-05,0.760000944137573,-2.50106048583984,2.21010446548462,-0.977440178394318,-3.54201984405518,1.14774012565613,2.40310263633728,1.18813490867615
84,sampled_images/20181121_depthmap_1775_0040_01_004.png,6,0,0,-32123.50636,26024.337587,-1241.47527000544,0,1,22.9398594727759,153.487313918201,1.40923766593914E-05,-0.247442379593849,-2.55545473098755,2.0911169052124,-2.53954148292541,-1.26718020439148,1.49312388896942,4.69798278808594,2.63059520721436
85,sampled_images/20181121_depthmap_0143_0521_01_004.png,6,0,0,-22331.34636,28910.577587,-1384.7135193763,0,1,23.0282326739929,153.515636913438,4.67187819594983E-05,-3.46192908287048,-4.06473588943481,2.22329354286194,-3.86660432815552,-0.679286777973175,2.77242231369019,1.4148930311203,0.395396023988724
86,sampled_images/20181121_depthmap_1437_0137_01_004.png,6,0,0,-30095.32636,26606.417587,-1267.61163314991,0,1,22.9581643566539,153.493023842351,4.14946989621967E-05,2.32762670516968,-0.860247492790222,2.15926265716553,1.67876315116882,-4.47950029373169,0.021705662831664,3.68730068206787,-2.68677496910095
87,sampled_images/20181121_depthmap_0214_0500_01_004.png,6,0,0,-22757.30636,28784.697587,-1372.88101209259,0,1,23.0243885692712,153.514400878379,2.86600079562049E-05,-0.231933578848839,-2.50441265106201,0.952234148979187,-3.63293075561523,-3.25685095787048,0.618681013584137,3.60773611068726,-0.926281034946442
88,sampled_images/20181121_depthmap_0188_0507_01_004.png,6,0,0,-22601.64636,28826.417587,-1374.03550576653,0,1,23.0257934090617,153.514810796882,4.06767430831678E-05,1.67842042446136,-1.74969291687012,1.90705025196075,2.01483631134033,-3.72749829292297,-0.476541012525559,3.99575710296631,-2.08319282531738
89,sampled_images/20181121_depthmap_0909_0292_01_004.png,6,0,0,-26927.28636,27536.357587,-1289.99559645484,0,1,22.986755924778,153.502148056413,9.69393004197627E-05,-0.877541899681091,-3.31735038757324,-2.28654456138611,2.09572529792786,-0.072632074356079,-0.080608516931534,1.32197391986847,3.74949669837952
90,sampled_images/20181121_depthmap_0442_0433_01_004.png,6,0,0,-24125.56636,28382.397587,-1357.23371489569,0,1,23.0120404971834,153.51045098258,0.00567339360714,0.330745875835419,1.98595082759857,-0.306346923112869,2.24648952484131,1.71356618404388,0.010566839948297,-3.11675930023193,-6.82890129089356
91,sampled_images/20181121_depthmap_0197_0505_01_004.png,6,0,0,-22655.62636,28814.517587,-1373.60099068673,0,1,23.0253061923525,153.514693693579,2.6493682526052E-05,1.55810332298279,-0.678879976272583,1.97125506401062,-3.11711621284485,-4.88157606124878,2.58265233039856,1.50887513160706,-1.41552031040192
92,sampled_images/20181121_depthmap_0834_0315_01_004.png,6,0,0,-26477.64636,27674.677587,-1297.38061675525,0,1,22.9908137677328,153.503505145079,0.000306042114971,1.40391898155212,2.76982092857361,-1.92046570777893,-0.165697857737541,-1.10240244865417,-3.19458985328674,4.70260334014893,-1.2044335603714
93,sampled_images/20181121_depthmap_1160_0219_01_004.png,6,0,0,-28433.56636,27098.337587,-1290.67818943047,0,1,22.9731617600386,153.497849639784,6.50668807793409E-05,-0.306993573904037,-3.51989030838013,0.729457974433899,1.85765254497528,-3.99349594116211,2.10694265365601,2.17607450485229,-2.96805167198181
94,sampled_images/20181121_depthmap_0651_0369_01_004.png,6,0,0,-25379.36636,27998.637587,-1327.60364355613,0,1,23.0007255316135,153.506684732472,0.000135708527523,1.11384522914886,1.98337113857269,0.453435629606247,4.92356729507446,-0.579924702644348,1.72928500175476,5.7729229927063,-0.488976925611496
95,sampled_images/20181121_depthmap_1117_0231_01_004.png,6,0,0,-28175.28636,27170.397587,-1291.92095220349,0,1,22.9754927951084,153.49855690976,2.21328900806839E-05,-2.37256813049316,-2.63766813278198,2.48105716705322,-3.92916631698608,0.485456317663193,3.19750380516052,2.49857997894287,1.94101905822754
96,sampled_images/20181121_depthmap_1062_0247_01_004.png,6,0,0,-27845.32636,27266.577587,-1293.97776439119,0,1,22.9784706849567,153.499500695315,1.21706343634287E-05,-0.947612047195435,-3.61497831344604,2.47601771354675,-2.15069007873535,-3.15375161170959,1.41527879238129,2.43370747566223,0.461073368787766
97,sampled_images/20181121_depthmap_1863_0013_01_004.png,6,0,0,-32651.48636,25862.697587,-1241.50017617836,0,1,22.9350944213842,153.485729173429,2.46089348365786E-05,-2.52715253829956,-2.13383626937866,1.42702698707581,-1.99841451644897,-2.20407509803772,2.28538203239441,2.88981795310974,2.5171160697937
98,sampled_images/20181121_depthmap_0812_0322_01_004.png,6,0,0,-26345.42636,27716.717587,-1308.18832728768,0,1,22.9920069812744,153.503917545481,0.000202420327696,4.30280017852783,-0.828132331371307,1.2570469379425,-2.14031934738159,1.59396946430206,5.30711174011231,-0.332887172698975,-1.47470891475678
99,sampled_images/20181121_depthmap_1698_0063_01_004.png,6,0,0,-31661.60636,26162.417587,-1242.82313160049,0,1,22.9440281842253,153.48866795006,6.37979683233425E-05,-1.08501183986664,-0.295169055461884,-1.35129296779633,-0.925558507442474,1.08684909343719,1.98482012748718,2.55752491950989,5.38017749786377
100,sampled_images/20181121_depthmap_1862_0012_01_004.png,6,0,0,-32645.30636,25856.457587,-1241.42405074703,0,1,22.9351503222882,153.485668441701,0.000121784119983,0.915680408477783,-4.19979333877564,-1.09800612926483,3.1374671459198,-1.86292362213135,3.18711090087891,0.867960691452026,-1.39021372795105
101,sampled_images/20181121_depthmap_0407_0442_01_004.png,6,0,0,-23915.40636,28436.657587,-1372.14807112776,0,1,23.0139372551789,153.510984153036,3.00069186778273E-05,-2.78811812400818,-3.72854948043823,0.99927031993866,-1.93843519687653,2.43477392196655,3.12307548522949,0.585288286209106,2.48937129974365
102,sampled_images/20181121_depthmap_1245_0194_01_004.png,6,0,0,-28943.34636,26948.457587,-1284.84416964639,0,1,22.9685609926727,153.496379122988,8.03865477791987E-05,0.674828410148621,0.44132125377655,1.24025213718414,0.162835314869881,-1.14695799350739,5.02538061141968,1.44666218757629,4.37344741821289
103,sampled_images/20181121_depthmap_1383_0153_01_004.png,6,0,0,-29771.46636,26702.697587,-1271.83794038508,0,1,22.9610872048842,153.493968252343,5.34050159330945E-05,1.64377653598785,-1.91063177585602,1.92632806301117,0.368090480566025,-5.12621259689331,2.21997332572937,1.6925323009491,-2.35420870780945
104,sampled_images/20181121_depthmap_1630_0082_01_004.png,6,0,0,-31253.62636,26276.497587,-1244.87855614564,0,1,22.9477103722501,153.489787146183,2.92621552944183E-05,-0.915675282478332,-2.1330509185791,1.41282737255096,-2.97607231140137,-4.16771459579468,2.19488668441772,2.26834583282471,-2.09984993934631
105,sampled_images/20181121_depthmap_0823_0318_01_004.png,6,0,0,-26411.32636,27692.577587,-1299.80740209984,0,1,22.9914123227918,153.503680918064,0.000163540578797,0.663233876228333,0.558660626411438,-0.960107505321503,4.5984034538269,0.026335837319493,3.33062887191772,5.17305517196655,-1.01388835906982
106,sampled_images/20181121_depthmap_1313_0173_01_004.png,6,0,0,-29351.62636,26822.497587,-1277.70659010904,0,1,22.9648763462088,153.49514372034,2.60532378888456E-05,-0.1050655990839,-3.13265776634216,1.96497070789337,-0.647558987140656,-2.31249737739563,-0.880468308925629,4.35121297836304,2.81724452972412
107,sampled_images/20181121_depthmap_1170_0216_01_004.png,6,0,0,-28493.48636,27080.517587,-1290.5410798005,0,1,22.9726209858925,153.497674809335,1.68570386449574E-05,-0.881692051887512,-1.95671916007996,0.050982836633921,-4.18684005737305,-1.37516403198242,1.06876242160797,5.66408395767212,0.705030143260956
108,sampled_images/20181121_depthmap_1527_0111_01_004.png,6,0,0,-30635.34636,26450.457587,-1251.91294430431,0,1,22.9532905682475,153.491493855167,0.000252545170952,3.73999738693237,1.44253087043762,-0.282198071479797,-0.047253176569939,-0.099102832376957,3.13356304168701,3.62996935844421,-4.25801610946655
109,sampled_images/20181121_depthmap_1790_0035_01_004.png,6,0,0,-32213.58636,25994.397587,-1241.50443829785,0,1,22.9390465335011,153.487020502784,9.08364454517141E-05,2.0471773147583,-4.63402843475342,1.71759629249573,1.65341937541962,-1.29478597640991,4.24419116973877,1.36715745925903,-0.395773500204086
110,sampled_images/20181121_depthmap_0653_0368_01_004.png,6,0,0,-25391.38636,27992.517587,-1327.97888534512,0,1,23.0006170971711,153.506624820331,2.82803594018333E-05,0.325579702854156,-2.3856348991394,0.388981491327286,-1.56613039970398,-1.40346872806549,-1.53337156772614,5.72308826446533,1.71657586097717
111,sampled_images/20181121_depthmap_0986_0270_01_004.png,6,0,0,-27389.32636,27404.437587,-1295.68791932783,0,1,22.9825859931537,153.500853246442,0.002968883141875,2.89389657974243,-3.02260136604309,3.75980973243713,4.71966171264648,1.0735045671463,-0.756597936153412,-0.637288570404053,-0.781462907791138
112,sampled_images/20181121_depthmap_1103_0235_01_004.png,6,0,0,-28091.58636,27194.557587,-1292.2642749799,0,1,22.9762481923761,153.498793995027,4.44464130850975E-05,1.47878921031952,-1.08196938037872,1.9776656627655,0.69151371717453,-5.22071933746338,2.04974961280823,1.5125070810318,-1.70462691783905
113,sampled_images/20181121_depthmap_1491_0123_01_004.png,6,0,0,-30419.30636,26522.517587,-1265.78741000207,0,1,22.9552402210318,153.492200184435,0.000144273959449,1.09254944324493,-0.029646415263414,-0.446473658084869,3.4941885471344,1.71901273727417,4.1130542755127,5.08839988708496,0.527043342590332
114,sampled_images/20181121_depthmap_0650_0370_01_004.png,6,0,0,-25373.54636,28004.337587,-1327.6550667418,0,1,23.000777988771,153.506740435417,6.70170484227128E-05,2.69485592842102,-2.47825694084167,3.25330376625061,-0.144367158412933,-1.67438244819641,3.32726812362671,1.20692133903503,2.51009011268616
115,sampled_images/20181121_depthmap_0087_0539_01_004.png,6,0,0,-21995.40636,29018.537587,-1385.48405229678,0,1,23.0312642269998,153.51669649188,0.000119154836284,3.91220450401306,-1.95907950401306,1.43098604679108,1.63169074058533,-0.102008104324341,4.40422821044922,3.05420660972595,0.421088933944702
116,sampled_images/20181121_depthmap_0458_0428_01_004.png,6,0,0,-24221.52636,28352.377587,-1349.3719197862,0,1,23.0111745175367,153.510156380018,0.000193564061192,-0.335298299789429,3.11238837242126,1.96562576293945,-1.59067964553833,-1.96340298652649,4.6473331451416,-1.1676732301712,3.31872391700745
117,sampled_images/20181121_depthmap_0180_0510_01_004.png,6,0,0,-22553.46636,28844.677587,-1374.53162895122,0,1,23.0262281431019,153.51498983875,3.95274837501347E-05,-1.90597319602966,-2.77982020378113,0.397557735443115,-2.98393321037292,-3.84593105316162,1.97472262382507,2.72617316246033,-2.46303009986877
118,sampled_images/20181121_depthmap_1874_0003_01_004.png,6,0,0,-32717.56636,25802.497587,-1241.97633796728,0,1,22.9344986619753,153.485141169181,1.44339983307873E-05,0.116797178983688,-1.79258477687836,1.19526755809784,-2.82573366165161,-3.80884194374084,1.507199883461,2.98696160316467,-1.78806233406067
119,sampled_images/20181121_depthmap_1476_0126_01_004.png,6,0,0,-30329.42636,26540.557587,-1267.95698533333,0,1,22.9560515318565,153.492377629871,6.84601182001643E-05,3.85196328163147,-2.11916303634644,1.40958273410797,2.17328500747681,-1.61563801765442,2.33689522743225,4.41220760345459,-1.53294968605042
120,sampled_images/20181121_depthmap_1250_0192_01_004.png,6,0,0,-28973.40636,26936.457587,-1284.28342974714,0,1,22.9682897515499,153.496261579453,3.08680901071057E-05,0.515857517719269,-1.83320987224579,0.539050221443176,-3.21736669540405,-3.54536414146423,0.664527475833893,4.75254726409912,-1.68897080421448
121,sampled_images/20181121_depthmap_0704_0354_01_004.png,6,0,0,-25697.34636,27908.717587,-1316.45140703962,0,1,22.9978557671719,153.505801904769,8.82733147591352E-05,4.53015565872192,-1.79950666427612,0.912948489189148,1.2540807723999,-1.55484342575073,3.94802045822144,1.23787832260132,-1.36137294769287
122,sampled_images/20181121_depthmap_0864_0306_01_004.png,6,0,0,-26657.48636,27620.537587,-1295.23545784604,0,1,22.9891907570648,153.502973886668,0.005766578484327,2.14371204376221,4.33751010894775,1.0095933675766,3.26423692703247,-0.826438069343567,1.28927218914032,-2.3362729549408,-3.57375049591064
123,sampled_images/20181121_depthmap_0861_0307_01_004.png,6,0,0,-26639.50636,27626.677587,-1296.87806616111,0,1,22.9893530100725,153.503034092593,0.003908048849553,5.84281158447266,0.469531327486038,0.631101131439209,3.15106821060181,3.89431357383728,0.758867681026459,-0.440699487924576,-1.69312000274658
124,sampled_images/20181121_depthmap_0331_0465_01_004.png,6,0,0,-23459.50636,28574.477587,-1377.55178696733,0,1,23.0180515378796,153.512337024586,7.84740623203106E-05,1.69489717483521,-3.24193692207336,0.648566246032715,2.53774404525757,-3.69002890586853,2.60421371459961,1.98728215694428,-2.58594274520874
125,sampled_images/20181121_depthmap_0876_0302_01_004.png,6,0,0,-26729.32636,27596.577587,-1296.90196916004,0,1,22.9885424571984,153.502738917669,5.70871270610951E-05,1.26976072788239,-3.77166247367859,1.70158135890961,1.2435667514801,-3.38073778152466,2.08953762054443,3.28815174102783,-0.445838868618012
126,sampled_images/20181121_depthmap_0077_0541_01_004.png,6,0,0,-21935.42636,29030.417587,-1383.6116411764,0,1,23.0318056202078,153.516813525848,0.000158997427206,-1.27576208114624,-1.2006778717041,-4.62930011749268,1.40005040168762,0.769965410232544,4.24294757843018,1.58716750144959,-0.218786016106606
127,sampled_images/20181121_depthmap_1056_0249_01_004.png,6,0,0,-27809.36636,27278.377587,-1293.87118468503,0,1,22.9787952020462,153.499616408146,1.67443322425243E-05,-0.672834932804108,-1.32730889320374,-0.272080719470978,-5.18714189529419,-2.31758165359497,2.96675968170166,4.50414705276489,-1.76461529731751
128,sampled_images/20181121_depthmap_0405_0443_01_004.png,6,0,0,-23903.42636,28442.517587,-1372.30719070303,0,1,23.0140453309553,153.511041537645,2.6951767722494E-05,-1.8740314245224,-1.6712532043457,-0.367124557495117,-5.33898162841797,-0.781275391578674,4.2966570854187,4.34611988067627,-1.27470183372498
129,sampled_images/20181121_depthmap_0779_0332_01_004.png,6,0,0,-26147.62636,27776.337587,-1308.36229090339,0,1,22.9937920707238,153.504502598631,0.000141332857311,-0.277767539024353,-1.77851974964142,-2.44279551506042,2.37810134887695,1.72496807575226,5.31851959228516,4.29281806945801,-0.554560720920563
130,sampled_images/20181121_depthmap_0748_0340_01_004.png,6,0,0,-25961.32636,27824.397587,-1314.58570817956,0,1,22.9954735086811,153.504974709096,0.004013333003968,2.39777588844299,-2.20085406303406,1.46465027332306,5.78043413162231,-0.717230677604675,-0.208973065018654,-2.79457855224609,-1.83846044540405
131,sampled_images/20181121_depthmap_0259_0486_01_004.png,6,0,0,-23027.46636,28700.717587,-1378.1044970989,0,1,23.0219505573057,153.51357656679,8.85749832377769E-05,3.28900408744812,-2.82550835609436,1.76280450820923,1.12259674072266,-1.79279351234436,1.5807478427887,4.35359668731689,-1.35403537750244
132,sampled_images/20181121_depthmap_1441_0137_01_004.png,6,0,0,-30119.34636,26606.417587,-1267.9171065175,0,1,22.9579474611321,153.493023428679,0.000178882124601,3.15689587593079,-0.716555416584015,-0.176605761051178,-3.0501651763916,1.58326697349548,2.68878364562988,-0.805628895759583,1.2872519493103
133,sampled_images/20181121_depthmap_1660_0073_01_004.png,6,0,0,-31433.34636,26222.417587,-1243.71611377494,0,1,22.9460883863776,153.489256812015,2.61800687439973E-05,-2.35507965087891,-2.11669039726257,0.561335623264313,-3.84074449539185,-2.38308024406433,3.06052088737488,3.50462913513184,0.409980833530426
134,sampled_images/20181121_depthmap_1714_0057_01_004.png,6,0,0,-31757.32636,26126.337587,-1242.53499556453,0,1,22.9431644160108,153.488314558372,7.01992321410216E-05,2.53043389320374,-3.93560171127319,1.43229198455811,1.35665905475616,-1.35366678237915,0.196117058396339,5.99763536453247,-1.43064737319946
135,sampled_images/20181121_depthmap_1104_0235_01_004.png,6,0,0,-28097.44636,27194.357587,-1292.26826998548,0,1,22.9761952812238,153.498791941343,2.30142031796277E-05,0.889498829841614,-1.6023952960968,1.01831245422363,-2.16377925872803,-3.99511337280273,0.691835939884186,3.73787569999695,-2.19377565383911
136,sampled_images/20181121_depthmap_0819_0320_01_004.png,6,0,0,-26387.46636,27704.477587,-1299.59288990168,0,1,22.9916275745544,153.503797410143,0.000207315431908,0.752185821533203,-2.2349967956543,-0.167769089341164,4.69408559799194,0.475252002477646,4.99720144271851,3.89788174629211,-0.499125927686691
137,sampled_images/20181121_depthmap_1702_0061_01_004.png,6,0,0,-31685.48636,26150.497587,-1242.62651658191,0,1,22.9438127391776,153.488551328065,3.42971070494968E-05,-0.361826360225677,-1.7871687412262,2.14008617401123,-3.4105920791626,-3.95891308784485,2.8399863243103,1.59957110881805,-0.562710046768189
138,sampled_images/20181121_depthmap_1075_0243_01_004.png,6,0,0,-27923.30636,27242.637587,-1293.5090872984,0,1,22.9777669356712,153.49926584859,5.94854354858398E-05,0.676752626895905,-4.6797194480896,-1.46137881278992,2.5097541809082,-1.64106905460358,-0.114958412945271,2.50469279289246,0.501360416412354
139,sampled_images/20181121_depthmap_0441_0432_01_004.png,6,0,0,-24119.32636,28376.597587,-1359.78548697329,0,1,23.0120969415232,153.510394520257,0.001694515463896,-3.83447217941284,-2.53738307952881,2.65766549110413,-0.158204838633537,2.91754031181335,-0.228480815887451,0.203324154019356,-4.46399736404419
140,sampled_images/20181121_depthmap_1587_0095_01_004.png,6,0,0,-30995.42636,26354.417587,-1246.80768267265,0,1,22.9500406383177,153.490551276556,2.98408140224637E-05,-0.920984983444214,-2.4711217880249,0.50813901424408,-2.28777742385864,-2.8656644821167,-0.032743491232395,5.06439590454102,-0.126902997493744
141,sampled_images/20181121_depthmap_1178_0213_01_004.png,6,0,0,-28541.28636,27062.517587,-1290.25458469031,0,1,22.9721896552298,153.497498437442,1.96490982489195E-05,0.421545028686523,-1.42479407787323,0.627349019050598,-4.53302145004272,-2.28437185287476,2.03928399085999,4.76079416275024,0.488476753234863
142,sampled_images/20181121_depthmap_0390_0448_01_004.png,6,0,0,-23813.34636,28472.377587,-1373.22380489637,0,1,23.0148582165673,153.511334482785,3.29234717355575E-05,-2.91989994049072,-2.08627963066101,0.680460691452026,0.047422617673874,-2.08330059051514,-0.908448457717896,4.56066417694092,1.76725351810455
143,sampled_images/20181121_depthmap_0039_0552_01_004.png,6,0,0,-21707.44636,29096.357587,-1397.47881720825,0,1,23.0338630549447,153.517461156085,0.008833643980324,1.77917742729187,4.78803730010986,1.34324526786804,3.22014260292053,0.997940242290497,1.50771737098694,-0.830974698066711,-4.9430365562439
144,sampled_images/20181121_depthmap_0492_0418_01_004.png,6,0,0,-24425.34636,28292.357587,-1346.28950946371,0,1,23.0093351022226,153.509567162882,2.18034128920408E-05,-2.42380380630493,-3.52876114845276,1.30251443386078,-2.39112734794617,-1.56315124034882,1.43876707553864,3.72108149528503,-0.021508939564228
145,sampled_images/20181121_depthmap_0614_0381_01_004.png,6,0,0,-25157.40636,28070.417587,-1329.29232358385,0,1,23.0027285613815,153.507388909721,0.000189792583114,3.94345426559448,-0.781292617321014,-2.40262293815613,-2.50418734550476,-0.578533291816711,2.3583607673645,0.193417593836784,-1.51727676391602
146,sampled_images/20181121_depthmap_1670_0070_01_004.png,6,0,0,-31493.56636,26204.337587,-1243.39298924674,0,1,22.9455448954253,153.489079511501,2.09655536309583E-05,-0.45862278342247,-2.44332838058472,2.23674893379211,-3.0534451007843,-3.97032761573792,2.31505966186523,2.09268307685852,-1.04293429851532
147,sampled_images/20181121_depthmap_0555_0399_01_004.png,6,0,0,-24803.64636,28178.677587,-1337.47997545829,0,1,23.0059210876782,153.508451350897,3.87322616006713E-05,0.887373208999634,-1.86774623394012,3.06282424926758,-0.38600942492485,-1.7992582321167,4.29272556304932,0.276821970939636,3.19862675666809
148,sampled_images/20181121_depthmap_1102_0235_01_004.png,6,0,0,-28085.54636,27194.437587,-1292.27097583911,0,1,22.9763027341065,153.498792931198,6.30340218776837E-05,2.24643445014954,-3.374103307724,2.79702854156494,0.294503569602966,-1.85827386379242,2.5483283996582,2.01014566421509,1.05400192737579
149,sampled_images/20181121_depthmap_0350_0459_01_004.png,6,0,0,-23573.40636,28538.577587,-1376.0761139728,0,1,23.0170236705821,153.51198470421,4.07035877287854E-05,0.302340567111969,-2.09198069572449,2.27040243148804,-3.03466463088989,-3.4339644908905,2.48793888092041,2.61225819587708,-1.14251959323883
150,sampled_images/20181121_depthmap_1800_0033_01_004.png,6,0,0,-32273.58636,25982.337587,-1241.52170227699,0,1,22.9385049323075,153.486901916,2.34361832553986E-05,-2.30263185501099,-2.33683085441589,-0.331470876932144,-4.27606964111328,-1.2127628326416,1.90960085391998,5.18846559524536,0.492353737354279
151,sampled_images/20181121_depthmap_1448_0135_01_004.png,6,0,0,-30161.50636,26594.577587,-1268.2223802309,0,1,22.9575669540143,153.492907253054,0.000375034520403,2.39686894416809,3.78107833862305,0.340430676937103,-2.30129218101501,-0.978702664375305,1.40492606163025,4.35372447967529,1.74652814865112
152,sampled_images/20181121_depthmap_1807_0031_01_004.png,6,0,0,-32315.54636,25970.717587,-1241.53539985524,0,1,22.9381262220133,153.486787922843,3.44679137924686E-05,-1.68890607357025,-2.42585134506226,0.863728821277618,-2.31813812255859,-4.66603183746338,1.86099994182587,2.02257418632507,-0.957163274288178
153,sampled_images/20181121_depthmap_1464_0130_01_004.png,6,0,0,-30257.56636,26564.517587,-1268.52762414524,0,1,22.9567000313088,153.492612492127,2.5043853383977E-05,-4.33567190170288,-2.14928460121155,0.924530625343323,-0.353599637746811,-3.21878433227539,-0.789173722267151,2.61944365501404,2.10415387153625
154,sampled_images/20181121_depthmap_1265_0188_01_004.png,6,0,0,-29063.32636,26912.577587,-1283.1599514697,0,1,22.9674781797544,153.496027144592,4.10247776017059E-05,1.01510190963745,-2.72840046882629,2.1492428779602,0.223418995738029,-3.69883346557617,2.4817624092102,2.91820406913757,0.059908602386713
155,sampled_images/20181121_depthmap_0485_0419_01_004.png,6,0,0,-24383.28636,28298.457587,-1346.87493084996,0,1,23.0097147884299,153.509627438034,7.4078758188989E-05,2.78010058403015,-2.41215109825134,2.98815774917603,0.019614152610302,-2.66549801826477,3.89419889450073,2.39964699745178,-0.312207818031311
156,sampled_images/20181121_depthmap_0705_0353_01_004.png,6,0,0,-25703.30636,27902.717587,-1316.19841829387,0,1,22.9978020505146,153.505743274755,0.000305256369757,1.0718309879303,0.148698419332504,-1.73611903190613,3.18708324432373,1.39052844047546,3.75816965103149,4.7091064453125,-3.44419026374817
157,sampled_images/20181121_depthmap_1238_0196_01_004.png,6,0,0,-28901.56636,26960.497587,-1285.57032847824,0,1,22.9689380619962,153.496497261712,5.66702292417176E-05,1.28892934322357,-2.81479024887085,0.342625945806503,2.39348816871643,-1.57663893699646,-1.12844300270081,4.4156641960144,1.84249973297119
158,sampled_images/20181121_depthmap_1316_0173_01_004.png,6,0,0,-29369.54636,26822.397587,-1277.43061492783,0,1,22.9647145341706,153.495142433967,4.28898565587588E-05,0.27363184094429,-3.65947556495666,0.544593453407288,2.85527443885803,-4.02076196670532,2.10789084434509,2.19187164306641,-2.74169397354126
159,sampled_images/20181121_depthmap_1171_0215_01_004.png,6,0,0,-28499.40636,27074.717587,-1290.52047214776,0,1,22.9725676238672,153.497618144579,1.23535937746055E-05,-0.090605169534683,-1.04964101314545,2.14649653434753,-5.26426935195923,-1.47770798206329,4.13826417922974,2.93823146820068,0.44060692191124
160,sampled_images/20181121_depthmap_1646_0077_01_004.png,6,0,0,-31349.34636,26246.677587,-1244.32396373346,0,1,22.9468465086566,153.489494772875,1.42025301101967E-05,-1.17723059654236,-1.26447021961212,0.338379561901093,-4.81808853149414,-2.93647050857544,3.73942804336548,3.35034537315369,-0.962526142597198
161,sampled_images/20181121_depthmap_1572_0099_01_004.png,6,0,0,-30905.48636,26378.457587,-1247.59279567513,0,1,22.9508523986301,153.490787208061,2.65734888671432E-05,-1.68954050540924,-3.94003033638,3.08936142921448,-1.22545087337494,-2.63601040840149,3.36318278312683,0.409584641456604,0.34558629989624
162,sampled_images/20181121_depthmap_1873_0003_01_004.png,6,0,0,-32711.66636,25802.377587,-1241.93056046513,0,1,22.9345519397726,153.485140097691,2.40035551541951E-05,-0.97875165939331,-1.86741864681244,1.29798686504364,-0.535538613796234,-4.8671875,0.894444465637207,3.4382152557373,-0.945988893508911
163,sampled_images/20181121_depthmap_1156_0219_01_004.png,6,0,0,-28409.32636,27098.597587,-1290.67122891736,0,1,22.9733806373829,153.497852600828,7.60038456064649E-05,1.120645403862,-4.48744630813599,2.40270185470581,-0.028685867786408,-1.98715603351593,3.83632349967957,0.737969994544983,-1.46279585361481
164,sampled_images/20181121_depthmap_1454_0132_01_004.png,6,0,0,-30197.40636,26576.717587,-1268.2757350699,0,1,22.9572430691802,153.492732486076,3.74743030988611E-05,-0.645608067512512,-4.13268089294434,2.63997006416321,-2.44292974472046,-0.335529208183289,2.40604281425476,0.6791011095047,3.10257935523987
165,sampled_images/20181121_depthmap_1079_0242_01_004.png,6,0,0,-27947.36636,27236.417587,-1293.27652411948,0,1,22.9775497812594,153.49920476495,8.95656776265241E-05,1.89791572093964,-3.43226623535156,-1.94939613342285,-0.051735684275627,-0.287686377763748,3.23948931694031,-1.78847074508667,1.12114012241364
166,sampled_images/20181121_depthmap_0832_0315_01_004.png,6,0,0,-26465.60636,27674.677587,-1297.85066019435,0,1,22.9909224858451,153.503505361153,0.002401123289019,1.15250432491303,-0.719620883464813,1.57950007915497,1.84412336349487,5.76502084732056,-0.977959096431732,-1.4567049741745,1.39738082885742
167,sampled_images/20181121_depthmap_1719_0056_01_004.png,6,0,0,-31787.56636,26120.477587,-1242.59091016017,0,1,22.9428914462798,153.488256913816,1.31028964460711E-05,-0.813977003097534,-1.99447667598724,0.174034804105759,-4.16332340240479,-3.24783492088318,1.80889964103699,3.99243211746216,-1.95222616195679
168,sampled_images/20181121_depthmap_0002_0563_01_004.png,6,0,0,-21485.44636,29162.697587,-1406.53195334522,0,1,23.0358664817889,153.518112595512,0.000616295146756,-1.95730376243591,1.90890264511108,0.240619316697121,4.40720319747925,0.597865402698517,4.69911527633667,3.21744608879089,-2.40159034729004
169,sampled_images/20181121_depthmap_0192_0507_01_004.png,6,0,0,-22625.44636,28826.437587,-1373.99704406339,0,1,23.0255785019679,153.514810546232,0.00023798829352,2.47099423408508,2.37226057052612,2.08219981193542,-2.0906126499176,-0.738891363143921,4.96072721481323,0.172625869512558,1.75925409793854
170,sampled_images/20181121_depthmap_0470_0424_01_004.png,6,0,0,-24293.60636,28328.637587,-1348.55436466715,0,1,23.0105240599418,153.509923479199,3.82387479476165E-05,0.539196133613586,-2.61528253555298,1.86462414264679,0.108623147010803,-4.51250410079956,2.14277458190918,2.16978931427002,-2.46626663208008
171,sampled_images/20181121_depthmap_1637_0079_01_004.png,6,0,0,-31295.60636,26258.377587,-1244.57303725357,0,1,22.9473315862812,153.489609761206,1.97408389794873E-05,1.30175352096558,-1.06636667251587,1.68800854682922,-1.41717350482941,-5.20092344284058,0.094868756830692,3.16105580329895,-1.09474587440491
172,sampled_images/20181121_depthmap_0074_0542_01_004.png,6,0,0,-21917.54636,29036.537587,-1382.85294961332,0,1,23.0319669641153,153.516873570747,0.002036092802882,-0.797000169754028,-4.76729345321655,3.57300019264221,1.62078201770782,3.77970147132874,0.075357638299465,-0.412877529859543,-3.1633141040802
173,sampled_images/20181121_depthmap_0218_0499_01_004.png,6,0,0,-22781.50636,28778.417587,-1372.87112246184,0,1,23.0241701592907,153.514339160816,6.32904411759227E-05,-0.836182236671448,-1.82958459854126,1.17730557918549,1.71862852573395,-5.23766326904297,2.29241347312927,1.86189389228821,-1.26811146736145
174,sampled_images/20181121_depthmap_0866_0306_01_004.png,6,0,0,-26669.50636,27620.377587,-1294.30139396579,0,1,22.9890822221718,153.502972110907,0.013117993250489,-0.495937466621399,6.08277034759522,1.70638525485992,2.45878028869629,1.70792198181152,1.41905999183655,-1.59776186943054,-6.51121234893799
175,sampled_images/20181121_depthmap_1424_0141_01_004.png,6,0,0,-30017.60636,26630.477587,-1268.18486749658,0,1,22.9588657678737,153.493259787539,0.000119240132335,3.57111501693726,-2.83460187911987,1.09212386608124,0.922926247119904,-0.021725503727794,2.33468627929687,4.99705410003662,-2.43725395202637
176,sampled_images/20181121_depthmap_1405_0147_01_004.png,6,0,0,-29903.38636,26666.577587,-1269.98536927998,0,1,22.9598965734324,153.493613766719,0.000125619160826,1.5790593624115,-1.19944584369659,0.526121258735657,4.30214977264404,-0.871837258338928,4.16981554031372,4.06865978240967,0.185331478714943
177,sampled_images/20181121_depthmap_0147_0520_01_004.png,6,0,0,-22355.54636,28904.617587,-1384.57879043233,0,1,23.0280142590743,153.515578313939,0.000194445878151,1.04023277759552,1.79330861568451,2.01471447944641,-2.28994584083557,3.04044461250305,3.48223781585693,-0.354884117841721,4.10917329788208
178,sampled_images/20181121_depthmap_0299_0474_01_004.png,6,0,0,-23267.38636,28628.597587,-1381.62523473821,0,1,23.0197853941557,153.512868544741,1.44613113661762E-05,-1.03421354293823,-1.87766933441162,-0.241168290376663,-5.41715478897095,-0.912886202335358,3.33611369132996,4.88889265060425,-1.05041837692261
179,sampled_images/20181121_depthmap_1502_0119_01_004.png,6,0,0,-30485.44636,26498.417587,-1261.92765249178,0,1,22.9546433734496,153.49196405974,0.001817834097892,0.049479369074106,-1.98546731472015,5.66413450241089,1.84219717979431,3.3842785358429,2.82269906997681,2.11864900588989,-1.92419874668121
180,sampled_images/20181121_depthmap_0650_0369_01_004.png,6,0,0,-25373.42636,27998.597587,-1327.52491728243,0,1,23.0007791688818,153.506684450225,9.6150251920335E-05,3.33718466758728,-3.65743589401245,1.78140509128571,1.19646680355072,-1.16491985321045,3.44560313224792,3.7684338092804,-1.84529972076416
181,sampled_images/20181121_depthmap_1429_0140_01_004.png,6,0,0,-30047.58636,26624.677587,-1267.91977443072,0,1,22.958595147417,153.493202715629,3.72480608348269E-05,0.453776776790619,-1.78140139579773,1.43667495250702,0.334550708532333,-5.38017225265503,0.340590864419937,2.8340630531311,-1.8301637172699
182,sampled_images/20181121_depthmap_0685_0359_01_004.png,6,0,0,-25583.48636,27938.657587,-1317.56405836332,0,1,22.9988833904762,153.506095993916,0.000196190492716,4.00475358963013,-1.80648803710938,0.419890195131302,1.39059853553772,-0.493514001369476,4.76758527755737,2.78713703155518,-1.40658617019653
183,sampled_images/20181121_depthmap_0317_0469_01_004.png,6,0,0,-23375.30636,28598.537587,-1379.1201408108,0,1,23.0188114255883,153.512573297052,0.000440299365437,0.783412575721741,2.00301170349121,2.2692391872406,-4.26210927963257,1.12250483036041,1.32222414016724,-2.77948927879333,0.63067102432251
184,sampled_images/20181121_depthmap_0031_0555_01_004.png,6,0,0,-21659.66636,29114.537587,-1401.50327412604,0,1,23.0342941748807,153.517639429304,0.000300144514767,-0.13337005674839,2.51025557518005,-0.108133688569069,2.9593026638031,0.025896625593305,0.849217891693115,4.97105884552002,-2.64088177680969
185,sampled_images/20181121_depthmap_0138_0522_01_004.png,6,0,0,-22301.48636,28916.337587,-1385.14822304012,0,1,23.0285022004137,153.515693668309,5.12109836563468E-05,1.73144590854645,-1.69196510314941,1.64967632293701,-0.822879910469055,-5.32220649719238,2.61602568626404,1.27482724189758,-2.65770578384399
186,sampled_images/20181121_depthmap_0131_0525_01_004.png,6,0,0,-22259.58636,28934.397587,-1385.8639985034,0,1,23.0288802302656,153.515870647408,2.90164589387132E-05,1.49716258049011,-0.894453823566437,2.44437313079834,-2.52124571800232,-4.1510009765625,2.5009503364563,1.0352156162262,0.186422914266586
187,sampled_images/20181121_depthmap_1804_0031_01_004.png,6,0,0,-32297.54636,25970.657587,-1241.18866110001,0,1,22.9382887596269,153.48678764013,0.000289579649689,3.00206065177917,0.567689061164856,-1.58354723453522,-1.36966705322266,1.54240608215332,4.05689144134522,2.82355237007141,-3.79564476013184
188,sampled_images/20181121_depthmap_1509_0117_01_004.png,6,0,0,-30527.66636,26486.557587,-1259.4491666257,0,1,22.9542623238746,153.49184769395,0.000362092396244,3.11474609375,0.3021439909935,-0.274527311325073,0.340280950069427,2.0175096988678,3.80715107917786,4.03418493270874,-5.48403549194336
189,sampled_images/20181121_depthmap_0648_0370_01_004.png,6,0,0,-25361.60636,28004.337587,-1327.5233475931,0,1,23.0008858037445,153.506740652369,1.55183115566615E-05,-0.928402543067932,-1.93298876285553,-0.917822957038879,-4.86703586578369,-1.39590609073639,1.8072761297226,6.03842496871948,-0.289776235818863
190,sampled_images/20181121_depthmap_1466_0129_01_004.png,6,0,0,-30269.28636,26558.637587,-1268.54438053608,0,1,22.9565942957765,153.49255495628,3.70455818483606E-05,-0.02811386808753,-1.66825902462006,2.10293364524841,-2.74261426925659,-4.55443239212036,3.40196704864502,-0.0439319498837,-1.12938940525055
191,sampled_images/20181121_depthmap_1869_0003_01_004.png,6,0,0,-32687.38636,25802.677587,-1241.3367854728,0,1,22.9347711791858,153.485143427428,7.81743292463943E-05,-0.903409838676452,-5.92504644393921,-1.33695924282074,1.38439953327179,0.733951330184937,2.96210527420044,0.600799977779388,-1.10423481464386
192,sampled_images/20181121_depthmap_1177_0214_01_004.png,6,0,0,-28535.62636,27068.717587,-1290.27888983604,0,1,22.9722406630677,153.497558998175,1.67641483130865E-05,1.0094256401062,-0.458221584558487,0.307119905948639,-2.73281502723694,-4.38721704483032,-0.587628483772278,5.16156530380249,-1.06589210033417
193,sampled_images/20181121_depthmap_1756_0045_01_004.png,6,0,0,-32009.50636,26054.557587,-1241.76355480794,0,1,22.9408884001292,153.48761047007,2.51833989750594E-05,0.632676899433136,-2.26188802719116,1.32819938659668,-3.33131909370422,-3.88965845108032,1.34679913520813,2.67039489746094,-1.55506551265717
194,sampled_images/20181121_depthmap_1413_0145_01_004.png,6,0,0,-29951.38636,26654.657587,-1269.31275951283,0,1,22.9594633341951,153.493496706881,2.91760134132346E-05,-1.51724672317505,-3.41482973098755,1.17161905765533,1.44656622409821,-2.08777356147766,0.724591314792633,4.49181652069092,1.01330769062042
