,relative_path,altitude [m],roll [deg],pitch [deg],northing [m],easting [m],depth [m],heading [deg],timestamp [s],latitude [deg],longitude [deg],recon_loss,h0,h1,h2,h3,h4,h5,h6,h7
0,sampled_images/20181126_depthmap_0775_1228_01_004.png,6,0,0,8771.871933,-11636.955122,-1130.92530976233,0,1,23.3092936386737,153.119819480358,8.44438982312568E-05,-0.504646003246307,-2.1937837600708,-5.10915660858154,2.01479864120483,2.67651462554932,-0.093434609472752,2.26105880737305,-3.87394690513611
1,sampled_images/20181126_depthmap_1050_1663_01_004.png,6,0,0,7122.091933,-9027.115122,-1115.92323255577,0,1,23.2944134266126,153.145344027977,0.002279750071466,3.57371234893799,2.14743113517761,-0.535641252994537,0.144844681024551,-1.72440338134766,-5.66245460510254,-3.46012616157532,-0.665251672267914
2,sampled_images/20181126_depthmap_0358_0570_01_004.png,6,0,0,11273.731933,-15584.875122,-1063.88137285018,0,1,23.3318512605277,153.081197513018,0.012230060994625,-1.06922483444214,3.80007767677307,3.01331496238708,-2.36406517028809,1.06862950325012,-4.75665664672852,-2.64056634902954,6.70508527755737
3,sampled_images/20181126_depthmap_0273_0437_01_004.png,6,0,0,11784.091933,-16382.855122,-1047.41199828954,0,1,23.3364517287086,153.073389351925,0.001230958034284,-0.735160112380981,-5.48491191864014,2.33150458335876,-2.7265317440033,-0.246780589222908,-3.86168766021729,2.09319829940796,-0.897363841533661
4,sampled_images/20181126_depthmap_0753_1194_01_004.png,6,0,0,8903.971933,-11840.975122,-1130.07921148003,0,1,23.310484970295,153.117823876999,0.001532126683742,2.75327897071838,-0.922005176544189,-1.80853581428528,0.320470184087753,-0.420257151126862,-3.83064389228821,-3.70474195480347,1.68809199333191
5,sampled_images/20181126_depthmap_0684_1085_01_004.png,6,0,0,9317.911933,-12494.915122,-1131.12936168084,0,1,23.3142177717799,153.111427260468,0.00030040301499,1.2310506105423,0.453135073184967,-4.24487638473511,2.27115225791931,0.066590502858162,-2.42037200927734,-2.60727095603943,1.07529938220978
6,sampled_images/20181126_depthmap_0089_0142_01_004.png,6,0,0,12887.791933,-18152.895122,-1023.63637133916,0,1,23.3463988184933,153.056068098812,0.003104367991909,3.20563673973083,2.4703164100647,0.408971637487412,-1.97120428085327,-2.54402875900269,-3.70288872718811,-3.23171281814575,0.333617091178894
7,sampled_images/20181126_depthmap_0722_1144_01_004.png,6,0,0,9090.051933,-12140.975122,-1122.59059205419,0,1,23.3121629785948,153.11488945486,0.000817564607132,3.0620584487915,-3.68509984016418,-3.91610932350159,1.699835896492,-1.7221302986145,-2.94834089279175,-1.34716093540192,2.03352522850037
8,sampled_images/20181126_depthmap_0469_0747_01_004.png,6,0,0,10608.071933,-14523.035122,-1089.66024284509,0,1,23.3258504863481,153.091586559184,0.003415317740291,3.01272773742676,1.19984650611877,4.08201551437378,-1.10049295425415,-0.597503662109375,-1.82093274593353,-3.07092332839966,1.45687031745911
9,sampled_images/20181126_depthmap_0948_1503_01_004.png,6,0,0,7733.791933,-9986.875122,-1110.56261990153,0,1,23.2999312010252,153.135958086248,0.000298626808217,2.42446231842041,-0.830523908138275,-4.29071378707886,1.99533152580261,1.59646046161652,-1.31209492683411,-1.34369075298309,-1.44278180599213
10,sampled_images/20181126_depthmap_0558_0886_01_004.png,6,0,0,10073.791933,-13689.055122,-1099.7528853225,0,1,23.3210334155934,153.099745673455,0.002909695031121,3.54306554794312,2.32310461997986,5.71088409423828,2.40624070167541,-0.118214473128319,-2.83443522453308,-1.23276340961456,-1.51577413082123
11,sampled_images/20181126_depthmap_0417_0665_01_004.png,6,0,0,10919.931933,-15014.835122,-1069.91929736651,0,1,23.328661972521,153.086774866758,0.001619964139536,3.50053739547729,-1.69819486141205,-0.764718234539032,-2.69571971893311,-1.26039838790894,-4.1806321144104,-2.1852126121521,-1.1588408946991
12,sampled_images/20181126_depthmap_1086_1719_01_004.png,6,0,0,6905.911933,-8690.975122,-1104.74736045366,0,1,23.2924632460931,153.148631126593,0.005415718071163,1.50411653518677,3.42647385597229,3.04960751533508,-2.42244696617126,-2.17724919319153,-2.7945294380188,-2.19980907440186,3.76069641113281
13,sampled_images/20181126_depthmap_0851_1348_01_004.png,6,0,0,8316.031933,-10917.115122,-1117.87895925082,0,1,23.3051825957084,153.126860173558,0.000488454301376,2.91717529296875,1.30582273006439,-4.09379577636719,-0.843155682086945,1.95499801635742,-1.47951638698578,-1.25157833099365,-0.388453722000122
14,sampled_images/20181126_depthmap_0784_1244_01_004.png,6,0,0,8718.111933,-11540.815122,-1123.74400439191,0,1,23.3088088940235,153.12075978819,0.003824873827398,1.96311509609222,5.49058628082275,6.67402648925781,-2.56864428520203,-0.0232716165483,-3.24543976783752,0.66917896270752,-0.293441921472549
15,sampled_images/20181126_depthmap_0589_0935_01_004.png,6,0,0,9887.911933,-13394.815122,-1106.13137092658,0,1,23.319357453218,153.102624161742,0.035376988351345,-4.3542971611023,5.91425371170044,3.55039262771606,-3.78116822242737,3.24179601669312,-8.09025764465332,-1.76712107658386,8.45816516876221
16,sampled_images/20181126_depthmap_0402_0641_01_004.png,6,0,0,11009.871933,-15158.935122,-1069.67051427219,0,1,23.3294727525242,153.085364991572,0.000242603520746,2.16613554954529,-1.54164469242096,-3.16482353210449,3.74943900108337,1.07640850543976,0.990674078464508,-0.936370849609375,0.616192877292633
17,sampled_images/20181126_depthmap_0444_0706_01_004.png,6,0,0,10757.871933,-14768.815122,-1081.4435827256,0,1,23.3272008988326,153.089181971353,0.036906961351633,-4.76049661636353,7.21343755722046,3.35015058517456,-4.1213493347168,3.27233123779297,-9.16146087646484,-1.64634120464325,9.02997589111328
18,sampled_images/20181126_depthmap_1040_1648_01_004.png,6,0,0,7182.031933,-9116.875122,-1107.17526705073,0,1,23.2949541578847,153.144466239305,0.001988305477425,2.40585136413574,2.29607439041138,1.94744122028351,0.432780027389526,-4.78098821640015,-2.37624621391296,-1.7765725851059,-1.49324703216553
19,sampled_images/20181126_depthmap_0507_0807_01_004.png,6,0,0,10380.011933,-14163.155122,-1090.28208114842,0,1,23.3237943827196,153.095107438117,0.079649403691292,-8.41354846954346,7.14424753189087,2.72461724281311,-5.14817237854004,7.16025590896606,-11.7345008850098,-2.83218502998352,12.4092569351196
20,sampled_images/20181126_depthmap_0679_1079_01_004.png,6,0,0,9347.931933,-12531.035122,-1130.58636101483,0,1,23.314488560353,153.111073877435,0.00105376727879,-0.777340590953827,-0.256898492574692,-2.31442713737488,1.37402093410492,-1.73914456367493,-4.64060163497925,-1.39599311351776,0.405082225799561
21,sampled_images/20181126_depthmap_0008_0012_01_004.png,6,0,0,13374.051933,-18932.835122,-1015.01029772141,0,1,23.3507806156422,153.048434948137,0.000549419957679,-2.53512907028198,2.01624870300293,-1.92126715183258,2.09470510482788,-0.042156610637903,-1.38071608543396,-2.26381802558899,0.025365868583322
22,sampled_images/20181126_depthmap_0538_0855_01_004.png,6,0,0,10194.031933,-13875.055122,-1086.46722113028,0,1,23.322117551776,153.097926012169,0.005136154592037,1.03296089172363,4.54655122756958,5.31292247772217,-2.12220430374145,-0.386516958475113,-3.19823455810547,-1.51752889156342,2.87185955047607
23,sampled_images/20181126_depthmap_0230_0368_01_004.png,6,0,0,12041.871933,-16796.915122,-1041.28697426554,0,1,23.3387751367097,153.0693376796,0.005815293639898,1.40781807899475,5.28535461425781,4.46558475494385,-2.25491833686829,-0.05907392129302,-4.5650372505188,-1.34185564517975,2.58664512634277
24,sampled_images/20181126_depthmap_0227_0363_01_004.png,6,0,0,12059.851933,-16827.135122,-1044.59679301397,0,1,23.3389371752942,153.069041973725,0.004290436860174,1.10458815097809,4.34052562713623,4.64325714111328,-2.3687698841095,-2.23111081123352,-3.03947949409485,-1.68920052051544,2.43133854866028
25,sampled_images/20181126_depthmap_0775_1230_01_004.png,6,0,0,8772.011933,-11624.955122,-1130.89717726392,0,1,23.3092949878874,153.119936795484,0.000339240941685,1.82361912727356,0.681594610214233,-1.83926331996918,3.63540887832642,0.389907628297806,-1.32567763328552,-2.73045825958252,-0.987168312072754
26,sampled_images/20181126_depthmap_0240_0384_01_004.png,6,0,0,11982.011933,-16701.095122,-1039.72535827171,0,1,23.3382356160773,153.070275315107,0.002410502638668,1.65848016738892,2.46795296669006,1.76459503173828,-4.35518169403076,-2.96813750267029,-4.04014253616333,1.04461848735809,-4.64691400527954
27,sampled_images/20181126_depthmap_0756_1199_01_004.png,6,0,0,8885.891933,-11811.175122,-1134.36019323994,0,1,23.3103219325226,153.11811535577,0.000134466143209,3.4732871055603,-4.40768098831177,-0.597755491733551,2.42150497436523,-0.127107754349709,2.5433611869812,1.98639822006226,-1.51341068744659
28,sampled_images/20181126_depthmap_0577_0916_01_004.png,6,0,0,9959.751933,-13509.135122,-1098.68900382731,0,1,23.3200051904558,153.101505805066,0.013921767473221,-1.87307894229889,5.34189033508301,3.58246779441833,-2.78042149543762,1.76863670349121,-6.49197626113892,-2.28770279884338,6.61562013626099
29,sampled_images/20181126_depthmap_0125_0199_01_004.png,6,0,0,12671.991933,-17811.095122,-1033.36353222508,0,1,23.3444540285166,153.059413116326,0.000645240885206,-4.21733999252319,0.27860689163208,6.23738670349121,0.325487047433853,1.7655063867569,-0.906184732913971,2.81778073310852,-4.79160070419312
30,sampled_images/20181126_depthmap_0056_0088_01_004.png,6,0,0,13085.731933,-18477.155122,-1023.5941221677,0,1,23.3481824690759,153.052894729229,0.011812563054264,-2.0855724811554,4.04933738708496,3.37135171890259,-2.18566536903381,1.91592311859131,-5.97257423400879,-3.03729486465454,6.9056830406189
31,sampled_images/20181126_depthmap_0131_0209_01_004.png,6,0,0,12635.991933,-17750.975122,-1037.49613715652,0,1,23.3441296230075,153.060001446238,0.000663106911816,-3.60695672035217,1.21794879436493,4.93521404266357,0.146307036280632,2.29567909240723,-2.49853563308716,4.88856410980225,-3.68255710601807
32,sampled_images/20181126_depthmap_0870_1378_01_004.png,6,0,0,8201.971933,-10736.895122,-1105.30023726495,0,1,23.3041538837324,153.128622821826,0.001410929951817,1.36999905109406,0.064070872962475,1.02967464923859,2.62330627441406,-2.51198935508728,-2.79500102996826,-4.58537149429321,0.494714468717575
33,sampled_images/20181126_depthmap_0376_0599_01_004.png,6,0,0,11165.751933,-15410.875122,-1063.84177482232,0,1,23.3308779092208,153.082899982172,0.001579309930094,1.3710298538208,0.021803118288517,-0.044931881129742,0.211687430739403,-2.00752544403076,-5.00091886520386,-0.525655388832092,-4.62911462783814
34,sampled_images/20181126_depthmap_1087_1721_01_004.png,6,0,0,6899.931933,-8678.855122,-1108.20258548281,0,1,23.2924093138692,153.148749635379,0.021128607913852,-4.10425329208374,6.21633768081665,3.65273356437683,-3.8719322681427,2.62332701683044,-8.05593490600586,-1.34907114505768,7.9919548034668
35,sampled_images/20181126_depthmap_0673_1067_01_004.png,6,0,0,9383.791933,-12603.035122,-1129.88135378639,0,1,23.3148118047558,153.110369654718,0.001867970684543,2.97712206840515,1.52864444255829,2.23862051963806,3.10837769508362,0.022138882428408,-3.28706789016724,-2.88971924781799,0.374122798442841
36,sampled_images/20181126_depthmap_0889_1408_01_004.png,6,0,0,8087.831933,-10557.075122,-1117.55191189461,0,1,23.3031244267777,153.13038153323,0.00062527845148,1.60006463527679,1.63389158248901,-3.94626021385193,-3.01994061470032,0.761747598648071,-4.73371458053589,-1.58077001571655,-1.37363708019257
37,sampled_images/20181126_depthmap_0207_0332_01_004.png,6,0,0,12180.031933,-17013.055122,-1049.98755161403,0,1,23.3400204088402,153.06722260368,0.057323276996613,-6.42013883590698,7.69469976425171,3.52801537513733,-4.56670618057251,4.65062713623047,-9.68476390838623,-1.59564697742462,10.1233758926392
38,sampled_images/20181126_depthmap_0825_1307_01_004.png,6,0,0,8471.771933,-11163.075122,-1114.74863030093,0,1,23.3065871897831,153.124454508619,0.000309376220684,1.40125620365143,-0.592599987983704,-5.79180383682251,-1.01829218864441,0.643529117107391,-1.56878364086151,-2.18837285041809,-0.734900176525116
39,sampled_images/20181126_depthmap_0698_1108_01_004.png,6,0,0,9234.011933,-12357.135122,-1132.54620010603,0,1,23.3134612445709,153.112774979714,0.008090264163911,-1.09185254573822,5.78381061553955,4.31104326248169,-2.62314295768738,1.21988415718079,-5.30121660232544,-0.99272483587265,4.93335914611816
40,sampled_images/20181126_depthmap_0228_0364_01_004.png,6,0,0,12053.831933,-16820.875122,-1045.28871464853,0,1,23.3388828825556,153.06910325407,0.001018030219711,2.89049673080444,-1.15193116664886,-3.64347743988037,1.01403248310089,1.46403670310974,-3.17627167701721,-1.54805648326874,0.462017238140106
41,sampled_images/20181126_depthmap_0284_0454_01_004.png,6,0,0,11718.051933,-16281.135122,-1048.93030655513,0,1,23.335856440349,153.074384713207,0.000497575616464,-2.19514393806458,2.57410454750061,5.14698553085327,2.06258726119995,3.60397720336914,0.404055237770081,3.63817453384399,-3.89339232444763
42,sampled_images/20181126_depthmap_0124_0198_01_004.png,6,0,0,12677.991933,-17816.895122,-1032.86071697747,0,1,23.3445081418038,153.059356328024,0.000955349823926,-2.58581805229187,-2.17336392402649,4.91789054870606,-2.30127096176147,1.27535855770111,-3.38867664337158,3.18634557723999,-3.75053524971008
43,sampled_images/20181126_depthmap_0750_1189_01_004.png,6,0,0,8921.871933,-11870.835122,-1130.44794542746,0,1,23.3106463817823,153.117531812343,0.002581738401204,1.86797630786896,0.47658571600914,2.43876504898071,-0.537277758121491,-2.30942869186401,-1.69576716423035,-3.65365886688232,3.02675843238831
44,sampled_images/20181126_depthmap_0091_0144_01_004.png,6,0,0,12875.731933,-18140.935122,-1024.5899594527,0,1,23.3462900565596,153.056185200808,0.000118097923405,-2.53437042236328,-0.491316080093384,-3.45798063278198,1.29339098930359,-3.15601778030395,2.47770524024963,3.30172181129456,2.11172485351562
45,sampled_images/20181126_depthmap_0654_1038_01_004.png,6,0,0,9498.071933,-12777.155122,-1123.66787639596,0,1,23.3158423429933,153.108666362914,0.00708572473377,-0.367437452077866,5.16706323623657,4.02258634567261,-2.65317058563232,0.848266541957855,-5.1825098991394,-1.14868533611298,5.39806747436523
46,sampled_images/20181126_depthmap_0118_0188_01_004.png,6,0,0,12714.011933,-17877.135122,-1031.83548325838,0,1,23.3448327241319,153.05876682118,0.001013029599562,1.24646961688995,-1.2490828037262,-1.61191487312317,1.63008463382721,-0.146170616149902,-5.00055456161499,-2.24627804756165,-1.40821921825409
47,sampled_images/20181126_depthmap_1069_1693_01_004.png,6,0,0,7007.911933,-8847.035122,-1109.9589853747,0,1,23.2933834202524,153.147105024921,0.000374347961042,-0.065709695219994,5.55367994308472,0.053148049861193,3.48064565658569,1.82036817073822,0.004399341996759,2.96536374092102,-1.52812790870667
48,sampled_images/20181126_depthmap_1057_1675_01_004.png,6,0,0,7079.891933,-8954.975122,-1114.99922429154,0,1,23.2940327774336,153.146049465223,0.002515695989132,0.822292506694794,0.921940803527832,3.56622505187988,0.661394894123077,-2.66259574890137,-0.924943506717682,-3.51989269256592,2.67614936828613
49,sampled_images/20181126_depthmap_0764_1213_01_004.png,6,0,0,8837.951933,-11726.835122,-1130.89026083384,0,1,23.309889665351,153.118940270532,0.000509918841999,2.00237679481506,0.914225041866302,-2.71843934059143,2.5997953414917,2.54816818237305,-3.4086582660675,-2.45379137992859,-0.276771187782288
50,sampled_images/20181126_depthmap_0979_1551_01_004.png,6,0,0,7547.931933,-9698.975122,-1109.23811823689,0,1,23.2982547089088,153.138773691231,0.004243529867381,1.50369799137115,3.17412829399109,3.70782089233398,-1.45867645740509,-1.81654846668243,-2.86951065063477,-3.16875386238098,3.2576265335083
51,sampled_images/20181126_depthmap_0141_0224_01_004.png,6,0,0,12576.091933,-17661.175122,-1044.93673650443,0,1,23.3435897329912,153.060880288717,0.028834393247962,-3.94268131256104,6.40344476699829,3.35242700576782,-3.75972747802734,2.74438643455505,-7.6658787727356,-0.961510300636292,7.87182235717773
52,sampled_images/20181126_depthmap_0008_0011_01_004.png,6,0,0,13373.971933,-18938.835122,-1014.54896367708,0,1,23.3507798238892,153.048376273014,0.002146137645468,1.45180487632751,0.691240429878235,2.38192248344421,1.71840608119965,-0.394974559545517,-3.06405782699585,-3.1836245059967,1.74301147460938
53,sampled_images/20181126_depthmap_0158_0252_01_004.png,6,0,0,12474.071933,-17492.835122,-1038.74969023198,0,1,23.3426703604359,153.062527637941,0.003322613891214,2.5325129032135,3.94531607627869,5.32908058166504,-2.32091569900513,-2.87330150604248,-2.45686745643616,-0.259507954120636,-0.93554562330246
54,sampled_images/20181126_depthmap_0096_0154_01_004.png,6,0,0,12845.751933,-18080.995122,-1021.88205233756,0,1,23.3460200183155,153.056771714386,0.001185055007227,0.892887651920319,2.91659808158875,-1.90005195140839,-0.465318858623505,-2.88471508026123,-3.59237146377563,-2.4721531867981,-1.56829047203064
55,sampled_images/20181126_depthmap_0016_0026_01_004.png,6,0,0,13325.831933,-18849.055122,-1017.35965814442,0,1,23.3503461854853,153.049254863779,0.003196625970304,2.64772081375122,3.3106062412262,3.02515053749084,-1.92488467693329,-3.87844896316528,-2.77119755744934,-2.77247953414917,0.199289917945862
56,sampled_images/20181126_depthmap_0326_0520_01_004.png,6,0,0,11466.011933,-15885.015122,-1052.19369104645,0,1,23.3335845549883,153.078260730215,0.013449131511152,-1.05699908733368,4.25728273391724,3.47189164161682,-2.31360793113708,1.18729496002197,-5.27603912353516,-2.01976847648621,6.62629652023315
57,sampled_images/20181126_depthmap_0862_1365_01_004.png,6,0,0,8249.991933,-10814.795122,-1115.79399797261,0,1,23.304586967237,153.127860930513,0.029730219393969,-4.75219583511353,6.38774394989014,3.7321515083313,-3.75952696800232,2.50644254684448,-7.71770000457764,-0.493087828159332,7.24006032943726
58,sampled_images/20181126_depthmap_0411_0654_01_004.png,6,0,0,10955.831933,-15080.835122,-1069.41902700957,0,1,23.3289855229162,153.086129177272,0.000498406647239,3.74283671379089,-1.76332783699036,-4.53022813796997,1.0027779340744,1.46162867546082,-1.21538925170898,-1.55111742019653,-2.04069805145264
59,sampled_images/20181126_depthmap_0439_0699_01_004.png,6,0,0,10787.851933,-14811.075122,-1071.59990953924,0,1,23.3274712197689,153.08876847457,0.000709978805389,2.35951161384583,-1.89809143543243,-3.82899236679077,0.918765664100647,0.921617090702057,-3.36346387863159,-2.49332714080811,0.38510599732399
60,sampled_images/20181126_depthmap_0859_1360_01_004.png,6,0,0,8267.931933,-10845.035122,-1118.19755703688,0,1,23.3047487563052,153.127565175624,0.000812160957139,-1.87212824821472,2.08265352249145,-1.19553530216217,2.2080078125,-0.515584886074066,-5.086097240448,2.14771032333374,-2.41922998428345
61,sampled_images/20181126_depthmap_0873_1384_01_004.png,6,0,0,8183.891933,-10700.835122,-1111.73344126888,0,1,23.3039908664905,153.128975471234,0.002963195322081,0.575196921825409,2.25361847877502,3.83145523071289,-0.180782377719879,-2.53948593139648,-1.59808385372162,-3.96730709075928,3.11735439300537
62,sampled_images/20181126_depthmap_0068_0107_01_004.png,6,0,0,13013.891933,-18363.155122,-1024.69342471016,0,1,23.3475350802322,153.054010426877,0.00907763466239,-0.453616976737976,3.84132933616638,3.05468368530273,-1.81151902675629,1.10613429546356,-5.12363910675049,-3.42251181602478,6.57689046859741
63,sampled_images/20181126_depthmap_0549_0872_01_004.png,6,0,0,10127.731933,-13773.035122,-1095.68349589049,0,1,23.3215197602274,153.098924093423,0.002176065463573,3.32886576652527,1.55961799621582,1.53080296516418,-2.33641982078552,-3.62572646141052,-3.33346796035767,-2.15718746185303,-0.307729303836822
64,sampled_images/20181126_depthmap_0714_1133_01_004.png,6,0,0,9137.911933,-12207.015122,-1126.60777729294,0,1,23.3125946381699,153.114243425277,0.005266398657113,1.54525637626648,3.24682474136353,3.25890970230103,-0.483847320079803,-0.485279500484467,-3.82988691329956,-3.45959639549255,3.04865145683289
65,sampled_images/20181126_depthmap_0850_1347_01_004.png,6,0,0,8322.031933,-10923.035122,-1117.92444702852,0,1,23.3052367331155,153.126802256081,0.000598690472543,-2.39458751678467,3.58815050125122,-2.30528950691223,-2.32237124443054,2.14217567443848,-1.72867572307587,-2.41615867614746,-1.14615452289581
66,sampled_images/20181126_depthmap_0165_0262_01_004.png,6,0,0,12432.111933,-17432.835122,-1042.84515417712,0,1,23.3422921265511,153.063114847735,0.000829480180983,2.66436743736267,-2.74861359596252,-3.30251407623291,1.58562076091766,2.98110032081604,-0.556800663471222,-1.4747234582901,-0.623022973537445
67,sampled_images/20181126_depthmap_0740_1172_01_004.png,6,0,0,8982.091933,-11972.855122,-1118.66486166692,0,1,23.3111893942488,153.116533943171,0.000793627172243,0.292953699827194,0.309915035963059,3.23599028587341,5.23360538482666,-1.86320054531097,-2.5661518573761,-1.51318180561066,-2.63373517990112
68,sampled_images/20181126_depthmap_0537_0854_01_004.png,6,0,0,10200.051933,-13881.115122,-1085.10935008087,0,1,23.3221718576972,153.097866706657,0.000882868422195,-4.55521392822266,-2.03230667114258,1.01547002792358,-3.06447744369507,-2.15308380126953,-3.63405632972717,0.578648805618286,0.995660483837128
69,sampled_images/20181126_depthmap_0159_0255_01_004.png,6,0,0,12468.051933,-17474.935122,-1040.36905620462,0,1,23.3426161945433,153.062702747452,0.00058109028032,3.36543202400208,1.41624116897583,-3.10887145996094,0.14816389977932,2.2525269985199,-3.58880472183228,-2.97333431243896,-2.75861263275146
70,sampled_images/20181126_depthmap_0211_0337_01_004.png,6,0,0,12155.831933,-16983.035122,-1052.96377202387,0,1,23.3398022087587,153.067516428279,0.013661525212228,-2.30087685585022,5.68504095077515,3.46656680107117,-2.4106068611145,2.52513742446899,-6.77659845352173,-2.42484283447266,6.3285026550293
71,sampled_images/20181126_depthmap_1056_1673_01_004.png,6,0,0,7085.851933,-8966.995122,-1114.32198955601,0,1,23.2940865275553,153.145931931559,0.002909797942266,2.20816397666931,1.82516264915466,0.58593225479126,-0.511089324951172,-3.31385684013367,-3.56933069229126,-2.57669758796692,-0.407677471637726
72,sampled_images/20181126_depthmap_0811_1285_01_004.png,6,0,0,8556.091933,-11295.155122,-1117.69324637545,0,1,23.3073476502306,153.123162645693,0.039738975465298,-5.60035228729248,6.48601722717285,3.26553535461426,-3.8695604801178,3.90897417068481,-9.05511569976807,-2.12541842460632,9.84107398986816
73,sampled_images/20181126_depthmap_0877_1389_01_004.png,6,0,0,8159.931933,-10671.035122,-1114.9821398357,0,1,23.3037747144583,153.129266963719,0.007326507009566,0.406044870615006,4.43942308425903,3.17719125747681,-1.90726029872894,0.570352733135223,-4.69608974456787,-1.69276762008667,4.27404117584229
74,sampled_images/20181126_depthmap_1039_1645_01_004.png,6,0,0,7188.071933,-9134.795122,-1105.70857224881,0,1,23.2950085963442,153.144291029367,0.001838282682002,0.44306606054306,0.270907133817673,2.54878830909729,-1.27563154697418,-5.50781583786011,-1.68112206459045,0.553358972072601,0.95966112613678
75,sampled_images/20181126_depthmap_0725_1149_01_004.png,6,0,0,9071.791933,-12110.975122,-1128.50917620797,0,1,23.3119983225173,153.115182897599,0.00287088053301,3.44899654388428,0.825416922569275,3.65859770774841,0.168162316083908,1.01551973819733,-3.24269342422485,-3.36389207839966,1.64615964889526
76,sampled_images/20181126_depthmap_0860_1364_01_004.png,6,0,0,8261.751933,-10820.855122,-1117.77752917075,0,1,23.3046931138408,153.127801603927,0.001147656235844,-3.62473678588867,-1.57965970039368,3.37722659111023,-1.43659615516663,-4.39320850372314,-2.21815896034241,0.51247501373291,-3.04177403450012
77,sampled_images/20181126_depthmap_0782_1239_01_004.png,6,0,0,8730.071933,-11571.115122,-1122.52415533753,0,1,23.3089166729336,153.120463474505,0.000258338084677,-0.776707172393799,0.105360873043537,-3.32636570930481,3.71198081970215,-0.731280267238617,-1.08321523666382,-1.67476952075958,1.45789909362793
78,sampled_images/20181126_depthmap_0149_0237_01_004.png,6,0,0,12527.851933,-17582.835122,-1039.65046823224,0,1,23.343154997763,153.061646923537,0.004002342466265,0.842524886131287,2.09653902053833,2.44415163993835,-0.997882664203644,0.293833166360855,-3.57944774627686,-3.40278053283691,4.52234745025635
79,sampled_images/20181126_depthmap_1054_1670_01_004.png,6,0,0,7097.731933,-8985.015122,-1115.7946745843,0,1,23.294193699316,153.145755711216,0.000914887408726,3.40648603439331,1.54518723487854,-1.53524553775787,1.46453452110291,2.50225257873535,-4.1728687286377,-0.620492696762085,-0.779004096984863
80,sampled_images/20181126_depthmap_0425_0676_01_004.png,6,0,0,10871.991933,-14949.175122,-1076.41431683978,0,1,23.3282297020191,153.087417347631,0.10620754212141,-6.03606224060059,6.92899990081787,1.58333766460419,-4.21879768371582,7.77301073074341,-13.2353887557983,-7.5876784324646,15.6220703125
81,sampled_images/20181126_depthmap_0026_0040_01_004.png,6,0,0,13265.911933,-18764.975122,-1025.12721696165,0,1,23.3498061105957,153.050077853138,2.6502621039981E-05,-0.963585078716278,-2.52658438682556,-3.89435958862305,2.60339069366455,2.2568199634552,0.940755486488342,3.08784627914429,-3.73782324790955
82,sampled_images/20181126_depthmap_0563_0896_01_004.png,6,0,0,10043.871933,-13629.155122,-1100.15866974554,0,1,23.3207637537792,153.100331597145,0.001492179231718,2.53969073295593,-2.19286417961121,0.021892096847296,1.91439878940582,0.066764920949936,-4.08200788497925,-3.07429242134094,-0.370134860277176
83,sampled_images/20181126_depthmap_0359_0572_01_004.png,6,0,0,11267.751933,-15573.175122,-1062.43029944351,0,1,23.3317973758295,153.081311976986,0.001874573994428,1.17190492153168,0.687481164932251,1.89896297454834,-0.665173053741455,-3.74395489692688,-2.38840103149414,-2.78249859809875,2.35811495780945
84,sampled_images/20181126_depthmap_0606_0964_01_004.png,6,0,0,9786.011933,-13220.915122,-1120.00348821964,0,1,23.318438764275,153.104325285678,0.000786830438301,-2.49470329284668,-4.0789270401001,-0.122841618955135,-2.04638338088989,-0.434840470552444,-4.48606252670288,0.260595291852951,1.17167627811432
85,sampled_images/20181126_depthmap_0863_1368_01_004.png,6,0,0,8243.991933,-10797.095122,-1111.0060884656,0,1,23.3045329069971,153.128034008616,0.008422723971307,0.201001092791557,5.12184000015259,3.24932861328125,-3.080491065979,0.23223190009594,-5.15592050552368,-1.85547113418579,5.64131355285645
86,sampled_images/20181126_depthmap_0614_0977_01_004.png,6,0,0,9737.811933,-13142.995122,-1122.8799267162,0,1,23.3180041714198,153.105087528906,0.001144589739852,-0.722949326038361,-2.75094127655029,2.59509873390198,0.539381623268127,0.041505876928568,-4.53845977783203,3.85708427429199,-3.47201323509216
87,sampled_images/20181126_depthmap_0774_1227_01_004.png,6,0,0,8777.971933,-11642.835122,-1130.56757108349,0,1,23.3093486766638,153.119761948541,0.001349877915345,2.97644710540771,0.616278231143951,-1.2461359500885,-1.68814945220947,0.548637628555298,-5.83847665786743,-1.33402359485626,-1.51981687545776
88,sampled_images/20181126_depthmap_1073_1698_01_004.png,6,0,0,6983.791933,-8816.795122,-1106.54472003932,0,1,23.293165791707,153.147400767085,0.001441684551537,0.105756536126137,-1.01602447032928,0.021616786718369,-2.28892421722412,-4.79430437088013,-3.18560338020325,-2.23555040359497,-3.19422459602356
89,sampled_images/20181126_depthmap_0971_1537_01_004.png,6,0,0,7595.951933,-9783.155122,-1110.81311173227,0,1,23.2986878048612,153.137950475605,0.000161673990078,-0.613924384117126,-1.61076927185059,-3.61986112594604,4.23352003097534,-1.63132977485657,0.936257183551788,1.31566536426544,0.435557454824448
90,sampled_images/20181126_depthmap_0738_1172_01_004.png,6,0,0,8993.931933,-11972.955122,-1117.15002347081,0,1,23.3112963023059,153.11653287194,0.00202732370235,4.39417028427124,-0.52177906036377,2.66605544090271,-0.357745975255966,-2.10062718391418,-4.10222005844116,0.063715152442455,0.039683319628239
91,sampled_images/20181126_depthmap_0946_1499_01_004.png,6,0,0,7745.931933,-10010.875122,-1109.97002449754,0,1,23.3000406726435,153.13572338997,0.002718579024076,3.21246457099915,1.26953017711639,2.93755197525024,1.49255990982056,1.50528025627136,-3.70712494850159,-3.60884165763855,1.24480473995209
92,sampled_images/20181126_depthmap_0768_1217_01_004.png,6,0,0,8813.951933,-11702.955122,-1130.17058272789,0,1,23.3096731288436,153.119173916204,0.001633010455407,2.45373845100403,-2.08475470542908,0.466270565986633,-5.29362344741821,-2.94159603118896,-2.45283555984497,0.583140671253204,2.35675549507141
93,sampled_images/20181126_depthmap_0165_0263_01_004.png,6,0,0,12432.011933,-17426.935122,-1042.96733938182,0,1,23.3422912864036,153.063172543456,0.00018558591546,3.80044102668762,-3.41630983352661,-4.58634948730469,2.90141534805298,1.74860894680023,-0.526469469070435,-0.523357152938843,-1.7400928735733
94,sampled_images/20181126_depthmap_0909_1440_01_004.png,6,0,0,7967.731933,-10365.155122,-1117.50562304011,0,1,23.3020412106822,153.132258545893,9.31503745960072E-05,-0.520956873893738,-1.760666847229,-0.153492838144302,2.57528471946716,-3.28668212890625,1.56566858291626,6.97984743118286,-1.25394022464752
95,sampled_images/20181126_depthmap_0415_0661_01_004.png,6,0,0,10932.091933,-15039.095122,-1070.19881470909,0,1,23.3287715479023,153.086537537613,4.73100699309725E-05,-3.79228520393372,-1.14542424678803,-2.29373407363892,-0.932060480117798,2.9237859249115,1.32643830776215,5.10222911834717,-1.57971632480621
96,sampled_images/20181126_depthmap_0928_1470_01_004.png,6,0,0,7853.951933,-10184.835122,-1112.30271595868,0,1,23.3010149661918,153.134022087102,0.000199891233933,2.82245206832886,0.70149165391922,-4.22493171691895,-2.1541256904602,1.90234375,1.66711401939392,-2.62039279937744,0.269118845462799
97,sampled_images/20181126_depthmap_0465_0740_01_004.png,6,0,0,10631.991933,-14564.815122,-1089.83671704529,0,1,23.3260660996281,153.091177822971,0.005907972343266,0.312506049871445,4.1660590171814,3.674320936203,-2.17996764183044,0.358883649110794,-4.62968730926514,-2.01426672935486,4.77941846847534
98,sampled_images/20181126_depthmap_0964_1527_01_004.png,6,0,0,7637.731933,-9843.175122,-1109.97475343877,0,1,23.2990646975927,153.137363473967,0.000231840836932,-0.397283583879471,1.31986808776855,-5.40875864028931,-0.659890353679657,-0.897419989109039,-1.43361353874207,0.262431234121323,0.239959165453911
99,sampled_images/20181126_depthmap_0251_0401_01_004.png,6,0,0,11916.031933,-16599.095122,-1036.87221012872,0,1,23.3376408923955,153.071273440781,0.010996828787029,-1.78117823600769,5.74433755874634,3.89294934272766,-3.09582114219666,1.55998241901398,-5.93404769897461,-0.831724226474762,6.19675540924072
100,sampled_images/20181126_depthmap_0755_1197_01_004.png,6,0,0,8891.731933,-11822.935122,-1132.1664419626,0,1,23.3103745798426,153.11800033944,0.00563654396683,0.254573613405228,4.53793954849243,3.20194125175476,-1.89500498771667,-0.566969692707062,-4.00609827041626,-3.17008638381958,4.70624542236328
101,sampled_images/20181126_depthmap_0258_0411_01_004.png,6,0,0,11873.931933,-16539.095122,-1041.65050548444,0,1,23.3372613610916,153.071860605342,0.000290050229523,1.98175883293152,2.78212809562683,-4.33577489852905,0.977597951889038,1.37006461620331,-0.628824532032013,0.457339257001877,2.43596768379211
102,sampled_images/20181126_depthmap_0356_0568_01_004.png,6,0,0,11286.011933,-15596.995122,-1065.49242868653,0,1,23.3319620264979,153.081078877261,0.000403619545978,-1.85060751438141,2.61451101303101,4.18060445785522,1.40884554386139,3.05974626541138,2.19468951225281,-0.425636678934097,-4.31556177139282
103,sampled_images/20181126_depthmap_0400_0637_01_004.png,6,0,0,11021.751933,-15182.895122,-1069.04722390803,0,1,23.3295798002856,153.085130595995,0.000862356333528,1.27280354499817,1.97200727462769,-1.64193105697632,-0.59527188539505,4.52599573135376,-4.47659826278687,-1.37060225009918,-2.23470711708069
104,sampled_images/20181126_depthmap_0134_0215_01_004.png,6,0,0,12617.851933,-17714.935122,-1038.93927795363,0,1,23.3439662199979,153.060354089358,0.000176449306309,2.59138083457947,2.00238823890686,4.55549335479736,-0.186346054077148,-0.821345746517181,4.52073621749878,4.09712171554565,0.420628637075424
105,sampled_images/20181126_depthmap_0787_1247_01_004.png,6,0,0,8699.771933,-11522.915122,-1121.95449795186,0,1,23.3086434195185,153.120934923715,0.003475062549114,1.94373297691345,2.82168316841125,3.02116274833679,-2.19224548339844,-4.00516223907471,-2.35941767692566,-2.27438235282898,1.76002645492554
106,sampled_images/20181126_depthmap_0026_0042_01_004.png,6,0,0,13266.031933,-18753.035122,-1025.1877009788,0,1,23.3498073309366,153.050194616299,7.57812813390046E-05,-5.98991870880127,-2.31433701515198,-0.981177151203156,-2.37750124931335,0.94409054517746,3.34445095062256,2.74833178520203,-2.10070562362671
107,sampled_images/20181126_depthmap_0446_0709_01_004.png,6,0,0,10746.071933,-14750.955122,-1089.78967599755,0,1,23.3270945124029,153.089356715151,0.030697599053383,-4.03863382339478,6.6060938835144,3.56672549247742,-3.92378926277161,2.73641204833984,-7.98700284957886,-1.43626439571381,8.72737789154053
108,sampled_images/20181126_depthmap_0095_0153_01_004.png,6,0,0,12851.731933,-18087.055122,-1022.33491102771,0,1,23.3460739471636,153.056712382046,0.01111592259258,-2.35192394256592,3.91604685783386,2.23781132698059,-2.2151505947113,1.21816432476044,-5.52794647216797,-2.93605661392212,8.28664302825928
109,sampled_images/20181126_depthmap_0088_0141_01_004.png,6,0,0,12894.051933,-18159.075122,-1024.12851784188,0,1,23.3464552739686,153.056007589172,0.001684646122158,2.12876868247986,-0.015009023249149,-1.90248560905457,-0.234647929668426,-1.00306868553162,-4.61150789260864,-2.94696140289307,-0.196724221110344
110,sampled_images/20181126_depthmap_0964_1528_01_004.png,6,0,0,7637.971933,-9836.895122,-1109.47597304558,0,1,23.2990669023224,153.137424863227,0.000665464263875,-1.9275199174881,1.01078963279724,-1.18509447574615,-2.82612991333008,-3.12564277648926,-3.66371631622314,0.461291700601578,1.66036248207092
111,sampled_images/20181126_depthmap_0707_1123_01_004.png,6,0,0,9179.831933,-12267.175122,-1127.22783292398,0,1,23.3129727040692,153.113654926167,0.007997008040547,0.371819227933884,4.80144834518433,3.3610360622406,-2.77797889709473,-0.461103677749634,-4.27908992767334,-1.74966144561768,5.51020193099976
112,sampled_images/20181126_depthmap_0735_1165_01_004.png,6,0,0,9012.091933,-12014.895122,-1119.78518946997,0,1,23.3114599705684,153.116122701694,0.001244100276381,0.854956209659576,0.669625222682953,-0.01748712733388,2.79518675804138,-0.077396333217621,-5.77335596084595,1.88676965236664,-4.26328659057617
113,sampled_images/20181126_depthmap_0742_1178_01_004.png,6,0,0,8969.911933,-11937.075122,-1122.88958685389,0,1,23.3110796762415,153.116883841874,0.063034199178219,-7.69347715377808,6.7208743095398,3.14186692237854,-4.42853403091431,5.25733184814453,-10.4939775466919,-2.11702966690063,10.9102554321289
114,sampled_images/20181126_depthmap_0564_0897_01_004.png,6,0,0,10037.791933,-13623.175122,-1099.35247112537,0,1,23.3207089044766,153.100390119399,0.002398599172011,3.1144552230835,0.271153271198273,2.40074944496155,1.36037445068359,-2.4369261264801,-3.49893355369568,-2.99251651763916,-0.28583750128746
115,sampled_images/20181126_depthmap_0747_1185_01_004.png,6,0,0,8939.891933,-11895.015122,-1131.3406659698,0,1,23.310808917457,153.117295276333,0.000231508151046,0.96128898859024,-2.2682511806488,3.67945122718811,-2.75537157058716,3.11016058921814,3.09331917762756,0.07931911200285,2.42585945129395
116,sampled_images/20181126_depthmap_0623_0989_01_004.png,6,0,0,9683.791933,-13071.035122,-1117.31249931537,0,1,23.3175169759257,153.105791546804,0.00638710334897,1.11256968975067,4.26413011550903,3.45207142829895,-2.55111837387085,-1.30114674568176,-3.63612174987793,-1.96928560733795,4.90651798248291
117,sampled_images/20181126_depthmap_0162_0260_01_004.png,6,0,0,12449.951933,-17445.015122,-1041.04144750671,0,1,23.3424530813722,153.062995536874,0.001018045819364,-0.709030568599701,2.23913407325745,-2.85922002792358,0.147655725479126,2.89743423461914,-5.22113513946533,0.123237296938896,-1.74359309673309
118,sampled_images/20181126_depthmap_1077_1705_01_004.png,6,0,0,6959.971933,-8774.875122,-1101.82529343733,0,1,23.292950933917,153.147810680467,0.0026352587156,2.95967555046082,0.452968090772629,2.8336980342865,1.05281019210815,-2.52720856666565,-3.00452208518982,-3.25969266891479,-1.0355144739151
119,sampled_images/20181126_depthmap_0384_0613_01_004.png,6,0,0,11117.831933,-15327.055122,-1066.44985440683,0,1,23.3304460053995,153.083720052336,0.000881793326698,1.90666878223419,-0.367211014032364,-1.33441805839539,3.07987666130066,-0.559280872344971,-4.6238374710083,-2.74020266532898,0.479433506727219
120,sampled_images/20181126_depthmap_0852_1351_01_004.png,6,0,0,8310.111933,-10898.895122,-1116.49867095721,0,1,23.3051292623936,153.127038335802,0.002972430083901,1.18906509876251,2.98524117469788,2.69829249382019,-0.063328929245472,-1.16509294509888,-2.70795106887817,-4.09343147277832,2.13260531425476
121,sampled_images/20181126_depthmap_0318_0508_01_004.png,6,0,0,11514.011933,-15956.815122,-1048.64862347547,0,1,23.3340172693286,153.077558155664,0.000586228212342,-0.112351611256599,0.476521164178848,-4.6891827583313,-2.57407999038696,1.12916874885559,-3.20792865753174,-0.770813465118408,0.979892253875732
122,sampled_images/20181126_depthmap_0580_0923_01_004.png,6,0,0,9942.071933,-13467.055122,-1097.63536877003,0,1,23.3198458960965,153.101917383808,0.004397389944643,1.24391627311707,4.73439502716064,4.81318283081055,-1.71521711349487,-0.503893971443176,-3.6366274356842,-1.69946432113647,2.15985798835754
123,sampled_images/20181126_depthmap_0306_0489_01_004.png,6,0,0,11585.831933,-16071.035122,-1049.22918706976,0,1,23.3346646455999,153.076440533447,0.000532494392246,-0.158054754137993,2.39251494407654,-2.14876365661621,3.64394330978394,1.98356938362122,-4.02590084075928,0.135504260659218,0.378170311450958
124,sampled_images/20181126_depthmap_0273_0435_01_004.png,6,0,0,11784.031933,-16394.875122,-1045.92867717977,0,1,23.3364510666913,153.073271817197,0.003734817029908,3.05711913108826,3.69023013114929,1.26765596866608,-2.88019728660583,-0.856195151805878,-5.32944297790527,-1.62793922424316,0.255221515893936
125,sampled_images/20181126_depthmap_0517_0822_01_004.png,6,0,0,10319.951933,-14073.035122,-1089.07758761251,0,1,23.323252850937,153.095989135876,0.002334684599191,3.08077692985535,0.920166611671448,-1.09606206417084,-2.78657412528992,-3.37622094154358,-5.15530729293823,-1.64988148212433,-1.16091620922089
126,sampled_images/20181126_depthmap_0361_0577_01_004.png,6,0,0,11255.991933,-15543.035122,-1059.7476254163,0,1,23.3316914760128,153.08160680613,0.001120606553741,1.50537765026093,-0.637737989425659,-1.51551735401154,-0.447508722543716,-3.34306693077087,-3.94610190391541,-1.93432939052582,-0.693492531776428
127,sampled_images/20181126_depthmap_0824_1307_01_004.png,6,0,0,8478.091933,-11163.155122,-1115.36776646517,0,1,23.306644255465,153.124453679965,0.001784820226021,3.37415456771851,1.60844445228577,1.62227785587311,2.29538774490356,-1.66385889053345,-4.24018049240112,-2.10536980628967,-0.999617099761963
128,sampled_images/20181126_depthmap_0613_0975_01_004.png,6,0,0,9744.051933,-13155.155122,-1121.68653091303,0,1,23.3180604176483,153.1049685866,0.005758215207607,-0.50573468208313,2.89830207824707,3.75110197067261,0.06334038078785,1.67345952987671,-4.28465509414673,-3.90240168571472,4.23204565048218
129,sampled_images/20181126_depthmap_0167_0267_01_004.png,6,0,0,12420.051933,-17402.835122,-1043.40631704166,0,1,23.3421835510318,153.063408348736,5.9709360357374E-05,1.20083522796631,-1.93025851249695,1.83845853805542,-3.14447546005249,0.74791544675827,2.6145224571228,6.29768991470337,-3.89543628692627
130,sampled_images/20181126_depthmap_1032_1634_01_004.png,6,0,0,7229.971933,-9200.915122,-1104.93330914511,0,1,23.2953865624474,153.143644431369,0.000460116862087,2.12046003341675,-0.672555029392242,-5.80167961120606,-0.2805115878582,2.86692023277283,-2.99447107315063,-1.79701554775238,0.09437882900238
131,sampled_images/20181126_depthmap_0642_1021_01_004.png,6,0,0,9569.911933,-12878.875122,-1122.48242106248,0,1,23.3164902229073,153.107671253372,0.000361813261406,-2.38000583648682,2.09480261802673,-0.748933434486389,1.45781195163727,1.02318108081818,1.33119714260101,-3.93964505195618,-2.07870101928711
132,sampled_images/20181126_depthmap_0868_1376_01_004.png,6,0,0,8214.031933,-10749.175122,-1105.38295705651,0,1,23.304262698735,153.128502687282,0.00327383633703,2.00875306129456,2.51904010772705,3.64878487586975,-1.23047626018524,-3.77718567848206,-2.42942214012146,-2.63945865631104,1.3905748128891
133,sampled_images/20181126_depthmap_0302_0483_01_004.png,6,0,0,11610.031933,-16106.975122,-1048.65689684623,0,1,23.3348828045169,153.076088847707,0.00058777857339,1.95304977893829,-1.60495293140411,2.55809307098389,4.44493341445923,2.39914011955261,-1.87992751598358,-1.9699147939682,-2.756991147995
134,sampled_images/20181126_depthmap_0166_0266_01_004.png,6,0,0,12425.891933,-17409.115122,-1042.89607446343,0,1,23.3422362159922,153.063346871064,0.000837205909193,2.40330672264099,-0.16196696460247,-4.24676132202148,0.938814997673035,0.358727037906647,-4.67695331573486,-2.91794395446777,0.523259460926056
135,sampled_images/20181126_depthmap_0303_0484_01_004.png,6,0,0,11603.971933,-16101.075122,-1048.45631255153,0,1,23.3348281442524,153.076146603608,0.001729871961288,2.8578245639801,-0.066204108297825,1.84035980701447,2.48209929466248,-0.689778506755829,-4.6825098991394,0.157345071434975,-4.47767734527588
136,sampled_images/20181126_depthmap_0454_0722_01_004.png,6,0,0,10697.791933,-14672.915122,-1084.46320294913,0,1,23.3266592720227,153.09012023026,0.007805622648448,-0.794447839260101,3.46231627464294,2.47055768966675,-2.12248492240906,0.868237018585205,-5.28838348388672,-3.07046341896057,5.97740840911865
137,sampled_images/20181126_depthmap_0739_1172_01_004.png,6,0,0,8987.911933,-11972.875122,-1117.91012063264,0,1,23.3112419455507,153.116533701641,0.005355719476938,1.69382894039154,3.3074905872345,2.78053641319275,-1.97573864459991,-0.446219861507416,-3.73218750953674,-2.43738579750061,3.58371615409851
138,sampled_images/20181126_depthmap_0810_1285_01_004.png,6,0,0,8561.791933,-11294.855122,-1116.68541873932,0,1,23.3073991202462,153.123165536065,0.001999122556299,3.60533881187439,-2.1724865436554,0.13437382876873,-0.04008811712265,-2.00734758377075,-2.23312950134277,-2.37927174568176,1.98070764541626
139,sampled_images/20181126_depthmap_0207_0331_01_004.png,6,0,0,12179.831933,-17019.155122,-1046.93217715019,0,1,23.3400185395859,153.067162956617,0.017383620142937,-1.73891830444336,5.44415235519409,3.43959665298462,-3.06692671775818,1.16653990745544,-6.1258807182312,-1.4417005777359,6.87919092178345
140,sampled_images/20181126_depthmap_0520_0826_01_004.png,6,0,0,10302.071933,-14049.075122,-1089.01617155775,0,1,23.323091610123,153.096223567404,0.000810304132756,1.12766218185425,1.05499732494354,-2.85450315475464,1.56190621852875,-1.20929551124573,-4.74008131027222,-1.65946114063263,-0.299104154109955
141,sampled_images/20181126_depthmap_0658_1046_01_004.png,6,0,0,9474.011933,-12729.055122,-1125.71256237945,0,1,23.3156254684971,153.109136830419,0.001594362547621,2.94661259651184,0.663442850112915,0.303528159856796,1.90397822856903,-1.01003420352936,-5.5129861831665,-1.33649039268494,-2.00398087501526
142,sampled_images/20181126_depthmap_0807_1278_01_004.png,6,0,0,8580.091933,-11336.875122,-1116.9104348531,0,1,23.3075640695939,153.122754602686,0.006477416027337,-0.659766376018524,4.61476039886475,3.67161798477173,-0.36333093047142,1.92337739467621,-5.44135284423828,-2.78896164894104,3.00889754295349
143,sampled_images/20181126_depthmap_0028_0045_01_004.png,6,0,0,13254.091933,-18734.915122,-1024.40159534311,0,1,23.3496997275228,153.050371964912,0.00060887116706,-6.3867654800415,1.67005228996277,4.33556842803955,-1.92802250385284,-0.302361696958542,-0.115001365542412,0.068116560578346,-2.89281821250916
144,sampled_images/20181126_depthmap_0045_0072_01_004.png,6,0,0,13151.971933,-18572.835122,-1023.30770500854,0,1,23.3487794932024,153.051958244786,0.003792554605752,-0.342475324869156,1.88392448425293,2.38373565673828,-0.940318167209625,-0.810290515422821,-2.40170407295227,-3.77481389045715,4.0632061958313
145,sampled_images/20181126_depthmap_0519_0826_01_004.png,6,0,0,10307.731933,-14048.995122,-1088.53393649446,0,1,23.3231427174252,153.096224297064,0.001498818048276,0.045098226517439,-1.26543486118317,3.18541240692139,-1.96973073482513,-4.88878440856934,-2.30637383460999,1.79232215881348,-1.68728184700012
146,sampled_images/20181126_depthmap_0291_0464_01_004.png,6,0,0,11676.071933,-16221.055122,-1046.60621125655,0,1,23.3354779815253,153.074972642099,0.002244332805276,1.30302608013153,1.95864295959473,2.01025867462158,-1.03747367858887,-3.89029407501221,-2.38695168495178,-3.46460437774658,0.883706867694855
147,sampled_images/20181126_depthmap_0706_1121_01_004.png,6,0,0,9186.031933,-12278.935122,-1128.74081922941,0,1,23.3130285986862,153.113539902892,0.004367360379547,1.74334025382996,3.80809736251831,3.62367916107178,-1.97468483448029,-0.542615413665772,-3.81356167793274,-2.18440628051758,2.1778028011322
148,sampled_images/20181126_depthmap_0516_0820_01_004.png,6,0,0,10325.991933,-14085.015122,-1092.26233180218,0,1,23.3233072858423,153.095871946883,0.011619086377323,-1.50474202632904,5.66214942932129,3.64896082878113,-3.16369032859802,2.06157684326172,-6.74089002609253,-1.34656059741974,6.39718294143677
149,sampled_images/20181126_depthmap_0358_0572_01_004.png,6,0,0,11273.971933,-15572.855122,-1063.93365354233,0,1,23.331853541873,153.081315041923,0.004218959249556,1.36181724071503,5.64173221588135,5.36550760269165,-1.15985190868378,-0.492756456136704,-3.72620320320129,-0.408627897500992,-0.169090896844864
150,sampled_images/20181126_depthmap_0053_0084_01_004.png,6,0,0,13104.031933,-18500.915122,-1025.84876675606,0,1,23.3483474385873,153.052662152275,0.009946529753506,-1.13757574558258,5.24604892730713,4.16446781158447,-2.27110719680786,1.60479271411896,-5.63117027282715,-1.98016047477722,5.53542804718018
151,sampled_images/20181126_depthmap_0433_0690_01_004.png,6,0,0,10823.771933,-14865.175122,-1083.01591819949,0,1,23.3277950670534,153.088239149958,0.000212463244679,0.291639149188995,6.16973781585693,2.29220986366272,2.99383759498596,-0.014639373868704,2.7328953742981,2.9444682598114,-1.6147278547287
152,sampled_images/20181126_depthmap_1034_1637_01_004.png,6,0,0,7218.031933,-9182.895122,-1104.26530869364,0,1,23.2952788513159,153.143820655331,0.000654277391732,-4.7473292350769,-1.78278374671936,1.74778819084167,-2.6288046836853,-1.74114191532135,-3.4049277305603,0.889740943908691,-0.831206798553467
153,sampled_images/20181126_depthmap_0840_1332_01_004.png,6,0,0,8381.931933,-11013.075122,-1108.45458083695,0,1,23.3057769962954,153.125921584688,0.000972909503616,0.667267858982086,-4.19583320617676,-0.631751775741577,-1.1791524887085,-3.03035044670105,-3.17732310295105,1.41601514816284,0.790341675281525
154,sampled_images/20181126_depthmap_0181_0289_01_004.png,6,0,0,12335.851933,-17271.175122,-1029.01963395878,0,1,23.3414246690854,153.064696778341,0.000804420211352,1.87220180034637,1.91799783706665,-3.10154128074646,-2.11712455749512,-0.996250152587891,-4.71141958236694,-1.93468403816223,-1.97990417480469
155,sampled_images/20181126_depthmap_0084_0135_01_004.png,6,0,0,12917.811933,-18195.015122,-1020.87687407388,0,1,23.3466694133644,153.055655844474,0.000722541240975,2.41480183601379,-0.317857563495636,-3.16248965263367,-0.376957714557648,0.36684188246727,-5.6077299118042,-2.2944872379303,-0.393483370542526
156,sampled_images/20181126_depthmap_0232_0371_01_004.png,6,0,0,12029.831933,-16778.875122,-1037.27830214492,0,1,23.3386666075255,153.069514217051,0.002074480056763,2.01640200614929,-0.325999081134796,3.37183356285095,-2.5111973285675,-4.39089488983154,-1.73676586151123,-1.78733777999878,-1.26903712749481
157,sampled_images/20181126_depthmap_0038_0060_01_004.png,6,0,0,13193.811933,-18645.095122,-1023.8269648535,0,1,23.3491564614638,153.05125108305,0.007671154569834,0.348209530115128,5.47425556182861,4.67869091033936,-2.47392249107361,-0.402579694986343,-3.88793301582336,-1.28235745429993,3.9576895236969
158,sampled_images/20181126_depthmap_1030_1632_01_004.png,6,0,0,7242.111933,-9212.795122,-1105.27826044975,0,1,23.2954961137495,153.14352822655,0.000401913363021,-0.671597838401794,2.52001953125,-2.31564831733704,-3.07831907272339,4.52113151550293,-2.07098174095154,0.311651051044464,2.55987739562988
159,sampled_images/20181126_depthmap_0046_0073_01_004.png,6,0,0,13145.751933,-18567.035122,-1024.87857477162,0,1,23.348723396192,153.052015040598,0.063650898635388,-6.69503736495972,6.11703538894653,3.24550628662109,-4.52361917495728,5.29975605010986,-10.6559162139893,-3.01027798652649,11.2489099502563
160,sampled_images/20181126_depthmap_0733_1164_01_004.png,6,0,0,9024.051933,-12020.995122,-1121.0325099138,0,1,23.3115679181875,153.11606297009,0.001073600491509,1.00416743755341,0.204084292054176,-0.445605278015137,3.64076161384583,-0.101809620857239,-4.60993671417236,-2.41700267791748,1.25985670089722
161,sampled_images/20181126_depthmap_0686_1089_01_004.png,6,0,0,9305.971933,-12470.795122,-1131.88287914131,0,1,23.3141101437055,153.111663172955,0.000153244734975,0.201401278376579,2.63365745544434,-1.34338128566742,2.43115592002869,-4.32663249969482,0.93992817401886,3.53916454315186,-1.54069983959198
162,sampled_images/20181126_depthmap_0866_1372_01_004.png,6,0,0,8225.991933,-10772.975122,-1105.91145069659,0,1,23.3043705350948,153.128269933814,0.000663565821014,-3.91165018081665,-2.53914880752563,-0.469782143831253,-2.49523067474365,0.638997256755829,-3.48499941825867,-2.4548921585083,0.881498157978058
163,sampled_images/20181126_depthmap_0567_0901_01_004.png,6,0,0,10019.951933,-13598.995122,-1099.13209276155,0,1,23.3205480199837,153.100626691791,0.00020914869674,1.93919885158539,0.833910167217254,2.08083033561707,-0.978484511375427,2.88820385932922,3.47907519340515,1.2956634759903,1.70512890815735
164,sampled_images/20181126_depthmap_0112_0179_01_004.png,6,0,0,12749.811933,-17931.155122,-1025.45286114842,0,1,23.3451553858662,153.058238139142,0.031562700867653,-3.13815879821777,6.43166017532349,3.05505967140198,-3.3304488658905,1.83089053630829,-7.66249895095825,-2.16801261901855,8.00648880004883
165,sampled_images/20181126_depthmap_0655_1040_01_004.png,6,0,0,9491.731933,-12764.795122,-1124.57305453007,0,1,23.3157851925392,153.108787257907,0.003663852345198,2.35694670677185,5.03045082092285,5.11467456817627,-1.77216041088104,-1.22058141231537,-3.64364409446716,-0.097218759357929,-1.26786935329437
166,sampled_images/20181126_depthmap_0506_0806_01_004.png,6,0,0,10386.051933,-14168.895122,-1088.06339424771,0,1,23.3238488709083,153.0950512593,0.023089421913028,-3.5112144947052,5.2181510925293,2.83496975898743,-3.74428653717041,2.36560702323914,-7.3144211769104,-1.98071825504303,8.75265979766846
167,sampled_images/20181126_depthmap_0406_0648_01_004.png,6,0,0,10986.011933,-15117.135122,-1069.57890890892,0,1,23.3292576965516,153.085773942486,0.00019481612253,3.2456636428833,0.143622756004334,-4.60568428039551,0.695235967636108,0.337019443511963,1.03068494796753,0.78760039806366,1.71024739742279
168,sampled_images/20181126_depthmap_0500_0796_01_004.png,6,0,0,10421.811933,-14228.935122,-1084.07331993214,0,1,23.3241712434484,153.094463887771,0.007340571843088,-1.2550972700119,5.30556631088257,4.18159437179565,-2.62010502815247,1.55635440349579,-5.67559289932251,-0.819370746612549,5.32841539382935
169,sampled_images/20181126_depthmap_0403_0642_01_004.png,6,0,0,11004.011933,-15153.055122,-1069.30358369337,0,1,23.3294198944701,153.085422543787,0.001015572459437,-1.37420928478241,-1.28686249256134,-1.19020128250122,-1.93490159511566,-3.8917293548584,-4.84387016296387,0.982805967330933,-0.237763464450836
170,sampled_images/20181126_depthmap_0638_1014_01_004.png,6,0,0,9593.771933,-12920.795122,-1121.73130767573,0,1,23.3167053357766,153.107261203333,0.00044164431165,0.817497909069061,1.47861504554749,-2.49240064620972,4.27378511428833,2.20821261405945,-2.37646746635437,0.449229210615158,1.48238241672516
171,sampled_images/20181126_depthmap_0412_0657_01_004.png,6,0,0,10949.991933,-15062.975122,-1068.39351603076,0,1,23.3289329553244,153.0863038665,0.002515172585845,2.19636559486389,0.598765790462494,1.8567841053009,-1.37311601638794,-3.72094798088074,-1.36970973014832,-2.75031781196594,2.79118323326111
172,sampled_images/20181126_depthmap_0642_1019_01_004.png,6,0,0,9570.071933,-12890.855122,-1122.27725911405,0,1,23.3164915734816,153.107554125086,0.001241768128239,3.80926561355591,-2.83518648147583,-3.73094081878662,1.23631346225739,1.34729373455048,-0.42644402384758,-3.00778150558472,0.780040740966797
173,sampled_images/20181126_depthmap_1091_1727_01_004.png,6,0,0,6875.831933,-8642.995122,-1115.44531935578,0,1,23.2921918923696,153.149100308721,0.000233737853705,0.092989176511765,-0.72886335849762,-5.88706016540527,0.023628318682313,0.788393914699554,-1.53900933265686,-0.333006650209427,0.71688187122345
174,sampled_images/20181126_depthmap_0727_1153_01_004.png,6,0,0,9059.771933,-12087.015122,-1126.523551305,0,1,23.3118899651958,153.115417239558,0.008438049815595,0.61889374256134,4.07445764541626,2.95269370079041,-3.31797528266907,-1.09240746498108,-4.31416606903076,-2.14800977706909,5.98408031463623
175,sampled_images/20181126_depthmap_0918_1454_01_004.png,6,0,0,7913.831933,-10280.895122,-1112.06723343988,0,1,23.3015550521183,153.13308262245,0.000747169309761,0.840633392333984,0.67637050151825,-5.00920152664185,-0.678962886333466,-0.219390064477921,-4.94021558761597,-1.3541134595871,0.471634835004806
176,sampled_images/20181126_depthmap_0280_0448_01_004.png,6,0,0,11741.931933,-16317.135122,-1050.49507401913,0,1,23.3360717045716,153.074032437743,0.000113431742648,3.93074178695679,3.0914204120636,0.66142725944519,1.94260096549988,-2.79951477050781,1.62029278278351,5.27364206314087,-2.27379083633423
177,sampled_images/20181126_depthmap_0393_0626_01_004.png,6,0,0,11064.011933,-15248.855122,-1068.27185670497,0,1,23.329960771339,153.084485225142,0.00259121414274,3.04204344749451,3.09989070892334,0.135949999094009,-2.01195621490479,-2.9066755771637,-4.36032629013062,-2.72552704811096,-0.38681036233902
178,sampled_images/20181126_depthmap_0848_1344_01_004.png,6,0,0,8333.871933,-10940.835122,-1115.83268629206,0,1,23.3053435234138,153.126628156803,0.001074683270417,0.595760226249695,0.827824890613556,-2.46305727958679,-0.830477178096771,-1.78032279014587,-4.17825317382813,-2.86993360519409,-2.1310179233551
179,sampled_images/20181126_depthmap_0945_1498_01_004.png,6,0,0,7751.891933,-10017.115122,-1110.41521263626,0,1,23.3000944502476,153.135662350347,0.000714817084372,1.57344222068787,-2.23824286460876,-2.72906064987183,2.16988945007324,2.80605816841125,-1.54717624187469,-2.39813208580017,1.78407263755798
180,sampled_images/20181126_depthmap_0592_0940_01_004.png,6,0,0,9869.731933,-13365.155122,-1107.94875425898,0,1,23.3191935399721,153.102914310396,0.002339574275538,2.0978410243988,1.85564875602722,1.09835612773895,0.702122449874878,-2.7919065952301,-3.50372314453125,-3.45380258560181,1.62742483615875
181,sampled_images/20181126_depthmap_0970_1537_01_004.png,6,0,0,7601.791933,-9782.915122,-1110.78692199237,0,1,23.2987405384497,153.137952784055,3.54670701199211E-05,-2.30383849143982,-1.38811874389648,-3.33460879325867,4.14488744735718,4.05968856811523,0.254291951656342,5.54016637802124,-2.74625182151794
182,sampled_images/20181126_depthmap_0429_0684_01_004.png,6,0,0,10847.891933,-14901.175122,-1078.68912405838,0,1,23.3280125299421,153.087886915602,0.001357597415335,3.13338732719421,-0.917918562889099,-1.79718482494354,0.162534892559051,-1.24324941635132,-4.29664707183838,-2.97414350509644,0.559874773025513
183,sampled_images/20181126_depthmap_1057_1673_01_004.png,6,0,0,7079.951933,-8967.175122,-1112.7516118539,0,1,23.2940332526019,153.145930206907,0.002133919624612,2.04579305648804,0.164327874779701,-0.923303484916687,-1.93407893180847,-1.20016241073608,-4.883385181427,-2.36339974403381,-2.48544955253601
184,sampled_images/20181126_depthmap_0214_0342_01_004.png,6,0,0,12138.071933,-16953.095122,-1047.9852776769,0,1,23.3396421566651,153.067809397449,0.012819651514292,-2.10029697418213,6.06072854995728,4.09277534484863,-3.20563149452209,2.49335622787476,-6.46928262710571,-0.674594044685364,5.84599113464356
185,sampled_images/20181126_depthmap_0802_1272_01_004.png,6,0,0,8610.071933,-11373.095122,-1116.21456015666,0,1,23.307834522221,153.122400282793,0.000107926221972,3.53094005584717,-3.77010369300842,-4.04186058044434,3.68166875839233,0.061764512211084,-0.556809604167938,0.079225622117519,-1.85032069683075
186,sampled_images/20181126_depthmap_0503_0799_01_004.png,6,0,0,10403.731933,-14210.935122,-1086.87194796502,0,1,23.3240081474037,153.094640051217,0.03312149643898,-5.56776905059814,6.06640529632568,2.97850036621094,-4.21037769317627,3.92440176010132,-9.29073619842529,-1.46910464763641,9.289381980896
187,sampled_images/20181126_depthmap_0851_1347_01_004.png,6,0,0,8315.991933,-10922.975122,-1118.13598183316,0,1,23.3051821955252,153.126802886183,0.000113444162707,0.713749408721924,0.369706064462662,2.45578956604004,2.44193863868713,-4.38702964782715,4.36448383331299,2.11230707168579,-2.20835590362549
188,sampled_images/20181126_depthmap_0865_1371_01_004.png,6,0,0,8232.031933,-10779.175122,-1107.03332496315,0,1,23.3044250323708,153.128209279694,0.004412182606757,1.3099662065506,2.41993689537048,2.83079719543457,-1.24185931682587,-3.92015933990479,-2.60856151580811,-1.73880016803741,2.21846079826355
189,sampled_images/20181126_depthmap_1061_1680_01_004.png,6,0,0,7055.831933,-8924.875122,-1110.3564806598,0,1,23.2938156919138,153.14634384165,0.012795918621123,-2.21078562736511,5.31101942062378,4.05568933486939,-2.558673620224,2.76948070526123,-6.40720510482788,-1.1160546541214,5.71939945220947
190,sampled_images/20181126_depthmap_0235_0374_01_004.png,6,0,0,12011.831933,-16760.875122,-1038.32397563012,0,1,23.3385042624538,153.069690429121,0.001450236421078,3.6427276134491,-3.636878490448,-2.20991230010986,1.25989484786987,-1.54126417636871,-2.9502637386322,-2.24434351921082,1.62031280994415
191,sampled_images/20181126_depthmap_0294_0470_01_004.png,6,0,0,11658.031933,-16185.175122,-1053.27460376909,0,1,23.335315445753,153.07532367862,0.001028319005854,-0.590471208095551,-0.973450720310211,3.88527131080627,-1.18805694580078,1.45264077186584,-3.63414311408997,3.23547744750977,-6.13999080657959
192,sampled_images/20181126_depthmap_0477_0759_01_004.png,6,0,0,10559.971933,-14451.175122,-1090.02593456978,0,1,23.3254168057837,153.092289633178,0.003198026446626,2.51509642601013,0.700324058532715,-1.26724410057068,0.707862436771393,0.53139466047287,-4.53063344955444,-3.20903372764587,2.96737718582153
193,sampled_images/20181126_depthmap_0688_1092_01_004.png,6,0,0,9294.071933,-12453.135122,-1131.24357717891,0,1,23.3140028274085,153.111835927308,0.000740274961572,1.94604277610779,1.86309695243835,-2.58958435058594,0.671975672245026,0.85510379076004,-5.3595461845398,-3.04161739349365,-2.57773590087891
194,sampled_images/20181126_depthmap_0408_0651_01_004.png,6,0,0,10973.871933,-15098.875122,-1069.66558822374,0,1,23.3291482476586,153.085952606183,0.001832857029513,2.6708083152771,-2.05901861190796,-2.50884914398193,1.11864769458771,1.34255182743073,-4.23885202407837,-1.20186245441437,1.64391422271729
195,sampled_images/20181126_depthmap_1041_1648_01_004.png,6,0,0,7175.851933,-9117.155122,-1106.90980650099,0,1,23.2948983541115,153.14446353938,0.002091378439218,2.15074944496155,0.450217336416245,1.19112050533295,1.3240487575531,-2.21938991546631,-3.8422749042511,-1.99358344078064,0.36290842294693
