,relative_path,altitude [m],roll [deg],pitch [deg],northing [m],easting [m],depth [m],heading [deg],timestamp [s],latitude [deg],longitude [deg],recon_loss,latent_0,latent_1,latent_2,latent_3,latent_4,latent_5,latent_6,latent_7
0,sampled_images/20181129_depthmap_0704_0322_01_004.png,6,0,0,-16463.759096,13732.545887,-1161.50107886144,0,1,23.0814101437695,153.36761363355498,0.0006813803338445723,-3.2285690307617188,-0.27381399273872375,-2.446695566177368,-2.335536479949951,-1.0322821140289307,1.2089602947235107,4.640752792358398,-0.6194299459457397
1,sampled_images/20181129_depthmap_0963_0151_01_004.png,6,0,0,-18017.499096,12706.725887,-1175.18071723751,0,1,23.0673884720322,153.357588981813,0.0004069694841746241,-3.3094699382781982,-1.7527997493743896,4.336752414703369,1.1813275814056396,0.26192522048950195,3.0726373195648193,1.8484019041061401,-1.4125511646270752
2,sampled_images/20181129_depthmap_0560_0417_01_004.png,6,0,0,-15599.719096,14302.605887,-1177.00544019588,0,1,23.08920735546789,153.373185354368,0.0003765661094803363,3.7254414558410645,-0.2037181854248047,0.05887655168771744,-3.3999693393707275,0.1896834820508957,0.22855815291404724,0.9627978801727295,-2.814661979675293
3,sampled_images/20181129_depthmap_0265_0613_01_004.png,6,0,0,-13829.799096,15478.425887,-1210.11490663652,0,1,23.105178625039606,153.384679636444,4.5939115807414055e-05,-2.3736746311187744,2.293653726577759,-3.6783182621002197,1.6861367225646973,0.0611746683716774,-0.4148077070713043,-3.42673397064209,-4.096033096313477
4,sampled_images/20181129_depthmap_0547_0427_01_004.png,6,0,0,-15521.539096,14362.505887,-1181.52439131691,0,1,23.089912779874602,153.373770731473,0.0006508880760520697,-1.6370043754577637,-0.6718617677688599,3.6101908683776855,-2.105356216430664,-1.2176188230514526,2.964141607284546,2.9229719638824463,-1.8676036596298218
5,sampled_images/20181129_depthmap_0906_0189_01_004.png,6,0,0,-17675.619096000002,12934.345887,-1170.34012587221,0,1,23.0704737986978,153.35981315556,0.0001774185075191781,0.6655086874961853,1.1432390213012695,-0.6033762693405151,-4.670048713684082,-3.2392613887786865,-1.1261188983917236,-3.95516300201416,-1.6406960487365723
6,sampled_images/20181129_depthmap_0965_0151_01_004.png,6,0,0,-18029.739096,12706.505887,-1175.4660144040402,0,1,23.0672779497509,153.357586733594,7.643765275133774e-05,-3.1937310695648193,1.8025107383728027,-4.197042942047119,2.1662776470184326,-1.106459379196167,-1.0184853076934814,-4.582440376281738,-2.0945277214050293
7,sampled_images/20181129_depthmap_0329_0570_01_004.png,6,0,0,-14213.719096,15220.345887,-1201.98052530426,0,1,23.101714339754,153.382156575571,0.0006670911679975688,-1.769257664680481,0.1666124314069748,2.1250593662261963,0.26221489906311035,-1.9278470277786255,5.024214744567871,1.0417159795761108,-1.549130916595459
8,sampled_images/20181129_depthmap_0159_0683_01_004.png,6,0,0,-13193.599096,15898.405887,-1178.27711896144,0,1,23.1109193280154,153.388785872195,0.002924576634541154,-4.1027069091796875,2.2953848838806152,4.553778171539307,-1.8149322271347046,2.113878011703491,-3.5736331939697266,-3.9447643756866455,2.938814878463745
9,sampled_images/20181129_depthmap_0350_0556_01_004.png,6,0,0,-14339.779096,15136.485887,-1202.01580493429,0,1,23.1005768255547,153.38133675219402,2.22969119931804e-05,-1.0843095779418945,-1.0215717554092407,-2.2099688053131104,-0.007163503207266331,2.2269740104675293,3.009556770324707,-0.9039385318756104,-6.0091118812561035
10,sampled_images/20181129_depthmap_1017_0117_01_004.png,6,0,0,-18341.739096,12502.585887,-1182.96979090591,0,1,23.0644622203238,153.355594184277,4.839652683585882e-05,-1.5162519216537476,-2.043414831161499,-1.7180657386779785,-0.23890377581119537,2.4394490718841553,2.875762462615967,-0.8542897701263428,-5.877270221710205
11,sampled_images/20181129_depthmap_0849_0226_01_004.png,6,0,0,-17333.579096,13156.385887,-1168.88684276598,0,1,23.073560581420804,153.361982975858,0.00038428109837695956,1.145135760307312,-3.3760929107666016,0.6547070741653442,0.5409064292907715,-2.437685251235962,3.0960865020751953,1.5595356225967407,-1.5857081413269043
12,sampled_images/20181129_depthmap_0756_0288_01_004.png,6,0,0,-16775.659096,13528.665887,-1169.65236805556,0,1,23.0785954503464,153.365621057728,0.0002791658043861389,-2.5995757579803467,-4.47967004776001,3.3879384994506836,2.8520662784576416,-0.17728838324546814,-2.470647096633911,-1.5837783813476562,-0.7518261075019836
13,sampled_images/20181129_depthmap_0930_0174_01_004.png,6,0,0,-17819.839096,12844.545887,-1172.1101981627498,0,1,23.069172228278603,153.358935590513,0.000595014775171876,-2.5341975688934326,-1.2941763401031494,-0.8639730215072632,2.718214988708496,1.5465049743652344,-0.6424381732940674,3.530471086502075,-0.5221666097640991
14,sampled_images/20181129_depthmap_0918_0181_01_004.png,6,0,0,-17747.539096,12886.705887,-1171.22175028261,0,1,23.069824751065006,153.359347632976,0.00034952734131366014,3.3509793281555176,2.6632936000823975,1.0659542083740234,-1.0104544162750244,1.4350448846817017,3.9144649505615234,-1.3317606449127197,-1.954907774925232
15,sampled_images/20181129_depthmap_0917_0181_01_004.png,6,0,0,-17741.579096,12886.685887,-1171.78124193598,0,1,23.0698785684247,153.35934748782302,0.0019153213361278176,3.2759406566619873,-1.8470360040664673,-0.91121506690979,-1.123071312904358,1.7693564891815186,-3.262059450149536,-1.6955902576446533,3.8158082962036133
16,sampled_images/20181129_depthmap_0648_0359_01_004.png,6,0,0,-16127.779096,13954.525887,-1170.84788508712,0,1,23.084442093901306,153.36978316741101,0.0014302687486633658,-2.74477481842041,3.084148406982422,0.7398108839988708,3.799501895904541,4.925446033477783,-2.006535053253174,1.0666502714157104,-0.47086524963378906
17,sampled_images/20181129_depthmap_1092_0068_01_004.png,6,0,0,-18791.739096,12208.685887,-1177.0999276223,0,1,23.060401023898397,153.352722563184,0.0013664397411048412,-2.3433430194854736,1.9122108221054077,0.16694292426109314,5.621438980102539,2.580970525741577,-0.886563777923584,0.5552314519882202,-0.009686456993222237
18,sampled_images/20181129_depthmap_0388_0531_01_004.png,6,0,0,-14567.779096,14986.685887,-1191.97054428601,0,1,23.0985194178687,153.37987229996202,0.00426796730607748,-3.4120595455169678,0.9674790501594543,4.907736301422119,-5.016502380371094,3.2124195098876953,-1.8253895044326782,-2.0271449089050293,2.8985090255737305
19,sampled_images/20181129_depthmap_0721_0311_01_004.png,6,0,0,-16565.479096,13666.465887,-1164.95720990063,0,1,23.0804921868493,153.366967800663,0.00027782825054600835,-2.6712095737457275,-1.135991096496582,5.041567802429199,1.2954533100128174,0.7576860189437866,-3.7859818935394287,0.3028823137283325,-1.9725301265716553
20,sampled_images/20181129_depthmap_0160_0683_01_004.png,6,0,0,-13199.799096,15898.425887,-1178.6117747830401,0,1,23.1108633438449,153.388786003083,0.0008915066136978567,-0.4120331108570099,2.146272897720337,-1.0567474365234375,-1.7299078702926636,4.987948417663574,-5.6127753257751465,-1.262154459953308,0.11187682300806046
21,sampled_images/20181129_depthmap_0244_0627_01_004.png,6,0,0,-13703.539096,15562.705887,-1211.77906104944,0,1,23.106317922909106,153.385503617932,7.852222915971652e-05,-0.35793906450271606,0.7677060961723328,-2.3038737773895264,1.8547861576080322,-0.32431042194366455,-0.2001025527715683,-1.8908265829086304,-6.027014255523682
22,sampled_images/20181129_depthmap_0324_0574_01_004.png,6,0,0,-14183.499096,15244.585887,-1202.6848804998199,0,1,23.101986994025,153.382393488854,8.693286508787423e-05,-0.9214991927146912,-0.7519821524620056,-0.1896699070930481,-3.156522750854492,-1.8678277730941772,-4.798547267913818,-2.477107048034668,-3.1895198822021484
23,sampled_images/20181129_depthmap_0682_0337_01_004.png,6,0,0,-16331.759096000002,13822.725887,-1164.1133947115,0,1,23.0826013169466,153.368494960553,0.006353522185236216,-0.6073551774024963,3.9805517196655273,2.1989309787750244,2.048618793487549,5.013909339904785,1.6229666471481323,1.4187889099121094,3.4835925102233887
24,sampled_images/20181129_depthmap_0555_0422_01_004.png,6,0,0,-15569.539096,14332.645887,-1180.6120048928199,0,1,23.0894796125078,153.373478837319,0.008994347415864468,-4.409732818603516,1.376761794090271,0.21021893620491028,-2.1326708793640137,3.664966344833374,1.9533747434616089,2.0202114582061768,4.665450572967529
25,sampled_images/20181129_depthmap_0105_0718_01_004.png,6,0,0,-12869.819096,16108.665887,-1180.2152963156,0,1,23.113840923059502,153.390841816845,0.0008166370680555701,0.5389551520347595,1.5291649103164673,1.4365485906600952,-2.4340100288391113,4.703108787536621,-0.09599330276250839,3.9467897415161133,-3.553797721862793
26,sampled_images/20181129_depthmap_0065_0744_01_004.png,6,0,0,-12629.839096,16264.705887,-1171.0082319570402,0,1,23.116006337294106,153.392367646986,0.0014418219216167927,-0.31977611780166626,4.216965675354004,-0.6843307614326477,-1.1882920265197754,4.709611415863037,-1.593161940574646,3.7973222732543945,-1.3082753419876099
27,sampled_images/20181129_depthmap_0079_0736_01_004.png,6,0,0,-12713.539096,16216.505887,-1166.29898093024,0,1,23.115251026971002,153.391896218856,9.046528430189937e-05,-2.698005437850952,2.3550820350646973,-0.6263852715492249,0.5594667792320251,2.5470354557037354,1.8724722862243652,-6.221220970153809,-1.1131013631820679
28,sampled_images/20181129_depthmap_1006_0123_01_004.png,6,0,0,-18275.779096,12538.445887,-1182.4827777356402,0,1,23.065057551405395,153.35594466515698,3.553933493094519e-05,-0.7651214599609375,0.07091657817363739,-2.200998067855835,0.6328235268592834,-0.3663536310195923,1.0320059061050415,-0.4839484691619873,-6.673399448394775
29,sampled_images/20181129_depthmap_1130_0042_01_004.png,6,0,0,-19019.619096,12052.565887,-1177.85703865727,0,1,23.058344465992498,153.351197312712,3.70657435269095e-05,-2.511960744857788,0.8899368643760681,-3.319093942642212,1.1283259391784668,1.5825157165527344,1.9283894300460815,-1.8634028434753418,-4.376559257507324
30,sampled_images/20181129_depthmap_0361_0549_01_004.png,6,0,0,-14405.819096,15094.725887,-1199.90483588997,0,1,23.099980885855498,153.380928475443,0.00014961053966544569,1.979943037033081,-3.728245735168457,0.20953676104545593,-1.3823142051696777,-1.3129609823226929,-0.4413527250289917,-5.599379539489746,0.05994556099176407
31,sampled_images/20181129_depthmap_0151_0688_01_004.png,6,0,0,-13145.839096,15928.445887,-1176.0076200098802,0,1,23.111350296552402,153.389079616661,0.0060027725994586945,-6.598130702972412,0.6171349287033081,3.5727169513702393,-4.192591190338135,3.274331569671631,0.20315943658351898,-1.743293046951294,2.5206902027130127
32,sampled_images/20181129_depthmap_0689_0333_01_004.png,6,0,0,-16373.519096,13798.585887,-1166.12477222157,0,1,23.0822244371073,153.368258981593,0.00010412622941657901,-2.7570960521698,3.4301533699035645,-3.5556631088256836,-0.33930549025535583,-1.5812691450119019,-1.9579746723175049,-5.770320415496826,0.2883416712284088
33,sampled_images/20181129_depthmap_0813_0251_01_004.png,6,0,0,-17117.679096,13306.725887,-1170.7508778857,0,1,23.075508900085893,153.363452049402,0.00023169674386736006,-1.9565726518630981,-2.255840539932251,5.595334529876709,-1.1919479370117188,1.9136408567428589,1.9826840162277222,-1.2673677206039429,-1.7268569469451904
34,sampled_images/20181129_depthmap_1174_0014_01_004.png,6,0,0,-19283.519096,11884.385887,-1175.50397381991,0,1,23.055962727371305,153.349554148769,8.026473369682208e-05,-0.9188570380210876,-3.5922141075134277,-2.596322774887085,0.9537561535835266,-2.542177200317383,-4.199915409088135,-4.470202445983887,-1.0468719005584717
35,sampled_images/20181129_depthmap_0317_0579_01_004.png,6,0,0,-14141.659096,15274.665887,-1203.30099967778,0,1,23.102364519046503,153.382687524837,2.794796455418691e-05,-2.025228500366211,0.002130134729668498,-2.905120611190796,0.8314549922943115,0.634469211101532,2.5902345180511475,-0.7894370555877686,-5.848443984985352
36,sampled_images/20181129_depthmap_0643_0363_01_004.png,6,0,0,-16097.819096,13978.485887,-1172.33246879279,0,1,23.084712422242397,153.37001729018,0.0010438283206894994,-0.07879117876291275,1.61658775806427,-0.2989305853843689,5.083637237548828,3.716615915298462,-1.1961477994918823,2.34885835647583,-1.1249440908432007
37,sampled_images/20181129_depthmap_0339_0563_01_004.png,6,0,0,-14273.679096000002,15178.485887,-1201.9482965552,0,1,23.101173303716894,153.381747375841,8.878476364770904e-05,-2.5757460594177246,0.4482063353061676,-2.7339632511138916,1.1369892358779907,1.2103663682937622,1.6728230714797974,-1.5522021055221558,-5.152590751647949
38,sampled_images/20181129_depthmap_0074_0740_01_004.png,6,0,0,-12683.539096,16240.685887,-1169.7687550557598,0,1,23.115521679980997,153.392132587567,0.00023899060033727437,-1.399743676185608,0.9907364845275879,0.21663960814476013,-4.825953483581543,-4.08750581741333,0.9452774524688721,-1.2302805185317993,-1.1806775331497192
39,sampled_images/20181129_depthmap_0444_0495_01_004.png,6,0,0,-14903.539096,14770.605887,-1173.86353046631,0,1,23.095489547935802,153.377759903634,0.002387793269008398,-0.2625255286693573,3.1872518062591553,3.2413759231567383,-1.972368597984314,2.368367910385132,-5.589959144592285,-2.146440029144287,1.95736563205719
40,sampled_images/20181129_depthmap_0205_0652_01_004.png,6,0,0,-13469.539096,15712.605887,-1193.7202224339098,0,1,23.1084294525381,153.38696927861602,0.004268975928425789,-3.9701688289642334,-0.2700045108795166,2.0125362873077393,-4.457695007324219,3.8185198307037354,2.1117770671844482,-0.5473645925521851,3.1448025703430176
41,sampled_images/20181129_depthmap_0220_0642_01_004.png,6,0,0,-13559.799096,15652.425887,-1196.47999880926,0,1,23.107615003623,153.38638089538298,0.002618726110085845,-2.975903272628784,1.1624267101287842,1.1240270137786865,-2.3926758766174316,2.114414691925049,-5.034861087799072,-2.627171039581299,3.736599922180176
42,sampled_images/20181129_depthmap_0116_0712_01_004.png,6,0,0,-12935.739096,16072.385887,-1172.7102487096902,0,1,23.113246039765897,153.390486955287,0.009884717874228954,1.4933911561965942,2.6338744163513184,-1.8992860317230225,0.08940493315458298,7.1345672607421875,2.057236909866333,-0.007522929925471544,2.459421157836914
43,sampled_images/20181129_depthmap_0902_0191_01_004.png,6,0,0,-17651.539096,12946.465887,-1170.07990158855,0,1,23.0706911401018,153.35993163773998,3.498982187011279e-05,-4.1494526863098145,0.9779502749443054,-3.2085423469543457,2.1298940181732178,1.2213753461837769,1.7772427797317505,-2.4634547233581543,-4.250470161437988
44,sampled_images/20181129_depthmap_0345_0559_01_004.png,6,0,0,-14309.699096,15154.585887,-1202.06396801019,0,1,23.100848273131103,153.381513726748,5.293546200846322e-05,-1.304783582687378,-1.5825209617614746,-1.9299582242965698,0.5716860294342041,3.3727173805236816,2.610178232192993,-2.3908796310424805,-4.705621719360352
45,sampled_images/20181129_depthmap_0170_0676_01_004.png,6,0,0,-13259.679096,15856.605887,-1190.3013946764802,0,1,23.1103230479022,153.388377140256,0.0002820868685375899,-3.9358513355255127,0.25754281878471375,-1.9989731311798096,2.2881760597229004,3.4380943775177,4.067354679107666,-3.1945013999938965,0.2229340672492981
46,sampled_images/20181129_depthmap_0041_0760_01_004.png,6,0,0,-12485.539096,16360.465887,-1182.30444373692,0,1,23.1173083744843,153.393304024389,0.002690637484192848,-0.23518095910549164,3.5590131282806396,4.700214862823486,-2.307746648788452,0.13864965736865997,-3.0183398723602295,-0.22415480017662048,2.9772987365722656
47,sampled_images/20181129_depthmap_0902_0192_01_004.png,6,0,0,-17651.599096,12952.725887,-1170.08201389024,0,1,23.070690549460807,153.35999272869,0.0003265207342337817,-0.9160900712013245,-5.483062744140625,-3.6125240325927734,-2.544664144515991,-0.5202836394309998,-0.16103337705135345,-2.7119929790496826,-0.7155486345291138
48,sampled_images/20181129_depthmap_0626_0373_01_004.png,6,0,0,-15995.739096,14038.585887,-1174.19432667056,0,1,23.085633667349402,153.370604801968,4.124195038457401e-05,-1.4315286874771118,0.997735857963562,-2.7449357509613037,0.6143739223480225,2.6893813610076904,2.6774582862854004,-2.1026577949523926,-5.023135185241699
49,sampled_images/20181129_depthmap_0577_0407_01_004.png,6,0,0,-15701.859096,14242.645887,-1178.12321401247,0,1,23.0882855775523,153.37259917526,0.001562637509778142,1.0481401681900024,-2.4935624599456787,-2.4904279708862305,-3.739542007446289,4.486316680908203,-2.5459251403808594,-1.4738470315933228,-2.5733039379119873
50,sampled_images/20181129_depthmap_0245_0626_01_004.png,6,0,0,-13709.719096,15556.505887,-1211.79445598282,0,1,23.1062621777245,153.385443033387,2.348223642911762e-05,-1.4565438032150269,0.70607590675354,-2.9037537574768066,0.4821537435054779,0.3253527879714966,2.5807337760925293,-0.9380732178688049,-5.914270877838135
51,sampled_images/20181129_depthmap_0758_0286_01_004.png,6,0,0,-16787.639096000006,13516.725887,-1169.8720805037801,0,1,23.078487371647807,153.36550442273997,2.1627836758852936e-05,-1.8361263275146484,-0.03090699203312397,-2.6630873680114746,0.7293332815170288,0.49470752477645874,2.049999475479126,-0.44869527220726013,-6.121237754821777
52,sampled_images/20181129_depthmap_1105_0059_01_004.png,6,0,0,-18869.639096000006,12154.625887,-1177.43028675534,0,1,23.0596980033956,153.352194414227,0.0010212385095655918,-3.0054004192352295,1.3195756673812866,0.3710743188858032,-1.2387588024139404,-0.2659299075603485,1.9836622476577759,5.211847305297852,-1.715346097946167
53,sampled_images/20181129_depthmap_0985_0137_01_004.png,6,0,0,-18149.759096,12622.625887,-1178.44226424352,0,1,23.066194840889,153.35676718109102,2.3366632376564667e-05,-1.5545400381088257,-0.7705095410346985,-2.008209228515625,0.9497591257095337,0.0424063578248024,1.5625009536743164,-0.02024759352207184,-6.440710067749023
54,sampled_images/20181129_depthmap_0369_0544_01_004.png,6,0,0,-14453.579096,15064.405887,-1199.33656971473,0,1,23.0995499038068,153.380632048738,2.2649912352790125e-05,-2.897310495376587,0.8676459789276123,-3.8097729682922363,1.0399318933486938,0.05979805439710617,2.1963086128234863,-0.6200731992721558,-5.074104309082031
55,sampled_images/20181129_depthmap_0407_0519_01_004.png,6,0,0,-14681.479096,14914.385887,-1194.85498119128,0,1,23.0974933941536,153.379165471989,0.0001858858304331079,-3.9475631713867188,-3.259072780609131,4.230356216430664,2.484684944152832,2.01475191116333,-2.103896141052246,-2.5232255458831787,-2.7205936908721924
56,sampled_images/20181129_depthmap_0139_0696_01_004.png,6,0,0,-13073.859096,15976.425887,-1163.0506255901598,0,1,23.111999790188197,153.38954874543998,0.0034524176735430956,-3.4205992221832275,1.1597315073013306,5.620510578155518,-4.0111918449401855,3.093693971633911,-1.3957149982452393,-2.2082467079162598,2.7574524879455566
57,sampled_images/20181129_depthmap_0825_0242_01_004.png,6,0,0,-17189.779096000002,13252.505887,-1168.5253205558,0,1,23.0748582909724,153.362922274092,0.00012288197467569262,-3.9129526615142822,-2.1556620597839355,3.8184218406677246,0.568978488445282,2.552008867263794,0.9088630676269531,-3.0881967544555664,-3.997264862060547
58,sampled_images/20181129_depthmap_0020_0775_01_004.png,6,0,0,-12359.599096,16450.645887,-1174.94271117925,0,1,23.118444676653,153.394185748086,0.0009581273188814521,2.2914276123046875,2.4680867195129395,-2.4025156497955322,0.2996852695941925,0.9218555688858032,-2.864006996154785,2.9820189476013184,-1.4129953384399414
59,sampled_images/20181129_depthmap_0823_0244_01_004.png,6,0,0,-17177.619096000002,13264.465887,-1169.30091424123,0,1,23.074967996841306,153.363039100624,0.0003095395222771913,3.2459733486175537,-2.2319817543029785,3.889782667160034,-2.4423413276672363,1.749170184135437,0.5982210636138916,-1.1003310680389404,-3.324399471282959
60,sampled_images/20181129_depthmap_1050_0095_01_004.png,6,0,0,-18539.779096,12370.385887,-1182.37582324319,0,1,23.0626749609772,153.354302506051,0.0017406087135896087,-0.3701784312725067,0.7560014128684998,-2.126206398010254,-1.5974396467208862,5.724440574645996,-4.447176456451416,-0.016424525529146194,-1.169562578201294
61,sampled_images/20181129_depthmap_0999_0128_01_004.png,6,0,0,-18233.499096,12568.365887,-1180.86393881737,0,1,23.065439102444202,153.35623698890498,0.0013073274167254567,0.8389350771903992,3.381035327911377,0.9037691950798035,-2.9891128540039062,5.562378883361816,-3.1294376850128174,0.8628579378128052,-1.8429534435272217
62,sampled_images/20181129_depthmap_0063_0746_01_004.png,6,0,0,-12617.839096,16276.605887,-1170.6831843575999,0,1,23.1161145763417,153.39248394563802,0.0016376060666516423,-1.6226202249526978,5.168497085571289,0.7412324547767639,1.9135948419570923,1.0309146642684937,-3.608093738555908,1.4382762908935547,-1.1512945890426636
63,sampled_images/20181129_depthmap_0786_0268_01_004.png,6,0,0,-16955.599096,13408.685887,-1169.73399847697,0,1,23.0769716165857,153.36444853026399,0.00041999874520115554,-2.0612127780914307,-3.1936240196228027,0.22343206405639648,-3.0889360904693604,-0.4863036870956421,-1.838037133216858,4.46520471572876,-0.46712493896484375
64,sampled_images/20181129_depthmap_0518_0446_01_004.png,6,0,0,-15347.499096,14476.685887,-1187.1311804311301,0,1,23.091483316122197,153.374886816931,0.00020861435041297227,-3.3556711673736572,-0.11918137967586517,5.484645843505859,-0.008493580855429173,2.8188564777374268,-4.912789344787598,2.1290714740753174,-1.7141975164413452
65,sampled_images/20181129_depthmap_0763_0284_01_004.png,6,0,0,-16817.679096,13504.565887,-1168.97387462167,0,1,23.0782162179,153.3653854819,0.0009733334300108254,-1.5902842283248901,-2.7694222927093506,-3.438162088394165,-0.07979699224233627,4.980772972106934,-2.1622281074523926,2.545403003692627,-0.23168842494487762
66,sampled_images/20181129_depthmap_0977_0142_01_004.png,6,0,0,-18101.499096,12652.585887,-1177.69072594855,0,1,23.06663038785189,153.35705994924498,0.00025801712763495743,-2.334258556365967,-4.829248905181885,3.4537274837493896,0.9853746891021729,1.571892261505127,-0.3155152499675751,-3.882282257080078,-1.6249239444732666
67,sampled_images/20181129_depthmap_0218_0644_01_004.png,6,0,0,-13547.799096,15664.605887,-1197.16908521637,0,1,23.107723244615002,153.38649991526398,0.0024743997491896152,-3.7895970344543457,6.226028919219971,1.4423648118972778,1.584136724472046,-0.09923537820577621,-2.8725335597991943,0.8932748436927795,0.5101243853569031
68,sampled_images/20181129_depthmap_0189_0662_01_004.png,6,0,0,-13373.539096,15772.425887,-1193.79595921525,0,1,23.1092957329081,153.387554213816,2.76683804258937e-05,-1.9893406629562378,1.262739896774292,-3.0508553981781006,1.2490766048431396,-1.1204134225845337,-0.19670477509498596,-0.6030812859535217,-5.672602653503418
69,sampled_images/20181129_depthmap_0378_0538_01_004.png,6,0,0,-14507.779096,15028.465887,-1195.0026662161301,0,1,23.0990608209413,153.380280703617,0.004097360651940107,-3.0022289752960205,3.224743604660034,5.2372050285339355,-1.1484599113464355,2.584251642227173,-0.9011895656585693,-0.857998251914978,3.733910083770752
70,sampled_images/20181129_depthmap_0605_0388_01_004.png,6,0,0,-15869.799096,14128.645887,-1174.4059909254304,0,1,23.086770103931602,153.371484955926,0.0005453773192130029,-4.073068141937256,-2.9923107624053955,-3.56962513923645,-2.8807313442230225,-1.434889316558838,0.6366810202598572,-0.7197489142417908,0.03525307774543762
71,sampled_images/20181129_depthmap_0698_0326_01_004.png,6,0,0,-16427.639096000006,13756.585887,-1165.96736850349,0,1,23.081736097860304,153.367848582737,0.0001751487870933488,-1.4099161624908447,1.2908542156219482,1.2634050846099854,-2.859708070755005,-2.466348171234131,-2.9740164279937744,-4.343736171722412,-2.376646041870117
72,sampled_images/20181129_depthmap_0614_0381_01_004.png,6,0,0,-15923.499096,14086.545887,-1175.91263532688,0,1,23.086285566796604,153.371073559417,1.707372211967595e-05,-2.060767889022827,0.16779719293117523,-2.742489814758301,1.378924012184143,-0.9165814518928528,0.133763387799263,-0.18620392680168152,-6.053639888763428
73,sampled_images/20181129_depthmap_0828_0241_01_004.png,6,0,0,-17207.859096,13246.445887,-1166.47060417103,0,1,23.0746950819381,153.36286297658899,0.0005071308114565909,-2.8706600666046143,-2.745760202407837,-1.9784998893737793,-5.461273193359375,2.897134304046631,-2.360006332397461,1.2725671529769897,-2.7152504920959473
74,sampled_images/20181129_depthmap_0126_0704_01_004.png,6,0,0,-12995.719096,16024.485887,-1155.45963291899,0,1,23.1127049043528,153.390018724154,0.00028127850964665413,2.111163377761841,-5.4832563400268555,-0.5673457980155945,-2.6597280502319336,-1.4534388780593872,-3.024862766265869,-1.413374423980713,-1.116416335105896
75,sampled_images/20181129_depthmap_0399_0525_01_004.png,6,0,0,-14633.559096,14950.545887,-1191.4676149678696,0,1,23.0979257711852,153.379518895144,0.003927180077880621,1.0376337766647339,3.463430881500244,1.7424848079681396,1.0238209962844849,4.623689651489258,0.8240556716918945,1.7637077569961548,3.466127634048462
76,sampled_images/20181129_depthmap_0678_0339_01_004.png,6,0,0,-16307.639096,13834.645887,-1167.4687075552804,0,1,23.0828190142503,153.368611515761,0.00027304748073220253,-0.8951733112335205,-2.7741458415985107,0.4543105661869049,-4.61627721786499,-2.714064359664917,-2.0151286125183105,2.2111968994140625,-1.4825862646102905
77,sampled_images/20181129_depthmap_0377_0538_01_004.png,6,0,0,-14501.539096,15028.485887,-1196.59737551036,0,1,23.0991171660317,153.380280960019,0.0026496259961277246,-0.8585411310195923,3.32637095451355,3.3201708793640137,-4.803112030029297,0.3711709976196289,-4.233405590057373,-0.05213460326194763,3.2730371952056885
78,sampled_images/20181129_depthmap_1085_0072_01_004.png,6,0,0,-18749.519096,12232.425887,-1176.24809768453,0,1,23.0607820849685,153.352954560943,0.00022035684378352016,-1.4965100288391113,-4.239082336425781,-1.0146911144256592,-4.801481246948242,-0.5909359455108643,-2.5821692943573,-1.429903507232666,-1.9958014488220215
79,sampled_images/20181129_depthmap_1076_0078_01_004.png,6,0,0,-18695.859096,12268.445887,-1178.24798979957,0,1,23.061266355235,153.353306483723,0.00020378299814183265,-1.272814393043518,-2.8630993366241455,2.045114517211914,0.42197176814079285,0.8989474177360535,0.8834509253501892,-6.215662479400635,-1.0702260732650757
80,sampled_images/20181129_depthmap_0076_0737_01_004.png,6,0,0,-12695.779096,16222.565887,-1167.67877979018,0,1,23.115411334499196,153.391955566065,0.00043429023935459554,-0.07529307156801224,-4.657788276672363,-2.245435953140259,-3.332699775695801,-0.9114113450050354,-0.5687300562858582,1.7102773189544678,-0.6446587443351746
81,sampled_images/20181129_depthmap_0007_0783_01_004.png,6,0,0,-12281.559096,16498.705887,-1172.7457090729902,0,1,23.1191488732044,153.394655772512,0.00020453920296858996,-0.8198898434638977,0.49065011739730835,1.3131219148635864,-5.43822717666626,-1.3606289625167847,-2.9534590244293213,-0.21449969708919525,-4.196669101715088
82,sampled_images/20181129_depthmap_0822_0245_01_004.png,6,0,0,-17171.579096,13270.465887,-1169.5055574364098,0,1,23.075022488393504,153.363097708802,2.8054924769094214e-05,-1.9324381351470947,0.9118152856826782,-3.4300551414489746,1.3234559297561646,-1.9182155132293701,0.445430189371109,0.4343225359916687,-6.016974449157715
83,sampled_images/20181129_depthmap_0594_0395_01_004.png,6,0,0,-15803.699096,14170.525887,-1178.16661079151,0,1,23.0873666102076,153.37189432270299,0.003694346873089671,-5.7594709396362305,-1.3646271228790283,2.879396438598633,-2.865940570831299,2.839275598526001,-0.29175305366516113,-2.2930915355682373,3.5501925945281982
84,sampled_images/20181129_depthmap_0237_0631_01_004.png,6,0,0,-13661.499096,15586.525887,-1211.24833872655,0,1,23.1066973066903,153.385736566446,2.659988786035683e-05,-1.7925958633422852,-0.6236920952796936,-2.328909397125244,1.096822738647461,-0.07836893945932388,1.5457427501678467,0.018754992634058,-6.346024513244629
85,sampled_images/20181129_depthmap_0362_0548_01_004.png,6,0,0,-14411.539096,15088.405887,-1199.36053904915,0,1,23.0999292935956,153.380866728827,0.00017936504445970058,-4.101370334625244,4.616240978240967,-1.5111713409423828,-2.780996084213257,-1.4375258684158325,0.018652964383363724,-4.581118583679199,-0.04804326966404915
86,sampled_images/20181129_depthmap_0558_0419_01_004.png,6,0,0,-15587.579096,14314.445887,-1177.27097028863,0,1,23.0893168738909,153.373301030218,8.32513760542497e-05,-4.855978965759277,0.6654552221298218,0.3710372745990753,0.49581727385520935,2.5960934162139893,1.660183072090149,-4.4987077713012695,-3.6119916439056396
87,sampled_images/20181129_depthmap_0121_0707_01_004.png,6,0,0,-12965.479096,16042.685887,-1155.9283444656098,0,1,23.112977785377197,153.390196710027,0.00042637676233425736,3.1561222076416016,-2.5771923065185547,1.9324531555175781,-1.0853865146636963,0.7675843238830566,1.2592865228652954,0.9815685749053955,-2.4663870334625244
88,sampled_images/20181129_depthmap_1056_0091_01_004.png,6,0,0,-18575.639096000006,12346.445887,-1182.86088415758,0,1,23.0623513326574,153.354068600678,0.0009268270223401487,-2.6767685413360596,-1.0790371894836426,-2.864757776260376,-3.6535427570343018,6.377579212188721,-2.136824131011963,-0.9941533207893372,-2.3942606449127197
89,sampled_images/20181129_depthmap_0699_0325_01_004.png,6,0,0,-16433.619096000002,13750.525887,-1165.8300860753698,0,1,23.0816821504198,153.36778938467899,0.0007558882352896035,-0.2639465630054474,-2.358896255493164,1.6616097688674927,4.893587112426758,3.113372802734375,0.994469165802002,0.3474051356315613,-1.3207648992538452
90,sampled_images/20181129_depthmap_0713_0317_01_004.png,6,0,0,-16517.639096000006,13702.445887,-1165.43443046515,0,1,23.080923871624197,153.367319382723,5.088485704618506e-05,-0.19496577978134155,-1.8588732481002808,-0.7708607912063599,2.949885606765747,-2.05765962600708,-3.302286386489868,-2.0428109169006348,-5.339341163635254
91,sampled_images/20181129_depthmap_0419_0512_01_004.png,6,0,0,-14753.619096,14872.465887,-1183.5658224361,0,1,23.096842368811608,153.378755593257,0.0036765062250196934,-2.9881277084350586,1.9302006959915161,3.5825886726379395,-5.351722717285156,1.8714573383331299,-1.7500698566436768,-0.08983903378248215,3.3345794677734375
92,sampled_images/20181129_depthmap_0532_0436_01_004.png,6,0,0,-15431.599096000002,14416.425887,-1185.2898724177699,0,1,23.090724443344893,153.37429785775498,0.002457429189234972,-2.477393388748169,4.531528949737549,3.1668002605438232,2.2804877758026123,3.6386775970458984,-3.4385006427764893,-1.909683346748352,0.8372456431388855
93,sampled_images/20181129_depthmap_0766_0282_01_004.png,6,0,0,-16835.799096000002,13492.625887,-1169.94536169152,0,1,23.0780526965343,153.365268793443,0.00044427020475268364,-0.31208813190460205,1.3063054084777832,1.6481186151504517,-5.44471549987793,-0.592088520526886,0.8312547206878662,-1.3629181385040283,-3.586974620819092
94,sampled_images/20181129_depthmap_0652_0356_01_004.png,6,0,0,-16151.479096,13936.565887,-1171.84778435676,0,1,23.0842282407788,153.369607662375,5.043344935984351e-05,-1.5007271766662598,0.14271746575832367,-2.3302783966064453,0.7502768039703369,1.6947423219680786,2.1074271202087402,-1.672816276550293,-5.588324546813965
95,sampled_images/20181129_depthmap_0352_0555_01_004.png,6,0,0,-14351.779096,15130.465887,-1202.06786376655,0,1,23.100468524274202,153.381277871503,5.917427552049048e-05,-0.8730781078338623,-0.8826068043708801,-1.9373341798782349,-0.4352920949459076,2.326280355453491,3.3091580867767334,-0.8811231851577759,-5.981683731079102
96,sampled_images/20181129_depthmap_0941_0166_01_004.png,6,0,0,-17885.779096000002,12796.585887,-1172.8753262725802,0,1,23.068577178193106,153.358467003639,0.0021825216244906187,-2.7778356075286865,1.2876415252685547,-2.9175796508789062,-3.423809051513672,5.454886436462402,-3.2736573219299316,-2.8184103965759277,0.9241060614585876
97,sampled_images/20181129_depthmap_0084_0732_01_004.png,6,0,0,-12743.479096,16192.465887,-1166.4627740038302,0,1,23.1149809140033,153.39166121843598,0.00018260213255416602,1.896083950996399,-5.578828811645508,1.4496979713439941,-1.1143028736114502,-1.8411405086517334,-2.797178268432617,-0.671591579914093,-0.9398916363716125
98,sampled_images/20181129_depthmap_0960_0154_01_004.png,6,0,0,-17999.579096,12724.525887,-1173.0467247082304,0,1,23.067550148502,153.357762836619,0.0025533712469041348,-2.7291219234466553,0.6640639305114746,-0.8873109817504883,-4.540558815002441,5.979588985443115,-2.5280094146728516,-3.48199462890625,-1.9743632078170776
99,sampled_images/20181129_depthmap_0338_0565_01_004.png,6,0,0,-14267.639096,15190.685887,-1201.0407657589,0,1,23.1012277312173,153.381866522473,0.0005081890267319977,-2.15326189994812,-4.5825018882751465,-2.035914421081543,-3.697033643722534,2.1858105659484863,-1.4628666639328003,2.677579879760742,-1.9206886291503906
100,sampled_images/20181129_depthmap_1180_0009_01_004.png,6,0,0,-19319.739096,11854.525887,-1175.46350176069,0,1,23.055635883221694,153.34926249662598,3.2428011763840914e-05,-2.105159044265747,0.4200928807258606,-3.3598010540008545,0.5929336547851562,0.47769224643707275,2.788409948348999,-0.2609824538230896,-5.791860580444336
101,sampled_images/20181129_depthmap_0322_0575_01_004.png,6,0,0,-14171.559096,15250.405887,-1202.79701122487,0,1,23.1020947549203,153.38245041825502,9.417228284291923e-05,-3.301668643951416,2.911269426345825,-2.510207176208496,1.3463267087936401,-0.35812243819236755,-1.252713680267334,-4.786042213439941,-2.8620548248291016
102,sampled_images/20181129_depthmap_1025_0111_01_004.png,6,0,0,-18389.699096,12466.445887,-1182.65951331808,0,1,23.064029425837802,153.35524112021298,3.457738785073161e-05,-1.3274567127227783,0.9334511756896973,-3.408571481704712,0.1696728616952896,0.4038301110267639,3.0575857162475586,-0.014689208008348942,-6.344417095184326
103,sampled_images/20181129_depthmap_0388_0532_01_004.png,6,0,0,-14567.519096,14992.465887,-1192.11318189331,0,1,23.098521713301,153.379928721197,0.0037939175963401794,-5.242074489593506,1.5757511854171753,4.184574604034424,-1.5717793703079224,1.8310307264328003,-2.3753721714019775,-2.849189519882202,4.127028465270996
104,sampled_images/20181129_depthmap_0371_0543_01_004.png,6,0,0,-14465.679096000002,15058.525887,-1199.4773349692,0,1,23.0994406980028,153.380574534632,0.00022677065862808377,-1.6580469608306885,-3.870398759841919,-0.3220900893211365,0.027690239250659943,-4.263696193695068,-3.0464658737182617,-1.6668123006820679,0.22372019290924072
105,sampled_images/20181129_depthmap_0119_0710_01_004.png,6,0,0,-12953.579096,16060.445887,-1161.27468388007,0,1,23.1130850662955,153.390370208991,0.00822110939770937,-5.403285503387451,3.282872200012207,1.1418167352676392,-3.058863878250122,5.196478843688965,2.8653650283813477,0.15811313688755035,2.161977767944336
106,sampled_images/20181129_depthmap_0128_0703_01_004.png,6,0,0,-13007.779096,16018.605887,-1154.81798472581,0,1,23.1125960634084,153.389961197229,0.0019938789773732424,-4.341090679168701,1.343255877494812,1.2865831851959229,1.1603262424468994,3.0029850006103516,-4.1024603843688965,-4.843749046325684,2.795602798461914
107,sampled_images/20181129_depthmap_1118_0050_01_004.png,6,0,0,-18947.819096,12100.485887,-1177.34696820355,0,1,23.0589924532968,153.351665487906,0.0005031535401940346,0.4845872223377228,-4.50001335144043,-2.0476250648498535,-2.1129918098449707,0.1025230661034584,-0.9312261939048767,2.6203768253326416,-1.4179325103759766
108,sampled_images/20181129_depthmap_1117_0051_01_004.png,6,0,0,-18941.839096,12106.705887,-1177.31835462049,0,1,23.059046405837307,153.3517262309,6.273912731558084e-05,-2.4492359161376953,0.3594914972782135,-2.118695020675659,1.886359453201294,0.9564303159713745,0.3308638036251068,-2.5143380165100098,-4.974276065826416
109,sampled_images/20181129_depthmap_0515_0448_01_004.png,6,0,0,-15329.619096,14488.565887,-1186.67322440417,0,1,23.0916446633885,153.375002940767,0.00022896980226505548,1.2261085510253906,0.5863913297653198,-1.1905534267425537,-4.405548572540283,-2.87585711479187,-0.18320050835609436,-4.81728458404541,-0.3848819136619568
110,sampled_images/20181129_depthmap_1011_0120_01_004.png,6,0,0,-18305.479096,12520.465887,-1182.6934183835099,0,1,23.064789503891106,153.355768963142,0.0001828271779231727,-5.215157985687256,1.0318007469177246,-4.054122447967529,2.1914284229278564,1.3792672157287598,2.6579465866088867,-1.9607142210006714,-2.385521411895752
111,sampled_images/20181129_depthmap_0781_0271_01_004.png,6,0,0,-16925.539096,13426.365887,-1165.50845722285,0,1,23.077242907016807,153.364621340677,0.00879609864205122,-1.8998621702194214,2.3888604640960693,2.785456657409668,-0.5785560607910156,6.178979396820068,2.062041997909546,-0.7632436752319336,2.5159354209899902
112,sampled_images/20181129_depthmap_0188_0664_01_004.png,6,0,0,-13367.479096,15784.385887,-1193.83522618559,0,1,23.1093503387996,153.387671027321,6.778307579224929e-05,-2.8623013496398926,-0.45129260420799255,-2.13126540184021,0.6895386576652527,0.6418015360832214,1.681557536125183,0.17061366140842438,-5.834866523742676
113,sampled_images/20181129_depthmap_0648_0360_01_004.png,6,0,0,-16127.619096,13960.425887,-1169.90757978931,0,1,23.084443488990804,153.369840752908,0.0001985528797376901,-2.6229536533355713,-4.355729103088379,-1.885035753250122,-3.242398977279663,-2.892484664916992,-3.008683443069458,-2.0699081420898438,-0.36424124240875244
114,sampled_images/20181129_depthmap_0611_0384_01_004.png,6,0,0,-15905.499096,14104.345887,-1176.06356546969,0,1,23.0864479502307,153.37124745541402,6.442359153879806e-05,-3.36812162399292,0.12395228445529938,-2.7004384994506836,1.5941455364227295,3.604069709777832,2.9195356369018555,-3.872573137283325,-2.0816597938537598
115,sampled_images/20181129_depthmap_0576_0407_01_004.png,6,0,0,-15695.619096,14242.645887,-1178.51596285918,0,1,23.0883419229199,153.37259923320698,0.00010965213004965335,-0.5323793888092041,-1.8836910724639893,-0.2122107893228531,1.9070175886154175,0.21320809423923492,-0.9616286754608154,-5.789443492889404,-1.7498890161514282
116,sampled_images/20181129_depthmap_0994_0132_01_004.png,6,0,0,-18203.619096,12592.345887,-1180.33804096889,0,1,23.065708729247,153.356471246132,0.006679879035800695,-3.1310629844665527,1.6624513864517212,2.2648046016693115,-1.152059555053711,7.0787458419799805,3.034825086593628,-1.3644495010375977,1.6544286012649536
117,sampled_images/20181129_depthmap_0618_0379_01_004.png,6,0,0,-15947.539096,14074.345887,-1175.52169940343,0,1,23.0860685961922,153.370954265133,0.0005980532732792199,-4.186720371246338,-2.9690041542053223,-1.9774272441864014,-1.4129948616027832,3.1969947814941406,-1.9264832735061646,4.643133163452148,-0.07280179113149643
118,sampled_images/20181129_depthmap_0944_0164_01_004.png,6,0,0,-17903.779096000002,12784.685887,-1174.9885872063498,0,1,23.0684147347039,153.358350723248,0.0007327507482841611,-0.057456910610198975,1.6364390850067139,2.5113096237182617,1.2802451848983765,1.0571916103363037,4.164146423339844,1.1447162628173828,-2.4477052688598633
119,sampled_images/20181129_depthmap_0735_0301_01_004.png,6,0,0,-16649.699096,13606.425887,-1167.0832088814698,0,1,23.079732197674797,153.366381080064,0.00017173435480799526,-1.3322718143463135,0.5488157272338867,1.7496474981307983,-1.0914943218231201,-1.3599289655685425,-5.128342151641846,2.4079136848449707,-4.302660942077637
120,sampled_images/20181129_depthmap_0559_0419_01_004.png,6,0,0,-15593.699096,14314.645887,-1177.23639249541,0,1,23.0892616103695,153.373302925166,0.00017877087520901114,-2.3928399085998535,-0.8839972019195557,4.368243217468262,-2.2839434146881104,-1.6959866285324097,-2.469980478286743,2.314361810684204,-1.4660627841949463
121,sampled_images/20181129_depthmap_0297_0591_01_004.png,6,0,0,-14021.479096,15346.385887,-1204.06554455853,0,1,23.103449043818607,153.383388808475,0.0002873699413612485,-2.6484599113464355,-2.4242751598358154,4.187048435211182,-0.7854024767875671,-2.4202816486358643,-3.72470760345459,1.6076942682266235,-0.9595141410827637
122,sampled_images/20181129_depthmap_0241_0629_01_004.png,6,0,0,-13685.759096000002,15574.625887,-1211.53561499738,0,1,23.106478358587605,153.385620156706,2.6069104933412746e-05,-2.651853322982788,-2.417006254196167,-0.031666334718465805,2.2464239597320557,0.014112434349954128,-0.583965539932251,-0.5186924338340759,-6.112488269805908
123,sampled_images/20181129_depthmap_1035_0104_01_004.png,6,0,0,-18449.819096,12424.665887,-1182.64117604926,0,1,23.063486871107997,153.354832922048,2.932792267529294e-05,-1.1648224592208862,-0.8419180512428284,-1.802718162536621,0.03202541917562485,1.3323220014572144,2.5746631622314453,-0.5502203702926636,-6.296799182891846
124,sampled_images/20181129_depthmap_1093_0066_01_004.png,6,0,0,-18797.779096,12196.505887,-1177.51915857287,0,1,23.060346573769003,153.352603659387,6.722682155668736e-05,-5.044195175170898,-0.897773027420044,-0.9100380539894104,0.9375457763671875,2.4308297634124756,2.4468204975128174,-1.9838052988052368,-4.3631062507629395
125,sampled_images/20181129_depthmap_0713_0316_01_004.png,6,0,0,-16517.599096,13696.725887,-1165.37276286946,0,1,23.080924280064398,153.367263557287,8.150672510964796e-05,-5.3239030838012695,0.08841900527477264,-2.2541797161102295,1.9196468591690063,1.9509251117706299,2.7850325107574463,-2.5576562881469727,-2.841599464416504
126,sampled_images/20181129_depthmap_0658_0352_01_004.png,6,0,0,-16187.539096,13912.365887,-1171.7841926931098,0,1,23.083902832573,153.369371143552,5.8867462939815596e-05,-3.3169078826904297,-0.8408330082893372,-2.665398597717285,1.8129160404205322,-1.4785127639770508,0.1984466016292572,0.7890174984931946,-5.5124192237854
127,sampled_images/20181129_depthmap_0218_0643_01_004.png,6,0,0,-13547.539096,15658.565887,-1195.73165609575,0,1,23.107725649445896,153.386440957365,0.00400951225310564,-3.2963271141052246,0.16199718415737152,5.182009220123291,-3.3144044876098633,2.866806745529175,-1.5399702787399292,-2.0838468074798584,3.983914852142334
128,sampled_images/20181129_depthmap_0206_0652_01_004.png,6,0,0,-13475.499096,15712.545887,-1195.27515409822,0,1,23.108375636229,153.38696863178498,0.004637116566300392,-4.924372673034668,0.891826868057251,4.444956302642822,0.1170855239033699,3.8485891819000244,0.9866549968719482,-0.5242664217948914,4.8744964599609375
129,sampled_images/20181129_depthmap_0443_0495_01_004.png,6,0,0,-14897.859096,14770.605887,-1173.06208474915,0,1,23.0955408366096,153.377759958357,0.00010389970702817664,-3.862283229827881,2.4177331924438477,-3.3774220943450928,0.8756916522979736,-0.928837776184082,-1.096871256828308,-1.2929035425186157,-4.083071231842041
130,sampled_images/20181129_depthmap_0898_0194_01_004.png,6,0,0,-17627.839096,12964.365887,-1169.7012285714,0,1,23.070905004958806,153.36010652431003,0.00044225569581612945,-0.7369903922080994,-2.9815855026245117,1.2428475618362427,2.664266347885132,-1.0071394443511963,2.589745283126831,-4.158868312835693,-0.10877730697393417
131,sampled_images/20181129_depthmap_1069_0083_01_004.png,6,0,0,-18653.599096,12298.665887,-1182.83331203004,0,1,23.0616477285846,153.353601719166,0.000702135672327131,-1.930031657218933,-1.408308744430542,1.9710570573806763,0.5153640508651733,6.520942211151123,0.004158170893788338,3.233325242996216,-0.9023458957672119
132,sampled_images/20181129_depthmap_0411_0516_01_004.png,6,0,0,-14705.759096000002,14896.545887,-1189.37372133308,0,1,23.0972743136685,153.37899110077498,0.0030676163733005524,-4.402289390563965,1.9096548557281494,-1.4060057401657104,-0.9815966486930847,0.9367294311523438,-5.264752388000488,-0.8962056636810303,4.53282356262207
133,sampled_images/20181129_depthmap_0305_0586_01_004.png,6,0,0,-14069.779096,15316.505887,-1203.38894488855,0,1,23.103013186561494,153.383096655865,0.0003607379912864417,-1.4696698188781738,-2.157068967819214,0.023501021787524223,-5.004093647003174,0.4879987835884094,-3.1375224590301514,4.165640830993652,-1.3871127367019653
134,sampled_images/20181129_depthmap_1025_0112_01_004.png,6,0,0,-18389.699096,12472.345887,-1182.67930136838,0,1,23.064029381512107,153.35529869559798,2.6620809876476415e-05,-1.6379661560058594,0.6531761288642883,-2.735121965408325,1.3067305088043213,2.689415216445923,1.7109711170196533,-3.590683937072754,-4.068326473236084
135,sampled_images/20181129_depthmap_0688_0333_01_004.png,6,0,0,-16367.739096,13798.465887,-1166.24515000001,0,1,23.082276629857997,153.368257862395,3.914083572453819e-05,-3.140183687210083,1.0076935291290283,-2.8153669834136963,0.7534348964691162,2.68042254447937,2.888385057449341,-2.3801815509796143,-4.163394927978516
136,sampled_images/20181129_depthmap_0792_0264_01_004.png,6,0,0,-16991.839096,13384.505887,-1170.30847256094,0,1,23.076644574728302,153.364212230221,7.4035044235643e-05,-2.854659080505371,-1.5980726480484009,0.6437546610832214,1.052929401397705,1.9836434125900269,0.8450648784637451,-3.259721517562866,-5.0012125968933105
137,sampled_images/20181129_depthmap_0883_0205_01_004.png,6,0,0,-17537.699096,13030.705887,-1169.81524471055,0,1,23.071718425148696,153.36075470373,0.00026043434627354145,-2.2308404445648193,-3.8341925144195557,-3.7195494174957275,-2.354811906814575,-2.926917314529419,0.06052892655134201,-3.215616464614868,0.5987518429756165
138,sampled_images/20181129_depthmap_0786_0269_01_004.png,6,0,0,-16955.679096,13414.405887,-1168.98814968112,0,1,23.076970847958602,153.364504353732,0.0024712353479117155,-3.0106751918792725,-0.899859607219696,2.167910099029541,2.1967999935150146,-0.6177372932434082,-1.0971909761428833,0.13922713696956635,6.730739116668701
139,sampled_images/20181129_depthmap_0346_0559_01_004.png,6,0,0,-14315.839096000003,15154.465887,-1201.2697115683802,0,1,23.1007928319413,153.381512494695,0.0018022895092144608,-1.7456905841827393,1.5421892404556274,-0.6952064633369446,-1.384417176246643,5.578978538513184,-5.25773286819458,-3.0902955532073975,0.10164115577936172
140,sampled_images/20181129_depthmap_0451_0490_01_004.png,6,0,0,-14945.719096,14740.525887,-1178.69245384587,0,1,23.095108943164306,153.377465893174,0.0010378900915384293,-3.1514196395874023,-0.8409552574157715,3.591765880584717,4.021476745605469,1.9931780099868774,1.1667410135269165,2.208981990814209,-0.03196115791797638
141,sampled_images/20181129_depthmap_0347_0558_01_004.png,6,0,0,-14321.479096,15148.585887,-1201.57652684687,0,1,23.100741958270397,153.381455043194,0.0008373166201636195,-4.019060134887695,2.272545099258423,3.6093719005584717,4.402970790863037,4.086928844451904,-0.569387674331665,0.040844596922397614,0.24956324696540833
142,sampled_images/20181129_depthmap_0297_0592_01_004.png,6,0,0,-14021.559096,15352.545887,-1204.49640450935,0,1,23.103448264367298,153.383448937738,0.00014087925956118852,-2.8985142707824707,-1.167206048965454,1.8533082008361816,0.7453935742378235,0.34852123260498047,0.6030673384666443,-5.7022175788879395,-1.8668228387832642
143,sampled_images/20181129_depthmap_0278_0603_01_004.png,6,0,0,-13907.739096,15418.725887,-1206.99285608681,0,1,23.1044754083362,153.384096090709,5.2182251238264143e-05,-1.837217926979065,-0.6857372522354126,-2.371598958969116,0.818846583366394,2.0201170444488525,2.5301353931427,-1.7130992412567139,-5.342955589294434
144,sampled_images/20181129_depthmap_0185_0666_01_004.png,6,0,0,-13349.739096,15796.545887,-1191.79472043968,0,1,23.109510409312,153.387789913722,0.0004496657056733966,-2.4644250869750977,-3.139101505279541,2.8093435764312744,1.6643712520599365,-0.022295977920293808,3.916402816772461,-3.4133002758026123,-0.3523551821708679
145,sampled_images/20181129_depthmap_0912_0185_01_004.png,6,0,0,-17711.759096,12910.605887,-1170.90984032979,0,1,23.0701476490877,153.359581172914,0.0003102048358414322,-1.8604261875152588,-1.8694534301757812,2.0600595474243164,1.9987263679504395,-1.9026415348052979,3.295186758041382,-0.7548348903656006,-0.9423516392707825
146,sampled_images/20181129_depthmap_0123_0707_01_004.png,6,0,0,-12977.619096,16042.625887,-1155.51698400084,0,1,23.112868165752396,153.390195997145,6.224306707736105e-05,0.7966006994247437,-0.7301302552223206,-1.3423138856887817,0.8101796507835388,3.7883665561676025,0.5127734541893005,-4.985279083251953,-3.772129535675049
147,sampled_images/20181129_depthmap_0842_0231_01_004.png,6,0,0,-17291.799096000002,13186.625887,-1168.29710174059,0,1,23.07393760331589,153.36227845373898,0.0011541185667738318,-0.513492226600647,1.0815403461456299,-0.4890027344226837,2.839899778366089,6.024864196777344,-2.5481574535369873,0.49458086490631104,-0.598762571811676
148,sampled_images/20181129_depthmap_0574_0408_01_004.png,6,0,0,-15683.859096,14248.665887,-1177.96365797724,0,1,23.088448060534606,153.372658099392,0.0010580376256257296,0.4310559630393982,-1.2442147731781006,-5.237433910369873,-3.9427199363708496,2.2003767490386963,-0.7438294291496277,1.08023202419281,-1.4917330741882324
149,sampled_images/20181129_depthmap_0135_0698_01_004.png,6,0,0,-13049.739096,15988.645887,-1156.0154447811099,0,1,23.1122174679361,153.389668288729,0.0012414805823937058,1.1779019832611084,-1.456383228302002,-5.583164215087891,-0.756242036819458,2.7893733978271484,-2.0509958267211914,1.8536306619644165,-0.5358943939208984
150,sampled_images/20181129_depthmap_0565_0415_01_004.png,6,0,0,-15629.499096,14290.565887,-1177.4677052898,0,1,23.088938554679494,153.373067562267,0.00014733721036463976,-2.3780035972595215,-1.9766944646835327,-1.655687689781189,-2.994842290878296,-3.8866841793060303,-0.6312372088432312,-3.6636242866516113,0.8391321301460266
151,sampled_images/20181129_depthmap_0909_0188_01_004.png,6,0,0,-17693.839096,12928.385887,-1171.2705494924498,0,1,23.070309323439304,153.359754838472,0.00016219605458900332,-4.795913219451904,4.318888187408447,-3.086768388748169,1.9540044069290161,1.1469961404800415,1.3085683584213257,-3.3885257244110107,-1.5065476894378662
152,sampled_images/20181129_depthmap_0208_0650_01_004.png,6,0,0,-13487.679096000002,15700.545887,-1194.58308203449,0,1,23.108265768556198,153.386851366217,0.003061538329347968,-0.7796764373779297,3.9534356594085693,0.7622402906417847,-0.39840805530548096,0.39582473039627075,2.1323933601379395,4.000183582305908,5.363856315612793
153,sampled_images/20181129_depthmap_1061_0087_01_004.png,6,0,0,-18605.699096,12322.605887,-1183.0976720558901,0,1,23.0620800757408,153.353835718796,0.00021082471357658505,-3.2753233909606934,1.4389605522155762,-2.353180170059204,-3.0013697147369385,-1.7591283321380615,-4.431235313415527,-2.1925036907196045,-3.179283857345581
154,sampled_images/20181129_depthmap_0824_0243_01_004.png,6,0,0,-17183.719096,13258.425887,-1168.83619282687,0,1,23.074912963803,153.362980101602,7.715976244071499e-05,-1.5386234521865845,-1.792044758796692,0.35069310665130615,1.8445799350738525,-0.822679877281189,-1.1277568340301514,0.2637193500995636,-6.7383928298950195
155,sampled_images/20181129_depthmap_0399_0524_01_004.png,6,0,0,-14633.519096,14944.645887,-1191.4926739405698,0,1,23.097926185595004,153.379461305772,0.007320541422814131,-3.4692740440368652,0.5428427457809448,-0.3551374077796936,-2.7878668308258057,3.907536029815674,3.6565661430358887,1.362565517425537,4.111107349395752
156,sampled_images/20181129_depthmap_1125_0045_01_004.png,6,0,0,-18989.479096,12070.605887,-1177.6359699041,0,1,23.058616491532803,153.351373586214,5.819461148348637e-05,-2.8171169757843018,0.026530547067523003,-2.983186960220337,1.013150691986084,0.6331601142883301,2.403055429458618,-0.8521687984466553,-5.3366498947143555
157,sampled_images/20181129_depthmap_0358_0552_01_004.png,6,0,0,-14387.639096,15112.545887,-1200.63664408366,0,1,23.100144883168696,153.381102597936,0.0001469381240895018,-1.8916136026382446,-4.345144748687744,-0.7292259335517883,-0.9783347249031067,-3.7044341564178467,-3.0257866382598877,-2.67618465423584,0.7004022002220154
158,sampled_images/20181129_depthmap_0107_0717_01_004.png,6,0,0,-12881.559096,16102.425887,-1181.70908701508,0,1,23.1137349754325,153.390780777771,0.0010841141920536757,-4.112041473388672,-0.94356369972229,-5.135692596435547,0.7675204873085022,3.5430023670196533,0.14184381067752838,2.689072847366333,0.602969765663147
159,sampled_images/20181129_depthmap_0441_0496_01_004.png,6,0,0,-14885.599096000002,14776.685887,-1172.13222691121,0,1,23.095651486481,153.37781942222,0.0002092162030749023,-3.3513095378875732,0.7514423727989197,2.1667304039001465,-3.0728988647460938,-3.6964473724365234,-2.2464566230773926,-0.41732609272003174,-2.0795376300811768
160,sampled_images/20181129_depthmap_0830_0240_01_004.png,6,0,0,-17219.519096,13240.365887,-1164.93165847046,0,1,23.074589843875998,153.362803539424,0.0003254115581512451,-2.236145496368408,-3.2988734245300293,-3.8000547885894775,-3.224144697189331,-1.6823461055755615,0.8291996717453003,-1.1429916620254517,-0.37914371490478516
161,sampled_images/20181129_depthmap_0120_0709_01_004.png,6,0,0,-12959.619096,16054.485887,-1157.6418653418302,0,1,23.1130305848812,153.390311963757,0.014610621146857738,-1.3766835927963257,1.8324971199035645,-2.287780523300171,-0.2453530877828598,6.72120475769043,4.4769392013549805,-1.2230017185211182,1.873071312904358
162,sampled_images/20181129_depthmap_0750_0292_01_004.png,6,0,0,-16739.519096,13552.485887,-1169.15902452751,0,1,23.0789215899542,153.36585385025802,5.684714051312767e-05,-1.8506128787994385,-0.3890109956264496,-2.8345260620117188,2.421187162399292,-1.922632098197937,-2.0298452377319336,-1.9021797180175781,-4.9825239181518555
163,sampled_images/20181129_depthmap_0746_0294_01_004.png,6,0,0,-16715.479096,13564.465887,-1167.14849169004,0,1,23.0791385664744,153.365970982891,0.00018770901078823954,0.6646605730056763,-3.222505807876587,-1.094751238822937,-3.7055976390838623,-2.2991793155670166,-1.9355419874191284,-2.4840617179870605,-2.279942750930786
164,sampled_images/20181129_depthmap_0634_0369_01_004.png,6,0,0,-16043.739096,14014.405887,-1172.6924097073402,0,1,23.0852004458033,153.37036836439302,0.00020302458142396063,-1.6813603639602661,1.498212456703186,-2.069580554962158,1.4762585163116455,-0.3891248106956482,-2.210547685623169,-6.095770359039307,-1.6747387647628784
165,sampled_images/20181129_depthmap_1124_0046_01_004.png,6,0,0,-18983.799096,12076.365887,-1177.73023003193,0,1,23.058667738611003,153.351429837814,6.12680523772724e-05,-2.345153570175171,-1.00150728225708,-2.2747480869293213,0.34417667984962463,1.209327220916748,2.5167970657348633,-0.39975956082344055,-5.765588760375977
166,sampled_images/20181129_depthmap_0071_0741_01_004.png,6,0,0,-12665.559096,16246.445887,-1172.58012790166,0,1,23.1156839768832,153.392189008836,4.956439806846902e-05,-2.3435423374176025,1.1457524299621582,-2.6757054328918457,0.8021817207336426,-1.4949899911880493,-0.1303204447031021,1.468332052230835,-6.070775985717773
167,sampled_images/20181129_depthmap_0029_0768_01_004.png,6,0,0,-12413.719096,16408.485887,-1188.89667338309,0,1,23.117956409700398,153.393773583084,0.0003008029016200453,-0.550750732421875,0.4888499677181244,2.5750508308410645,-4.2803120613098145,-2.0508291721343994,2.8968007564544678,-0.48677700757980347,-2.080925941467285
168,sampled_images/20181129_depthmap_0300_0590_01_004.png,6,0,0,-14039.779096,15340.465887,-1203.71693546409,0,1,23.103283855417,153.383330837947,0.0008799576316960156,-3.097583055496216,-1.343399167060852,1.3001654148101807,3.806029796600342,-1.4899749755859375,3.0406782627105713,-0.33712244033813477,-0.4555295705795288
169,sampled_images/20181129_depthmap_0522_0442_01_004.png,6,0,0,-15371.659096,14452.725887,-1186.7898425953,0,1,23.091265367609,153.37465272732402,0.001097903004847467,-3.439101219177246,2.010953426361084,3.508685827255249,5.15878963470459,-0.03554529696702957,0.12041520327329636,0.062241751700639725,1.8442654609680176
170,sampled_images/20181129_depthmap_0271_0608_01_004.png,6,0,0,-13865.859096,15448.585887,-1208.41382240556,0,1,23.10485329325289,153.384387989769,0.00023822789080440998,-3.9174466133117676,-3.1741943359375,2.972313404083252,1.3836592435836792,-1.345360279083252,1.4214673042297363,1.6868857145309448,-0.15037262439727783
171,sampled_images/20181129_depthmap_0842_0232_01_004.png,6,0,0,-17291.739096,13192.465887,-1168.1822321433,0,1,23.0739380986684,153.362335448286,0.001935461419634521,-2.9815306663513184,4.914441108703613,2.909123182296753,3.1566054821014404,2.8837687969207764,-2.9446208477020264,-0.3815118074417114,0.11066301167011261
172,sampled_images/20181129_depthmap_0845_0230_01_004.png,6,0,0,-17309.679096,13180.465887,-1168.23784367136,0,1,23.0737762007554,153.362218183214,0.00022801720479037613,-4.738859176635742,-1.9761358499526978,1.5825004577636719,1.557645559310913,-3.974820613861084,-0.18275108933448792,-2.1064016819000244,0.18359285593032837
173,sampled_images/20181129_depthmap_0143_0694_01_004.png,6,0,0,-13097.639096,15964.585887,-1168.44684187905,0,1,23.111785178766894,153.389432915632,0.003709885524585843,-6.167485237121582,1.6091994047164917,1.0613292455673218,-3.1805520057678223,2.268772602081299,-2.607370376586914,-1.609147071838379,3.6605896949768066
174,sampled_images/20181129_depthmap_0408_0518_01_004.png,6,0,0,-14687.779096,14908.505887,-1195.14618649681,0,1,23.0974365599979,153.379108016359,3.752958218683489e-05,-2.5414011478424072,-1.5492000579833984,-1.9335389137268066,0.4788682162761688,1.4070751667022705,2.4360125064849854,0.04816567525267601,-5.959873676300049
175,sampled_images/20181129_depthmap_1162_0021_01_004.png,6,0,0,-19211.539096,11926.725887,-1174.61583456845,0,1,23.0566123852502,153.349967859549,0.00014810821448918432,-5.057337760925293,1.6485885381698608,-2.243697166442871,-0.3528251349925995,-2.937427043914795,-3.6730923652648926,-0.027210477739572525,-1.4206539392471313
176,sampled_images/20181129_depthmap_1082_0074_01_004.png,6,0,0,-18731.579096,12244.385887,-1177.7224719588698,0,1,23.060943990412802,153.353071413293,0.00033007399179041386,-1.124945878982544,-0.6952852010726929,3.714447259902954,-1.6974729299545288,2.111628770828247,4.47288179397583,-2.5291543006896973,-2.2253775596618652
177,sampled_images/20181129_depthmap_0681_0338_01_004.png,6,0,0,-16325.839096000003,13828.445887,-1165.26275961564,0,1,23.082654725165806,153.368550840395,0.0004271094803698361,-3.2269935607910156,-4.072690963745117,1.4976551532745361,0.8973985314369202,0.12102489173412323,-2.318636178970337,2.854114532470703,1.733708381652832
178,sampled_images/20181129_depthmap_1026_0110_01_004.png,6,0,0,-18395.479096,12460.585887,-1182.57134775471,0,1,23.0639772779428,153.355183888274,5.243642226560041e-05,-3.418919086456299,1.210698127746582,-1.9308325052261353,2.144859790802002,-1.6684072017669678,-2.8344457149505615,-3.229362726211548,-3.6629440784454346
179,sampled_images/20181129_depthmap_0206_0651_01_004.png,6,0,0,-13475.619096,15706.685887,-1194.1085534364,0,1,23.1083746082517,153.386911426825,0.0010889042168855667,-1.3073861598968506,1.8908071517944336,-5.858016014099121,-1.7813562154769897,0.3582935929298401,0.5050150156021118,1.276687741279602,1.2721352577209473
180,sampled_images/20181129_depthmap_0868_0214_01_004.png,6,0,0,-17447.799096000002,13084.365887,-1168.1663431460304,0,1,23.072529775476895,153.361279142878,0.0003815710952039808,-1.6076817512512207,0.7454813718795776,-2.663696527481079,-4.005649566650391,-3.5220377445220947,-0.16291983425617218,-3.836120367050171,1.973124623298645
181,sampled_images/20181129_depthmap_1057_0091_01_004.png,6,0,0,-18581.519096,12346.365887,-1182.9125330427698,0,1,23.062298238365504,153.354067772739,0.0005064529832452536,-2.909803867340088,-4.080900192260742,-1.4349960088729858,-5.306564807891846,2.8678789138793945,-0.7827708125114441,-0.7378731966018677,-2.1917731761932373
182,sampled_images/20181129_depthmap_0817_0247_01_004.png,6,0,0,-17141.739096,13282.465887,-1170.26531152614,0,1,23.0752918393432,153.36321507899402,4.1981227695941925e-05,-0.40210607647895813,-2.765803813934326,-1.9485299587249756,0.10573949664831161,4.365077018737793,2.166750431060791,-2.0188276767730713,-4.590280055999756
